SALE TYPE,SOLD DATE,PROPERTY TYPE,ADDRESS,CITY,STATE OR PROVINCE,ZIP OR POSTAL CODE,PRICE,BEDS,BATHS,LOCATION,SQUARE FEET,LOT SIZE,YEAR BUILT,DAYS ON MARKET,$/SQUARE FEET,HOA/MONTH,STATUS,NEXT OPEN HOUSE START TIME,NEXT OPEN HOUSE END TIME,URL (SEE https://www.redfin.com/buy-a-home/comparative-market-analysis FOR INFO ON PRICING),SOURCE,MLS#,FAVORITE,INTERESTED,LATITUDE,LONGITUDE
"In accordance with local MLS rules, some MLS listings are not included in the download"
MLS Listing,,Single Family Residential,988 Windshire Ct SE,Grand Rapids,MI,49546,600000,4,3.0,Windemere,2795,21344,1999,1,215,50,Active,,,https://www.redfin.com/MI/Grand-Rapids/988-Windshire-Ct-SE-49546/home/102846582,SW Michigan MLS,25038371,N,Y,42.9435109,-85.582624
MLS Listing,,Single Family Residential,4908 Prairie River Dr SE,Grand Rapids,MI,49512,689000,3,2.0,Grand Rapids - G,1647,40511,2022,1,418,58,Active,,,https://www.redfin.com/MI/Grand-Rapids/4908-Prairie-River-Dr-49512/home/176586524,SW Michigan MLS,25038361,N,Y,42.873729,-85.486564
MLS Listing,,Condo/Co-op,1447 N Saxony Dr SE,Grand Rapids,MI,49508,250000,3,1.5,Grand Rapids - G,1896,,1968,1,132,270,Active,,,https://www.redfin.com/MI/Grand-Rapids/1447-N-Saxony-Dr-SE-49508/home/105988525,SW Michigan MLS,25038356,N,Y,42.888312,-85.628344
MLS Listing,,Single Family Residential,1295 Cambridge Dr SE,Grand Rapids,MI,49506,350000,3,2.0,Grand Rapids - G,1701,6970,1984,1,206,,Active,,,https://www.redfin.com/MI/Grand-Rapids/1295-Cambridge-Dr-SE-49506/home/96245712,SW Michigan MLS,25038345,N,Y,42.9398728,-85.6257764
MLS Listing,,Mobile/Manufactured Home,4676 Gardens Blvd NW,Walker,MI,49534,68500,3,2.0,Leonard Gardens,1210,1216,1996,1,57,,Active,,,https://www.redfin.com/MI/Walker/4676-Gardens-Blvd-NW-49534/home/196756495,SW Michigan MLS,25038342,N,Y,42.9829146,-85.7845442
MLS Listing,,Single Family Residential,3527 Willamson Ave Ave NE,Grand Rapids,MI,49525,319000,4,2.5,Grand Rapids - G,1804,10542,1964,1,177,,Active,,,https://www.redfin.com/MI/Grand-Rapids/3527-Williamson-Ave-NE-49525/home/99532719,SW Michigan MLS,25038317,N,Y,43.0275704,-85.6482182
MLS Listing,,Single Family Residential,2138 Riverside Dr NE,Grand Rapids,MI,49505,269900,3,1.0,Grand Rapids - G,1010,5227,1949,1,267,,Active,,,https://www.redfin.com/MI/Grand-Rapids/2138-Riverside-Dr-NE-49505/home/96372692,SW Michigan MLS,25038304,N,Y,43.0025513,-85.6682605
MLS Listing,,Single Family Residential,227 Wellington Ave SE,Grand Rapids,MI,49506,339900,3,1.5,Grand Rapids - G,1464,3703,1908,1,232,,Active,,,https://www.redfin.com/MI/Grand-Rapids/227-Wellington-Ave-SE-49506/home/105984099,SW Michigan MLS,25038284,N,Y,42.958339,-85.6486358
MLS Listing,,Single Family Residential,1434 Sylvan Ave SE,Grand Rapids,MI,49506,324900,3,1.0,Grand Rapids - G,1684,7100,1955,1,193,,Active,,,https://www.redfin.com/MI/Grand-Rapids/1434-Sylvan-Ave-SE-49506/home/99546540,SW Michigan MLS,25038259,N,Y,42.9368987,-85.6293285
MLS Listing,,Single Family Residential,315 Lawndale Ave NE,Grand Rapids,MI,49503,349900,3,1.5,Grand Rapids - G,1665,6316,1925,1,210,,Active,,,https://www.redfin.com/MI/Grand-Rapids/315-Lawndale-Ave-NE-49503/home/99537143,SW Michigan MLS,25038236,N,Y,42.968638,-85.6265609
MLS Listing,,Single Family Residential,542 79th St SE,Grand Rapids,MI,49508,389000,4,2.0,Grand Rapids - G,2232,87120,1950,1,174,,Active,,,https://www.redfin.com/MI/Grand-Rapids/542-79th-St-SE-49508/home/96725423,SW Michigan MLS,25038235,N,Y,42.8204557,-85.6508703
MLS Listing,,Single Family Residential,1541 Groton Rd SE,East Grand Rapids,MI,49506,579900,3,2.0,East Grand Rapids,2146,6621,1941,1,270,,Active,August-1-2025 05:30 PM,August-1-2025 07:00 PM,https://www.redfin.com/MI/Grand-Rapids/1541-Groton-Rd-SE-49506/home/96432181,SW Michigan MLS,25038223,N,Y,42.9350245,-85.6089853
MLS Listing,,Single Family Residential,623 Deming St SE,Grand Rapids,MI,49507,324900,3,1.5,Grand Rapids - G,1700,5793,1928,1,191,,Active,August-2-2025 12:00 PM,August-2-2025 01:30 PM,https://www.redfin.com/MI/Grand-Rapids/623-Deming-St-SE-49507/home/96283994,SW Michigan MLS,25038218,N,Y,42.9221408,-85.6515357
MLS Listing,,Condo/Co-op,2359 Whimbrel Ct NE,Grand Rapids,MI,49505,399900,2,2.5,Grand Rapids - G,2277,,2001,1,176,390,Active,,,https://www.redfin.com/MI/Grand-Rapids/2359-Whimbrel-Ct-NE-49505/home/106018199,SW Michigan MLS,25038215,N,Y,42.9950541,-85.6115098
MLS Listing,,Single Family Residential,255 Trinity Dr SW,Grand Rapids,MI,49548,275000,3,1.5,Grand Rapids - G,1130,20473,1966,1,243,,Active,,,https://www.redfin.com/MI/Grand-Rapids/255-Trinity-Ave-SW-49548/home/99555321,SW Michigan MLS,25038205,N,Y,42.8378805,-85.6699645
MLS Listing,,Single Family Residential,6968 Cimarron Dr SE,Grand Rapids,MI,49546,479000,3,2.5,Grand Rapids - G,2212,16553,1978,1,217,,Active,,,https://www.redfin.com/MI/Grand-Rapids/6968-Cimarron-Dr-SE-49546/home/96216888,SW Michigan MLS,25038201,N,Y,42.8990497,-85.4955839
MLS Listing,,Single Family Residential,2058 Godwin Ave SE,Grand Rapids,MI,49507,384900,4,2.0,Grand Rapids - G,2457,7754,1940,1,157,,Active,August-1-2025 04:00 PM,August-1-2025 06:00 PM,https://www.redfin.com/MI/Grand-Rapids/2058-Godwin-Ave-SE-49507/home/106036723,SW Michigan MLS,25038194,N,Y,42.9256686,-85.6562851
MLS Listing,,Single Family Residential,7177 Thorncrest Dr SE,Grand Rapids,MI,49546,479900,3,2.0,Grand Rapids - G,1731,33541,1952,1,277,,Active,,,https://www.redfin.com/MI/Grand-Rapids/7177-Thorncrest-Dr-SE-49546/home/96383707,SW Michigan MLS,25038184,N,Y,42.9112012,-85.4906185
MLS Listing,,Single Family Residential,3030 Plainfield Ave NE,Grand Rapids,MI,49505,329000,4,1.5,Grand Rapids - G,1871,19733,1950,1,176,,Active,,,https://www.redfin.com/MI/Grand-Rapids/3030-Plainfield-Ave-NE-49505/home/96131991,SW Michigan MLS,25038172,N,Y,43.0173765,-85.6419415
MLS Listing,,Condo/Co-op,2255 Radcliff Cir SE #72,Grand Rapids,MI,49546,225000,2,2.0,Grand Rapids - G,1019,,1985,1,221,359,Active,,,https://www.redfin.com/MI/Grand-Rapids/2255-Radcliff-Cir-SE-49546/unit-72/home/105999581,SW Michigan MLS,25038168,N,Y,42.9225065,-85.5924034
MLS Listing,,Single Family Residential,1322 Arianna St NW,Grand Rapids,MI,49504,315000,3,1.5,Grand Rapids - G,1584,5614,1927,1,199,,Active,,,https://www.redfin.com/MI/Grand-Rapids/1322-Arianna-St-NW-49504/home/106033714,SW Michigan MLS,25038166,N,Y,42.9881836,-85.7012654
MLS Listing,,Condo/Co-op,6051 N Gatehouse Dr SE,Grand Rapids,MI,49546,590000,3,3.5,Gatehouse Condos,3393,,1982,1,174,697,Active,,,https://www.redfin.com/MI/Grand-Rapids/6051-N-Gatehouse-Dr-SE-49546/home/96339340,SW Michigan MLS,25038147,N,Y,42.9075572,-85.5188097
MLS Listing,,Multi-Family (2-4 Unit),1654 Alpine Ave NW,Grand Rapids,MI,49504,299900,4,2.0,Grand Rapids,,4356,1926,1,,,Active,August-2-2025 10:00 AM,August-2-2025 12:00 PM,https://www.redfin.com/MI/Grand-Rapids/1654-Alpine-Ave-NW-49504/home/96837829,REALCOMP,65025038126,N,Y,42.9940998,-85.6880639
MLS Listing,,Single Family Residential,907 Roger St NW,Grand Rapids,MI,49544,269900,3,1.5,Grand Rapids - G,1424,6665,1930,1,190,,Active,,,https://www.redfin.com/MI/Grand-Rapids/907-Roger-St-NW-49544/home/96196256,SW Michigan MLS,25038130,N,Y,43.0027901,-85.691136
MLS Listing,,Single Family Residential,1419 Maplerow Ave NW,Grand Rapids,MI,49534,330000,3,1.0,Grand Rapids - G,1431,37462,1989,1,231,,Active,August-1-2025 06:00 PM,August-1-2025 08:00 PM,https://www.redfin.com/MI/Grand-Rapids/1419-Maplerow-Ave-NW-49534/home/96422167,SW Michigan MLS,25038129,N,Y,42.9930538,-85.7601491
MLS Listing,,Single Family Residential,2466 Okemos Dr SE,Grand Rapids,MI,49506,475000,3,1.5,Grand Rapids - G,2406,12632,1964,1,197,,Active,,,https://www.redfin.com/MI/Grand-Rapids/2466-Okemos-Dr-SE-49506/home/96145873,SW Michigan MLS,25038117,N,Y,42.9182959,-85.6101538
MLS Listing,,Condo/Co-op,2530 Summit Ridge Dr NE #43,Grand Rapids,MI,49505,485000,3,2.5,Aberdeen Ridge condos,2500,,2008,1,194,295,Active,,,https://www.redfin.com/MI/Grand-Rapids/2530-Summit-Ridge-Dr-NE-49505/unit-43/home/181760514,SW Michigan MLS,25037683,N,Y,43.0083184,-85.6213127
MLS Listing,,Condo/Co-op,202 Bona Vista Dr NW,Grand Rapids,MI,49504,215000,2,1.0,Grand Rapids - G,886,,1984,1,243,410,Active,,,https://www.redfin.com/MI/Grand-Rapids/202-Bona-Vista-Dr-NW-49504/home/106025300,SW Michigan MLS,25038107,N,Y,42.9682471,-85.7253225
MLS Listing,,Single Family Residential,535 Shawmut Blvd NW,Grand Rapids,MI,49504,333000,3,2.0,Grand Rapids - G,1435,7225,1945,1,232,,Active,,,https://www.redfin.com/MI/Grand-Rapids/535-Shawmut-Blvd-NW-49504/home/106014456,SW Michigan MLS,25038078,N,Y,42.9745623,-85.7199393
MLS Listing,,Single Family Residential,3368 Hidden Hills Ave SE,Grand Rapids,MI,49546,459900,4,3.0,Grand Rapids - G,2403,20492,1971,1,191,3,Active,,,https://www.redfin.com/MI/Grand-Rapids/3368-Hidden-Hills-Ave-SE-49546/home/96244439,SW Michigan MLS,25038077,N,Y,42.9034112,-85.4829576
MLS Listing,,Single Family Residential,1225 Dorroll St NE,Grand Rapids,MI,49505,264900,2,2.0,Grand Rapids - G,1152,7536,1951,1,230,,Active,August-2-2025 01:00 PM,August-2-2025 02:00 PM,https://www.redfin.com/MI/Grand-Rapids/1225-Dorroll-St-NE-49505/home/96359937,SW Michigan MLS,25038071,N,Y,43.005278,-85.638917
MLS Listing,,Multi-Family (2-4 Unit),836 Cutler St SW #838,Wyoming,MI,49509,295000,4,2.0,Wyoming,,6534,1964,1,,,Active,,,https://www.redfin.com/MI/Wyoming/836-Cutler-St-SW-49509/unit-838/home/96836610,REALCOMP,65025038060,N,Y,42.9258022,-85.6875499
MLS Listing,,Condo/Co-op,3586 Whispering Brook Ct SE,Kentwood,MI,49508,234900,2,1.0,Grand Rapids - G,912,,1981,1,258,345,Active,,,https://www.redfin.com/MI/Grand-Rapids/3586-Whispering-Brook-Ct-SE-49508/home/99549158,SW Michigan MLS,25038035,N,Y,42.8983889,-85.6091332
MLS Listing,,Single Family Residential,4000 Granada Ct NW,Walker,MI,49534,384900,3,2.5,Grand Rapids - G,2222,12632,1977,1,173,,Active,,,https://www.redfin.com/MI/Grand-Rapids/4000-Granada-Ct-NW-49534/home/96552677,SW Michigan MLS,25038017,N,Y,42.9887553,-85.7642891
MLS Listing,,Multi-Family (2-4 Unit),1119 Thomas St SE,Grand Rapids,MI,49506,289900,4,2.0,Grand Rapids,,6200,1905,1,,,Active,,,https://www.redfin.com/MI/Grand-Rapids/1119-Thomas-St-SE-49506/home/96849359,REALCOMP,65025037949,N,Y,42.9502812,-85.6410521
MLS Listing,,Single Family Residential,2206 Maplerow Ave NW,Grand Rapids,MI,49534,479900,4,2.5,Grand Rapids - G,2239,1483,2005,1,214,,Active,August-2-2025 11:00 AM,August-2-2025 01:00 PM,https://www.redfin.com/MI/Grand-Rapids/2206-Maplerow-Ave-NW-49534/home/106003360,SW Michigan MLS,25037928,N,Y,43.005045,-85.758153
MLS Listing,,Multi-Family (2-4 Unit),3201 Marshall Ave SE,Grand Rapids,MI,49508,620000,8,4.0,Grand Rapids,3464,14810,1966,1,179,,Active,,,https://www.redfin.com/MI/Grand-Rapids/3201-Marshall-Ave-SE-49508/home/96837127,REALCOMP,65025037907,N,Y,42.9054695,-85.6451676
MLS Listing,,Single Family Residential,1039 Benjamin Ave SE,Grand Rapids,MI,49506,324900,3,1.5,Grand Rapids - G,1824,4966,1923,1,178,,Active,,,https://www.redfin.com/MI/Grand-Rapids/1039-Benjamin-Ave-SE-49506/home/96300244,SW Michigan MLS,25037917,N,Y,42.9435072,-85.6372479
MLS Listing,,Condo/Co-op,505 Cherry St SE #301,Grand Rapids,MI,49503,199900,1,1.0,HILLMOUNT CONDO,720,,1949,1,278,389,Active,,,https://www.redfin.com/MI/Grand-Rapids/505-Cherry-St-SE-49503/unit-301/home/96309950,REALCOMP,20251021657,N,Y,42.9598382,-85.6561273
MLS Listing,,Single Family Residential,1708 Cambridge Dr SE,Grand Rapids,MI,49506,344900,3,1.5,Grand Rapids - G,1796,5097,1956,1,192,,Active,,,https://www.redfin.com/MI/Grand-Rapids/1708-Cambridge-Dr-SE-49506/home/96603276,SW Michigan MLS,25037906,N,Y,42.9323032,-85.6252626
MLS Listing,,Single Family Residential,107 Gaines St SE,Grand Rapids,MI,49548,249900,3,1.0,Grand Rapids - G,960,9670,1967,1,260,,Active,,,https://www.redfin.com/MI/Grand-Rapids/107-Gaines-St-SE-49548/home/96548910,SW Michigan MLS,25037903,N,Y,42.8350765,-85.6613467
MLS Listing,,Condo/Co-op,2144 Banner Dr SW,Wyoming,MI,49509,68900,2,1.0,Leisure Acres of Wyoming '55' plus co-op community,740,,1968,1,93,675,Active,,,https://www.redfin.com/MI/Wyoming/2144-Banner-Dr-SW-49509/home/96207470,SW Michigan MLS,25037882,N,Y,42.9245239,-85.687105
MLS Listing,,Single Family Residential,1300 Buffalo Ave NE,Grand Rapids,MI,49505,255000,3,1.0,Grand Rapids - G,1410,4000,1900,1,181,,Active,August-2-2025 11:00 AM,August-2-2025 12:30 PM,https://www.redfin.com/MI/Grand-Rapids/1300-Buffalo-Ave-NE-49505/home/96381788,SW Michigan MLS,25037878,N,Y,42.9865691,-85.6630533
MLS Listing,,Single Family Residential,1320 Beckwith Ave NE,Grand Rapids,MI,49505,319000,3,1.0,Grand Rapids - G,1196,8407,1974,1,267,,Active,August-3-2025 11:00 AM,August-3-2025 01:00 PM,https://www.redfin.com/MI/Grand-Rapids/1320-Beckwith-Ave-NE-49505/home/96380641,SW Michigan MLS,25037874,N,Y,42.9868966,-85.6082593
MLS Listing,,Single Family Residential,2300 College Ave SE,Grand Rapids,MI,49507,299900,4,1.0,Grand Rapids - G,1582,6186,1950,1,190,,Active,,,https://www.redfin.com/MI/Grand-Rapids/2300-College-Ave-SE-49507/home/96428789,SW Michigan MLS,25037871,N,Y,42.9218979,-85.6547674
MLS Listing,,Condo/Co-op,600 Broadway Ave NW Unit 409B,Grand Rapids,MI,49504,299900,1,2.0,Grand Rapids - G,1189,83575,1900,1,252,597,Active,,,https://www.redfin.com/MI/Grand-Rapids/600-Broadway-Ave-NW-49504/unit-409B/home/106004390,SW Michigan MLS,25037851,N,Y,42.9738948,-85.6795789
MLS Listing,,Single Family Residential,40 Auburn Ave NE,Grand Rapids,MI,49503,429900,3,1.5,Grand Rapids - G,1451,4095,1928,1,296,,Active,August-2-2025 02:30 PM,August-2-2025 04:30 PM,https://www.redfin.com/MI/Grand-Rapids/40-Auburn-Ave-NE-49503/home/96322552,SW Michigan MLS,25037841,N,Y,42.9639153,-85.6384529
MLS Listing,,Single Family Residential,111 Haras Ct SW,Grand Rapids,MI,49548,314900,2,1.5,Grand Rapids - G,1336,16117,2012,1,236,,Active,August-2-2025 11:00 AM,August-2-2025 01:00 PM,https://www.redfin.com/MI/Grand-Rapids/111-Haras-Ct-SW-49548/home/96177002,SW Michigan MLS,25037840,N,Y,42.8372528,-85.6661211
MLS Listing,,Single Family Residential,950 Covell Ave NW,Grand Rapids,MI,49504,650000,6,3.5,Grand Rapids - G,3400,30483,1912,1,191,,Active,August-2-2025 01:00 PM,August-2-2025 03:00 PM,https://www.redfin.com/MI/Grand-Rapids/950-Covell-Ave-NW-49504/home/96325032,SW Michigan MLS,25037834,N,Y,42.9821646,-85.7168972
MLS Listing,,Single Family Residential,2151 Tenway Dr SE,East Grand Rapids,MI,49506,424900,3,2.0,Grand Rapids - G,1501,8843,1949,1,283,,Active,,,https://www.redfin.com/MI/Grand-Rapids/2151-Tenway-Dr-SE-49506/home/96166198,SW Michigan MLS,25037830,N,Y,42.9314655,-85.6149755
MLS Listing,,Single Family Residential,1723 Eighth St NW,Grand Rapids,MI,49504,345000,4,2.0,Grand Rapids - G,2096,8040,1954,2,165,,Active,,,https://www.redfin.com/MI/Grand-Rapids/1723-8th-St-NW-49504/home/96435144,SW Michigan MLS,25037807,N,Y,42.9798046,-85.7108906
MLS Listing,,Single Family Residential,1542 Fremont Ave NW,Grand Rapids,MI,49504,329900,4,1.5,Grand Rapids - G,1548,4532,1926,2,213,,Active,,,https://www.redfin.com/MI/Grand-Rapids/1542-Fremont-Ave-NW-49504/home/96498756,SW Michigan MLS,25037793,N,Y,42.991986,-85.6904904
MLS Listing,,Single Family Residential,2341 Cascade Pointe Ct SE,Grand Rapids,MI,49546,1250000,6,5.5,Grand Rapids - G,4445,16117,2014,2,281,146,Active,August-3-2025 01:00 PM,August-3-2025 02:30 PM,https://www.redfin.com/MI/Grand-Rapids/2341-Cascade-Pointe-Ct-SE-49546/home/106043583,SW Michigan MLS,25037773,N,Y,42.922238,-85.5096993
MLS Listing,,Multi-Family (2-4 Unit),721 Fairview Ave NE,Grand Rapids,MI,49503,259900,3,2.0,Grand Rapids,,5663,1890,2,,,Active,,,https://www.redfin.com/MI/Grand-Rapids/721-Fairview-Ave-NE-49503/home/96260242,REALCOMP,65025037737,N,Y,42.9758713,-85.6675462
MLS Listing,,Multi-Family (2-4 Unit),719 Fairview Ave NE,Grand Rapids,MI,49503,419900,4,3.0,Grand Rapids,,12632,1900,2,,,Active,,,https://www.redfin.com/MI/Grand-Rapids/719-Fairview-Ave-NE-49503/home/96848420,REALCOMP,65025037733,N,Y,42.9757466,-85.6676278
MLS Listing,,Single Family Residential,4020 Tall Timber Dr NW,Grand Rapids,MI,49534,524900,4,3.0,Grand Rapids - G,2505,12141,2024,2,210,,Active,,,https://www.redfin.com/MI/Grand-Rapids/4020-Tall-Timber-Dr-49534/home/109824221,SW Michigan MLS,25037731,N,Y,42.990623,-85.767818
MLS Listing,,Condo/Co-op,3704 Edington Ln SE #179,Grand Rapids,MI,49508,309900,3,3.0,Cross Creek,2034,,1987,2,152,345,Active,,,https://www.redfin.com/MI/Grand-Rapids/3704-Edington-Ln-SE-49508/unit-179/home/106040561,SW Michigan MLS,25037723,N,Y,42.8964332,-85.6073346
MLS Listing,,Condo/Co-op,875 Cascade Hills E Dr SE,Grand Rapids,MI,49546,650000,2,2.5,Grand Rapids - G,3192,,1989,2,204,500,Active,,,https://www.redfin.com/MI/Grand-Rapids/875-Cascade-Hills-East-Dr-SE-49546/home/99539885,SW Michigan MLS,25037708,N,Y,42.9473693,-85.5731465
MLS Listing,,Single Family Residential,1026 Oakdale St SE,Grand Rapids,MI,49507,259900,4,1.5,Grand Rapids - G,1236,5968,1907,2,210,,Active,August-2-2025 11:00 AM,August-2-2025 01:00 PM,https://www.redfin.com/MI/Grand-Rapids/1026-Oakdale-St-SE-49507/home/96205099,SW Michigan MLS,25037690,N,Y,42.9370298,-85.6429451
MLS Listing,,Single Family Residential,2202 Fuller Fuller Ave NE,Grand Rapids,MI,49505,235000,2,1.0,Grand Rapids - G,935,5576,1920,2,251,,Active,,,https://www.redfin.com/MI/Grand-Rapids/2202-Fuller-Ave-NE-49505/home/99533702,SW Michigan MLS,25037673,N,Y,43.0024392,-85.6394618
MLS Listing,,Single Family Residential,307 Scott Ave NW,Grand Rapids,MI,49504,299900,2,2.0,Grand Rapids - G,1834,4964,1925,2,164,,Active,,,https://www.redfin.com/MI/Grand-Rapids/307-Scott-Ave-NW-49504/home/96232408,SW Michigan MLS,25037663,N,Y,42.9689276,-85.7030866
MLS Listing,,Single Family Residential,3817 Butterworth Dr SW,Grand Rapids,MI,49534,624900,2,2.5,Grand Rapids - G,3232,58806,1960,2,193,,Active,,,https://www.redfin.com/MI/Grand-Rapids/3817-Butterworth-St-SW-49534/home/99541726,SW Michigan MLS,25037599,N,Y,42.9379773,-85.7599045
MLS Listing,,Single Family Residential,548 Eastern Ave NE,Grand Rapids,MI,49503,249900,2,1.0,Grand Rapids - G,1161,6621,1890,3,215,,Active,,,https://www.redfin.com/MI/Grand-Rapids/548-Eastern-Ave-NE-49503/home/99536645,SW Michigan MLS,25037591,N,Y,42.9727391,-85.6492874
MLS Listing,,Condo/Co-op,2060 Ken Ade St NE,Grand Rapids,MI,49505,279900,3,2.5,Grand Rapids - G,2044,,1991,3,137,325,Active,,,https://www.redfin.com/MI/Grand-Rapids/2060-Ken-Ade-St-NE-49505/home/99534639,SW Michigan MLS,25037579,N,Y,43.0015481,-85.6184011
MLS Listing,,Single Family Residential,876 Beauford St SE,Grand Rapids,MI,49508,299900,3,1.5,Grand Rapids - G,1344,12284,1983,3,223,,Active,,,https://www.redfin.com/MI/Grand-Rapids/876-Beauford-St-SE-49508/home/99556450,SW Michigan MLS,25037561,N,Y,42.8447092,-85.6426542
MLS Listing,,Single Family Residential,5480 Ranger Hills Dr SE,Grand Rapids,MI,49546,565000,4,3.5,Grand Rapids - G,2759,55321,1976,3,205,,Active,,,https://www.redfin.com/MI/Grand-Rapids/5480-Ranger-Hills-Dr-SE-49546/home/99552850,SW Michigan MLS,25037488,N,Y,42.9398748,-85.5336654
MLS Listing,,Single Family Residential,3701 Grape Ave NE,Grand Rapids,MI,49525,280000,2,1.0,Grand Rapids - G,1484,7405,1953,3,189,,Active,August-2-2025 01:00 PM,August-2-2025 02:30 PM,https://www.redfin.com/MI/Grand-Rapids/3701-Grape-Ave-NE-49525/home/96591271,SW Michigan MLS,25037485,N,Y,43.0303107,-85.6173564
MLS Listing,,Multi-Family (2-4 Unit),759 76th St #763,Grand Rapids,MI,49548,599900,,,Gaines Twp,3516,20473,1998,3,171,,Active,,,https://www.redfin.com/MI/Grand-Rapids/759-76th-ST-49548/unit-763/home/196685361,MiRealSource-MiMLS,70484069,N,Y,42.826563,-85.645334
MLS Listing,,Multi-Family (2-4 Unit),759 76th St SE #763,Grand Rapids,MI,49548,599900,10,6.0,Grand Rapids,3516,20473,1998,3,171,,Active,,,https://www.redfin.com/MI/Grand-Rapids/759-76th-St-SE-49508/unit-763/home/142662273,REALCOMP,65025037414,N,Y,42.826583,-85.6453451
MLS Listing,,Condo/Co-op,3547 Megan Ct NW #47,Walker,MI,49534,385000,3,3.0,Village Wood Condos,2248,,2004,3,171,320,Active,,,https://www.redfin.com/MI/Walker/3547-Megan-Dr-49534/unit-47/home/196631070,SW Michigan MLS,25037397,N,Y,42.9897864,-85.7559775
MLS Listing,,Single Family Residential,940 Lake Michigan Dr NW,Grand Rapids,MI,49504,289900,3,2.0,Grand Rapids - G,1308,4520,1927,4,222,,Active,,,https://www.redfin.com/MI/Grand-Rapids/940-Lake-Michigan-Dr-NW-49504/home/96278306,SW Michigan MLS,25037370,N,Y,42.9660523,-85.6915029
MLS Listing,,Single Family Residential,3752 Eastern Ave NE,Grand Rapids,MI,49525,599900,4,2.5,Eastern Meadows,2664,25831,2023,4,225,,Active,,,https://www.redfin.com/MI/Grand-Rapids/3752-Eastern-Ave-NE-49525/home/189149379,SW Michigan MLS,25037369,N,Y,43.031225,-85.648684
MLS Listing,,Single Family Residential,2731 Eastern Ave SE,Grand Rapids,MI,49507,230000,2,1.0,Alger 1,836,7536,1952,4,275,,Active,,,https://www.redfin.com/MI/Grand-Rapids/2731-Eastern-Ave-SE-49507/home/99548256,SW Michigan MLS,25037367,N,Y,42.9139336,-85.647441
MLS Listing,,Single Family Residential,1405 Bemis St SE,Grand Rapids,MI,49506,349900,4,1.5,Grand Rapids - G,2100,600,1920,4,167,,Active,,,https://www.redfin.com/MI/Grand-Rapids/1405-Bemis-St-SE-49506/home/96329118,SW Michigan MLS,25037351,N,Y,42.9529821,-85.634302
MLS Listing,,Single Family Residential,4432 Cloverleaf Dr SE,Grand Rapids,MI,49546,389900,4,1.5,Forest Hills Meadows,1909,14288,1962,4,204,,Active,,,https://www.redfin.com/MI/Grand-Rapids/4432-Cloverleaf-Dr-SE-49546/home/99546195,SW Michigan MLS,25037346,N,Y,42.933565,-85.5593722
MLS Listing,,Single Family Residential,1513 Sylvan Ave SE,Grand Rapids,MI,49506,309900,3,2.5,Grand Rapids - G,1556,4269,1953,4,199,,Active,August-3-2025 11:00 AM,August-3-2025 12:30 PM,https://www.redfin.com/MI/Grand-Rapids/1513-Sylvan-Ave-SE-49506/home/96339079,SW Michigan MLS,25036724,N,Y,42.9358153,-85.6298448
MLS Listing,,Single Family Residential,1643 Gorham Dr SE,Grand Rapids,MI,49506,495000,4,2.0,Grand Rapids - G,2323,,1958,5,213,,Active,,,https://www.redfin.com/MI/Grand-Rapids/1643-Gorham-Dr-SE-49506/home/96146920,SW Michigan MLS,25037259,N,Y,42.932908,-85.6178325
MLS Listing,,Single Family Residential,2050 Arnold Ave SW,Wyoming,MI,49509,293998,4,3.0,MEINEMA ADD,1532,5271,1930,5,192,,Active,,,https://www.redfin.com/MI/Wyoming/2050-Arnold-Ave-SW-49509/home/96126141,SW Michigan MLS,25037252,N,Y,42.9263992,-85.6877598
MLS Listing,,Single Family Residential,1558 Lake Grove Ave SE,East Grand Rapids,MI,49506,399900,3,1.0,Grand Rapids - G,1653,7362,1951,6,242,,Active,,,https://www.redfin.com/MI/Grand-Rapids/1558-Lake-Grove-Ave-SE-49506/home/96681043,SW Michigan MLS,25037233,N,Y,42.9345334,-85.6063615
MLS Listing,,Single Family Residential,2525 Keyton Ct NW,Grand Rapids,MI,49504,749900,3,2.5,Grand Rapids - G,3496,48787,1998,6,215,,Active,,,https://www.redfin.com/MI/Grand-Rapids/2525-Keyton-Ct-NW-49504/home/106033556,SW Michigan MLS,25037186,N,Y,43.0025525,-85.7266941
MLS Listing,,Single Family Residential,2112 Jerome Ave SW,Grand Rapids,MI,49507,215000,3,1.0,VILLAGE OF SOUTH GRAND RAPIDS,1026,6534,1900,6,210,,Active,,,https://www.redfin.com/MI/Grand-Rapids/2112-Jerome-Ave-SW-49507/home/99542938,REALCOMP,20251020842,N,Y,42.9257406,-85.6767512
MLS Listing,,Single Family Residential,1543 Mackinaw Rd SE,Grand Rapids,MI,49506,750000,4,2.5,Grand Rapids - G,3005,11674,1941,6,250,,Active,August-3-2025 02:00 PM,August-3-2025 03:30 PM,https://www.redfin.com/MI/Grand-Rapids/1543-Mackinaw-Rd-SE-49506/home/96381718,SW Michigan MLS,25037174,N,Y,42.9456348,-85.6310085
MLS Listing,,Single Family Residential,604 Grand Ave NE,Grand Rapids,MI,49503,249900,3,1.5,Grand Rapids - G,1256,6752,1910,6,199,,Active,,,https://www.redfin.com/MI/Grand-Rapids/604-Grand-Ave-NE-49503/home/96214950,SW Michigan MLS,25037110,N,Y,42.9740833,-85.6517359
MLS Listing,,Single Family Residential,1025 Tamarack Ave NW,Grand Rapids,MI,49504,267500,4,2.0,Grand Rapids - G,2498,3964,1880,6,107,,Active,,,https://www.redfin.com/MI/Grand-Rapids/1025-Tamarack-Ave-NW-49504/home/99530205,SW Michigan MLS,25037077,N,Y,42.9825868,-85.6931753
MLS Listing,,Single Family Residential,1753 Breton Rd SE,East Grand Rapids,MI,49506,725000,4,2.5,Grand Rapids - G,2916,12894,1958,6,249,,Active,,,https://www.redfin.com/MI/Grand-Rapids/1753-Breton-Rd-SE-49506/home/96282513,SW Michigan MLS,25036552,N,Y,42.9317103,-85.6099367
MLS Listing,,Condo/Co-op,144 Oakes St SW #1901,Grand Rapids,MI,49503,1150000,3,3.0,Grand Rapids - G,1750,,2024,6,657,690,Active,,,https://www.redfin.com/MI/Grand-Rapids/144-Oakes-St-SW-49503/unit-1901/home/193962855,SW Michigan MLS,25037021,N,Y,42.9609063,-85.6729004
MLS Listing,,Single Family Residential,825 Alexander St SE,Grand Rapids,MI,49507,235000,2,1.0,Grand Rapids - G,765,6447,2020,6,307,,Active,,,https://www.redfin.com/MI/Grand-Rapids/825-Alexander-St-SE-49507/home/99539098,SW Michigan MLS,25037020,N,Y,42.9449687,-85.6481635
MLS Listing,,Condo/Co-op,2482 Summit Ridge Dr NE,Grand Rapids,MI,49505,485000,4,2.5,Aberdeen Ridge,2607,,2007,6,186,295,Active,,,https://www.redfin.com/MI/Grand-Rapids/2482-Summit-Ridge-Dr-NE-49505/home/103984867,SW Michigan MLS,25037006,N,Y,43.0076536,-85.6204598
MLS Listing,,Single Family Residential,2387 Michigan St NE,Grand Rapids,MI,49503,300000,3,2.0,Grand Rapids - G,1740,11892,1954,6,172,,Active,,,https://www.redfin.com/MI/Grand-Rapids/2387-Michigan-St-NE-49503/home/99536541,SW Michigan MLS,25036996,N,Y,42.9703942,-85.6107247
MLS Listing,,Condo/Co-op,144 Oakes St SW #2004,Grand Rapids,MI,49503,735000,2,2.0,Grand Rapids - G,1245,,2024,6,590,608,Active,,,https://www.redfin.com/MI/Grand-Rapids/144-Oakes-St-SW-49503/unit-2004/home/193962428,SW Michigan MLS,25036982,N,Y,42.9609063,-85.6729004
MLS Listing,,Single Family Residential,1169 3rd St NW,Grand Rapids,MI,49504,229900,2,1.0,Grand Rapids - G,970,5360,1920,6,237,,Active,,,https://www.redfin.com/MI/Grand-Rapids/1169-3rd-St-NW-49504/home/96188073,SW Michigan MLS,25027536,N,Y,42.974438,-85.6977688
MLS Listing,,Single Family Residential,6400 Tammarron Ct SE,Grand Rapids,MI,49546,1300000,5,4.5,Tammarron Estates,6595,165964,1988,7,197,83,Active,,,https://www.redfin.com/MI/Grand-Rapids/6400-Tammarron-Ct-SE-49546/home/96147118,SW Michigan MLS,25036972,N,Y,42.9346788,-85.511114
MLS Listing,,Condo/Co-op,144 Oakes St SW #1906,Grand Rapids,MI,49503,850000,2,2.0,Grand Rapids - G,1427,,2024,7,596,637,Active,,,https://www.redfin.com/MI/Grand-Rapids/144-Oakes-St-SW-49503/unit-1906/home/193962416,SW Michigan MLS,25036970,N,Y,42.9609063,-85.6729004
MLS Listing,,Condo/Co-op,4470 Oak Arbor Dr NE #7,Grand Rapids,MI,49525,779900,5,3.0,Grand Rapids - G,3454,,2003,7,226,425,Active,,,https://www.redfin.com/MI/Grand-Rapids/4470-Oak-Arbor-Dr-NE-49525/unit-7/home/187792931,SW Michigan MLS,25036905,N,Y,43.0417854,-85.5589286
MLS Listing,,Single Family Residential,709 Gladstone Dr SE,East Grand Rapids,MI,49506,479000,3,1.5,Grand Rapids - G,1574,3790,1925,7,304,,Active,,,https://www.redfin.com/MI/Grand-Rapids/709-Gladstone-Dr-SE-49506/home/96301345,SW Michigan MLS,25036904,N,Y,42.9498264,-85.62951
MLS Listing,,Single Family Residential,3240 Midland Dr SE,Grand Rapids,MI,49546,599000,3,3.0,Grand Rapids - G,2200,12632,2023,7,272,,Active,,,https://www.redfin.com/MI/Grand-Rapids/3240-Midland-Dr-SE-49546/home/106259736,SW Michigan MLS,25036876,N,Y,42.959292,-85.5891654
MLS Listing,,Single Family Residential,1110 Breton Rd SE,East Grand Rapids,MI,49506,1495000,4,3.5,Grand Rapids - G,3341,19515,1898,7,447,,Active,,,https://www.redfin.com/MI/Grand-Rapids/1110-Breton-Rd-SE-49506/home/96166669,SW Michigan MLS,25036852,N,Y,42.9426157,-85.6093341
MLS Listing,,Single Family Residential,1849 Greenleaf Ct SE,Grand Rapids,MI,49508,360000,3,2.5,Grand Rapids - G,2000,10019,1981,7,180,,Active,,,https://www.redfin.com/MI/Grand-Rapids/1849-Greenleaf-Ct-SE-49508/home/96375851,SW Michigan MLS,25036814,N,Y,42.9065392,-85.6209512
MLS Listing,,Single Family Residential,226 Diamond Ave NE,Grand Rapids,MI,49503,339000,3,1.5,Grand Rapids - G,1176,5412,1923,7,288,,Active,,,https://www.redfin.com/MI/Grand-Rapids/226-Diamond-Ave-NE-49503/home/106036309,SW Michigan MLS,25036772,N,Y,42.9675377,-85.6444111
MLS Listing,,Multi-Family (2-4 Unit),335 Crescent St NE,Grand Rapids,MI,49503,590000,6,4.0,Grand Rapids,3505,4356,1900,7,168,,Active,,,https://www.redfin.com/MI/Grand-Rapids/335-Crescent-St-NE-49503/home/99537664,REALCOMP,65025036751,N,Y,42.9691134,-85.6605011
MLS Listing,,Single Family Residential,130 Centennial Ave NW,Grand Rapids,MI,49504,369000,3,2.5,Grand Rapids - G,2802,86,1970,7,132,,Active,,,https://www.redfin.com/MI/Grand-Rapids/130-Centennial-Ave-NW-49504/home/99531422,SW Michigan MLS,25036763,N,Y,42.9668544,-85.7192765
MLS Listing,,Single Family Residential,433 Carpenter Ave NW,Grand Rapids,MI,49504,439900,3,3.0,Grand Rapids - G,2744,10454,2025,7,160,,Active,,,https://www.redfin.com/MI/Grand-Rapids/433-Carpenter-Ave-NW-49504/home/99565609,SW Michigan MLS,25036756,N,Y,42.972776,-85.734263
MLS Listing,,Single Family Residential,8 Indiana Ave SW,Grand Rapids,MI,49504,249900,3,1.0,Grand Rapids - G,1125,1600,1912,7,222,,Active,,,https://www.redfin.com/MI/Grand-Rapids/8-Indiana-Ave-SW-49504/home/96162513,SW Michigan MLS,25036717,N,Y,42.96323,-85.6885955
MLS Listing,,Condo/Co-op,2364 Watertown Way NE,Grand Rapids,MI,49505,325000,2,2.0,Grand Rapids - G,1215,,2021,7,267,245,Active,,,https://www.redfin.com/MI/Grand-Rapids/2364-Watertown-Way-49505/home/176581993,SW Michigan MLS,25036715,N,Y,42.978028,-85.61173
MLS Listing,,Condo/Co-op,3181 Charlevoix Dr SE #103,Grand Rapids,MI,49546,215000,1,1.5,Grand Rapids - G,1083,,1981,7,199,350,Active,,,https://www.redfin.com/MI/Grand-Rapids/3181-Charlevoix-Dr-SE-49546/unit-103/home/195057043,SW Michigan MLS,25036716,N,Y,42.9061415,-85.5216524
MLS Listing,,Condo/Co-op,1183 Kensington St NW,Grand Rapids,MI,49534,365000,2,2.5,Huntington Ridge,2046,,2000,7,178,425,Active,,,https://www.redfin.com/MI/Grand-Rapids/1183-Kensington-St-NW-49534/home/106040355,SW Michigan MLS,25036688,N,Y,42.9841001,-85.7705784
MLS Listing,,Single Family Residential,1692 Roaming Ct NE,Grand Rapids,MI,49525,499900,3,3.5,Grand Rapids - G,2812,16030,2004,7,178,,Active,,,https://www.redfin.com/MI/Grand-Rapids/1692-Roaming-Ct-NE-49525/home/106285158,SW Michigan MLS,25036572,N,Y,43.0485065,-85.6267169
MLS Listing,,Condo/Co-op,40 Monroe Center St NW #302,Grand Rapids,MI,49503,233900,1,1.0,Peck Building Condominiums,750,,1875,8,312,205,Active,August-1-2025 11:00 AM,August-1-2025 01:00 PM,https://www.redfin.com/MI/Grand-Rapids/40-Monroe-Center-St-NW-49503/unit-302/home/106234035,SW Michigan MLS,25036687,N,Y,42.964256,-85.6682805
MLS Listing,,Vacant Land,3844 Upper Lake Ct NE #56,Grand Rapids,MI,49525,179900,,,Grand Rapids - G,,14810,,8,,150,Active,,,https://www.redfin.com/MI/Grand-Rapids/3844-Upper-Lake-Ct-NE-49525/unit-56/home/169798326,SW Michigan MLS,25036653,N,Y,43.002361,-85.574713
MLS Listing,,Single Family Residential,606 N Park St NE,Grand Rapids,MI,49525,294900,3,1.5,Grand Rapids - G,1994,8712,1920,8,148,,Active,August-2-2025 01:00 PM,August-2-2025 03:00 PM,https://www.redfin.com/MI/Grand-Rapids/606-N-Park-St-NE-49525/home/96362008,SW Michigan MLS,25036637,N,Y,43.0218218,-85.6550374
MLS Listing,,Single Family Residential,716 Coit Ave NE,Grand Rapids,MI,49503,279500,4,2.0,Grand Rapids - G,1940,6316,1940,8,144,,Active,,,https://www.redfin.com/MI/Grand-Rapids/716-Coit-Ave-NE-49503/home/96148689,SW Michigan MLS,25036613,N,Y,42.9757373,-85.6641513
MLS Listing,,Single Family Residential,4062 Mohler St NW,Walker,MI,49534,389900,4,2.0,Grand Rapids - G,1500,32670,2004,8,260,,Active,,,https://www.redfin.com/MI/Grand-Rapids/4062-Mohler-St-NW-49534/home/96408410,SW Michigan MLS,25036594,N,Y,42.9983902,-85.7689889
MLS Listing,,Single Family Residential,315 Spruce St SE,Grand Rapids,MI,49507,310000,3,1.5,Grand Rapids - G,2100,6011,1957,8,148,,Active,August-2-2025 10:00 AM,August-2-2025 12:00 PM,https://www.redfin.com/MI/Grand-Rapids/315-Spruce-St-SE-49507/home/99548109,SW Michigan MLS,25036592,N,Y,42.9149837,-85.6591206
MLS Listing,,Single Family Residential,725 Gladstone Dr SE,East Grand Rapids,MI,49506,475000,3,2.0,Grand Rapids - G,1290,6403,1909,8,368,,Active,,,https://www.redfin.com/MI/Grand-Rapids/725-Gladstone-Dr-SE-49506/home/106013062,SW Michigan MLS,25036590,N,Y,42.9493753,-85.629515
MLS Listing,,Single Family Residential,2233 Tremont Blvd NW,Grand Rapids,MI,49504,309900,2,2.0,Grand Rapids - G,1416,9375,1952,8,219,,Active,,,https://www.redfin.com/MI/Grand-Rapids/2233-Tremont-Blvd-NW-49504/home/96303339,SW Michigan MLS,25036561,N,Y,42.9775878,-85.7221911
MLS Listing,,Single Family Residential,943 Prospect Ave NE,Grand Rapids,MI,49503,224900,4,1.0,Grand Rapids - G,997,3125,1900,8,226,,Active,,,https://www.redfin.com/MI/Grand-Rapids/943-Prospect-Ave-NE-49503/home/96317457,SW Michigan MLS,25036533,N,Y,42.9806436,-85.6611123
MLS Listing,,Single Family Residential,964 Lincoln Ave NW,Grand Rapids,MI,49504,289900,4,2.5,Grand Rapids - G,1394,4792,1920,8,208,,Active,,,https://www.redfin.com/MI/Grand-Rapids/964-Lincoln-Ave-NW-49504/home/96382730,SW Michigan MLS,25036511,N,Y,42.9813886,-85.6963335
MLS Listing,,Single Family Residential,1432 Eastlawn Rd SE,Grand Rapids,MI,49506,425000,3,1.0,Grand Rapids - G,2085,6098,1950,8,204,,Active,August-2-2025 12:00 PM,August-2-2025 02:00 PM,https://www.redfin.com/MI/Grand-Rapids/1432-Eastlawn-Rd-SE-49506/home/96546444,SW Michigan MLS,25036474,N,Y,42.93682,-85.6118655
MLS Listing,,Single Family Residential,911 Muskegon Ave NW,Grand Rapids,MI,49504,199995,3,1.0,Grand Rapids - G,1255,4026,1865,8,159,,Active,,,https://www.redfin.com/MI/Grand-Rapids/911-Muskegon-Ave-NW-49504/home/96722105,SW Michigan MLS,25036458,N,Y,42.9800554,-85.6844897
MLS Listing,,Single Family Residential,732 Ottillia St SE,Grand Rapids,MI,49507,399000,3,1.5,Grand Rapids - G,2135,5793,1926,8,187,,Active,,,https://www.redfin.com/MI/Grand-Rapids/732-Ottillia-St-SE-49507/home/96654623,SW Michigan MLS,25036445,N,Y,42.9226269,-85.6484445
MLS Listing,,Single Family Residential,1637 Laraway Lake Dr SE,Grand Rapids,MI,49546,474900,5,2.5,Grand Rapids - G,2310,20912,1976,8,206,,Active,,,https://www.redfin.com/MI/Grand-Rapids/1637-Laraway-Lake-Dr-SE-49546/home/99552708,SW Michigan MLS,25036444,N,Y,42.9317375,-85.4976078
MLS Listing,,Condo/Co-op,1809 Woodside Trl NW,Grand Rapids,MI,49504,495000,2,2.5,The Villas of Oakleigh Woods,2602,,2004,8,190,520,Active,,,https://www.redfin.com/MI/Grand-Rapids/1809-Woodside-Trl-NW-49504/home/106245823,SW Michigan MLS,25029633,N,Y,42.9971458,-85.7252976
MLS Listing,,Single Family Residential,1034 Kalamazoo Ave SE,Grand Rapids,MI,49507,250000,4,2.0,Grand Rapids - G,1899,7971,1922,8,132,,Active,,,https://www.redfin.com/MI/Grand-Rapids/1034-Kalamazoo-Ave-SE-49507/home/105997274,SW Michigan MLS,25036424,N,Y,42.9438944,-85.6454794
MLS Listing,,Single Family Residential,2664 Pinesboro Dr NE,Grand Rapids,MI,49525,380000,3,2.0,Whispering Pines,1950,20909,1966,8,195,,Active,,,https://www.redfin.com/MI/Grand-Rapids/2664-Pinesboro-Dr-NE-49525/home/99532717,SW Michigan MLS,25036418,N,Y,43.0171973,-85.6035093
MLS Listing,,Single Family Residential,2221 Palace Ave SW,Grand Rapids,MI,49507,224900,4,1.5,Grand Rapids - G,1041,4966,1910,9,216,,Active,,,https://www.redfin.com/MI/Grand-Rapids/2221-Palace-Ave-SW-49507/home/99542805,SW Michigan MLS,25036405,N,Y,42.9239784,-85.6747819
MLS Listing,,Single Family Residential,11580 14th Ave NW,Grand Rapids,MI,49534,649900,4,3.0,Grand Rapids - G,2367,148975,2025,9,275,,Active,,,https://www.redfin.com/MI/Grand-Rapids/11580-14th-Ave-NW-49534/home/190844392,SW Michigan MLS,25036396,N,Y,42.979633,-85.819389
MLS Listing,,Condo/Co-op,600 Broadway Ave NW Unit 113B,Grand Rapids,MI,49504,225000,2,1.0,Grand Rapids - G,1296,,1900,9,174,633,Active,,,https://www.redfin.com/MI/Grand-Rapids/600-Broadway-Ave-NW-49504/unit-113B/home/96233613,SW Michigan MLS,25036371,N,Y,42.9738948,-85.6795789
MLS Listing,,Single Family Residential,1563 Amberly Dr SE,Grand Rapids,MI,49508,375000,4,2.0,Grand Rapids - G,2034,14418,1996,9,184,,Active,August-3-2025 12:00 PM,August-3-2025 02:00 PM,https://www.redfin.com/MI/Grand-Rapids/1563-Amberly-Dr-SE-49508/home/99550134,SW Michigan MLS,25034647,N,Y,42.894326,-85.6269638
MLS Listing,,Single Family Residential,1121 Benjamin Ave SE,Grand Rapids,MI,49506,275000,4,1.5,Grand Rapids - G,2218,4966,1925,9,124,,Active,August-2-2025 12:00 PM,August-2-2025 02:00 PM,https://www.redfin.com/MI/Grand-Rapids/1121-Benjamin-Ave-SE-49506/home/96281683,SW Michigan MLS,25036334,N,Y,42.9420875,-85.6372444
MLS Listing,,Single Family Residential,2115 Boston St SE,Grand Rapids,MI,49506,499900,4,2.5,Grand Rapids - G,2214,11365,1948,9,226,,Active,August-2-2025 10:00 AM,August-2-2025 12:00 PM,https://www.redfin.com/MI/Grand-Rapids/2115-Boston-St-SE-49506/home/96194041,SW Michigan MLS,25036323,N,Y,42.9345861,-85.6169687
MLS Listing,,Condo/Co-op,44 Lafayette Ave NE #6,Grand Rapids,MI,49503,245000,2,1.0,Grand Rapids - G,1520,,1855,9,161,182,Active,,,https://www.redfin.com/MI/Grand-Rapids/44-Lafayette-Ave-NE-49503/unit-6/home/168661856,SW Michigan MLS,25036226,N,Y,42.9642726,-85.661237
MLS Listing,,Condo/Co-op,940 Monroe Ave NW Ste 347,Grand Rapids,MI,49503,395000,3,2.0,Grand Rapids - G,1295,,1892,9,305,491,Active,,,https://www.redfin.com/MI/Grand-Rapids/940-Monroe-Ave-NW-49503/unit-347/home/96285599,SW Michigan MLS,25036207,N,Y,42.9784811,-85.671809
MLS Listing,,Single Family Residential,2104 Chesaning Dr SE,Grand Rapids,MI,49506,399900,3,2.5,Grand Rapids - G,2537,9975,1960,10,158,,Active,August-3-2025 01:00 PM,August-3-2025 04:00 PM,https://www.redfin.com/MI/Grand-Rapids/2104-Chesaning-Dr-SE-49506/home/96214176,SW Michigan MLS,25036083,N,Y,42.9252455,-85.616971
MLS Listing,,Single Family Residential,830 Blackburn St SW,Wyoming,MI,49509,274900,4,2.5,Grand Rapids - G,1520,7971,1953,10,181,,Active,,,https://www.redfin.com/MI/Wyoming/830-Blackburn-St-SW-49509/home/99542822,SW Michigan MLS,25036028,N,Y,42.919987,-85.687085
MLS Listing,,Single Family Residential,2217 Audobon Dr SE,East Grand Rapids,MI,49506,300000,2,1.0,Grand Rapids - G,768,5706,1952,10,391,,Active,,,https://www.redfin.com/MI/Grand-Rapids/2217-Audobon-Dr-SE-49506/home/96332680,SW Michigan MLS,25036006,N,Y,42.9367796,-85.6141392
MLS Listing,,Single Family Residential,812 Sheldon Ave SE,Grand Rapids,MI,49507,174900,3,2.0,Grand Rapids - G,1274,6273,1885,10,137,,Active,,,https://www.redfin.com/MI/Grand-Rapids/812-Sheldon-Ave-SE-49507/home/106252345,SW Michigan MLS,25035999,N,Y,42.9482433,-85.6655011
MLS Listing,,Vacant Land,543 Tenhaaf Ct SW,Grand Rapids,MI,49503,49900,,,Grand Rapids - G,,1742,,11,,,Active,,,https://www.redfin.com/MI/Grand-Rapids/543-Tenhaaf-Ct-SW-49503/home/99532328,SW Michigan MLS,25035979,N,Y,42.9454056,-85.6811171
MLS Listing,,Single Family Residential,4452 Trail View Dr NE,Grand Rapids,MI,49525,329000,3,2.5,Grand Rapids - G,2796,13068,1980,11,118,,Active,,,https://www.redfin.com/MI/Grand-Rapids/4452-Trail-View-Dr-NE-49525/home/96170256,SW Michigan MLS,25035978,N,Y,43.0434053,-85.5951932
MLS Listing,,Single Family Residential,3785 Willow Dr NE,Grand Rapids,MI,49525,285000,3,2.0,Grand Rapids - G,1512,5314,1910,11,188,,Active,,,https://www.redfin.com/MI/Grand-Rapids/3785-Willow-Dr-NE-49525/home/96198745,SW Michigan MLS,25035960,N,Y,43.032337,-85.6588334
MLS Listing,,Multi-Family (2-4 Unit),318 Diamond Ave SE,Grand Rapids,MI,49506,250000,4,2.0,Grand Rapids,,3485,1905,11,,,Active,,,https://www.redfin.com/MI/Grand-Rapids/318-Diamond-Ave-SE-49506/home/96837607,REALCOMP,65025035941,N,Y,42.9571036,-85.6442118
MLS Listing,,Single Family Residential,519 Faircrest Ave NW,Walker,MI,49534,278000,4,1.0,Grand Rapids - G,988,7860,1972,12,281,,Active,,,https://www.redfin.com/MI/Grand-Rapids/519-Faircrest-Ave-NW-49534/home/96309707,SW Michigan MLS,25035934,N,Y,42.974663,-85.7754169
MLS Listing,,Single Family Residential,2650 Oldepointe Dr NE,Grand Rapids,MI,49525,700000,5,3.5,Grand Rapids - G,4984,23522,1979,12,140,,Active,August-2-2025 12:00 PM,August-2-2025 02:00 PM,https://www.redfin.com/MI/Grand-Rapids/2650-Oldepointe-Dr-NE-49525/home/99532680,SW Michigan MLS,25035914,N,Y,43.0217158,-85.6037258
MLS Listing,,Vacant Land,3750 Charlevoix Dr SE,Grand Rapids,MI,49546,645900,,,Grand Rapids - G,,317552,,12,,,Active,,,https://www.redfin.com/MI/Grand-Rapids/3750-Charlevoix-Dr-SE-49546/home/99553488,SW Michigan MLS,25035911,N,Y,42.905416,-85.516256
MLS Listing,,Condo/Co-op,7581 Rivendell Dr SE,Grand Rapids,MI,49508,369900,3,3.0,Grand Rapids - G,2246,94500,2003,13,165,265,Active,,,https://www.redfin.com/MI/Grand-Rapids/7581-Rivendell-Dr-SE-49508/home/96181306,SW Michigan MLS,25035827,N,Y,42.8269235,-85.6539765
MLS Listing,,Single Family Residential,4000 Costa Ave NE,Grand Rapids,MI,49525,310000,4,1.5,Hills and Dales,1503,5750,1956,13,206,,Active,,,https://www.redfin.com/MI/Grand-Rapids/4000-Costa-Ave-NE-49525/home/96621766,SW Michigan MLS,25035825,N,Y,43.0356551,-85.6225883
MLS Listing,,Single Family Residential,1745 Sylvan Ave SE,Grand Rapids,MI,49506,319900,4,1.5,Grand Rapids - G,1373,5358,1950,13,233,,Active,August-3-2025 12:00 PM,August-3-2025 01:30 PM,https://www.redfin.com/MI/Grand-Rapids/1745-Sylvan-Ave-SE-49506/home/96132261,SW Michigan MLS,25035823,N,Y,42.9313569,-85.6294952
MLS Listing,,Single Family Residential,20 Baltimore Dr NE,Grand Rapids,MI,49503,449000,3,2.0,Grand Rapids - G,2105,9527,1952,13,213,,Active,,,https://www.redfin.com/MI/Grand-Rapids/20-Baltimore-Dr-NE-49503/home/99537018,SW Michigan MLS,25035815,N,Y,42.9635448,-85.6124831
MLS Listing,,Condo/Co-op,17 Union Ave SE Unit B,Grand Rapids,MI,49503,365000,3,2.0,Grand Rapids - G,1548,,1916,13,236,350,Active,August-3-2025 01:00 PM,August-3-2025 02:30 PM,https://www.redfin.com/MI/Grand-Rapids/17-Union-Ave-SE-49503/unit-B/home/101722607,SW Michigan MLS,25035782,N,Y,42.9624477,-85.6547075
MLS Listing,,Vacant Land,1229 44th St SE,Grand Rapids,MI,49508,399900,,,Grand Rapids,,46609,,13,,,Active,,,https://www.redfin.com/MI/Grand-Rapids/1229-44th-St-SE-49508/home/176584264,SW Michigan MLS,25035774,N,Y,42.884132,-85.634736
MLS Listing,,Single Family Residential,1713 Widdicomb Ave NW,Grand Rapids,MI,49504,300000,3,1.0,Grand Rapids - G,1549,5227,1948,13,194,,Active,,,https://www.redfin.com/MI/Grand-Rapids/1713-Widdicomb-Ave-NW-49504/home/96117745,SW Michigan MLS,25035717,N,Y,42.9948179,-85.6924938
MLS Listing,,Multi-Family (2-4 Unit),572-574 Madison Ave SE,Grand Rapids,MI,49503,499900,7,4.0,Grand Rapids,3530,6098,1900,13,142,,Active,,,https://www.redfin.com/MI/Grand-Rapids/572-Madison-Ave-SE-49503/home/99538128,REALCOMP,65025035675,N,Y,42.9518673,-85.6587964
MLS Listing,,Single Family Residential,2436 Madison Ave SE,Grand Rapids,MI,49507,296000,3,1.5,Grand Rapids - G,1575,5009,1947,13,188,,Active,,,https://www.redfin.com/MI/Grand-Rapids/2436-Madison-Ave-SE-49507/home/96159540,SW Michigan MLS,25035663,N,Y,42.9190228,-85.6570585
MLS Listing,,Single Family Residential,528 Woodlawn St SE,Grand Rapids,MI,49507,269999,3,1.5,Grand Rapids - G,1232,5009,2002,13,219,,Active,,,https://www.redfin.com/MI/Grand-Rapids/528-Woodlawn-St-SE-49507/home/99538431,SW Michigan MLS,25035607,N,Y,42.9424232,-85.6553042
MLS Listing,,Single Family Residential,715 Gladstone Dr SE,East Grand Rapids,MI,49506,515000,3,2.5,Grand Rapids - G,2206,3790,1925,13,233,,Active,,,https://www.redfin.com/MI/Grand-Rapids/715-Gladstone-Dr-SE-49506/home/96178866,SW Michigan MLS,25035583,N,Y,42.9496096,-85.6295354
MLS Listing,,Single Family Residential,2712 Roanoke Dr NE,Grand Rapids,MI,49525,399900,3,1.5,Grand Rapids - G,1340,20038,1968,14,298,,Active,,,https://www.redfin.com/MI/Grand-Rapids/2712-Roanoke-Dr-NE-49525/home/99533046,SW Michigan MLS,25035568,N,Y,43.0172606,-85.6026617
MLS Listing,,Single Family Residential,910 Prince St SE,Grand Rapids,MI,49507,142500,3,1.0,Grand Rapids - G,1167,5009,1910,14,122,,Active,,,https://www.redfin.com/MI/Grand-Rapids/910-Prince-St-SE-49507/home/99538765,SW Michigan MLS,25034631,N,Y,42.9463791,-85.6458502
MLS Listing,,Condo/Co-op,3018 Kay Dr SE,Grand Rapids,MI,49508,259000,2,2.0,Grand Rapids - G,1456,,1997,14,178,310,Active,,,https://www.redfin.com/MI/Grand-Rapids/3018-Kay-Dr-SE-49508/home/106038197,SW Michigan MLS,25033653,N,Y,42.9086868,-85.615548
MLS Listing,,Single Family Residential,54 76th St SW,Grand Rapids,MI,49548,272500,3,1.0,Grand Rapids - G,1628,9409,1930,14,167,,Active,,,https://www.redfin.com/MI/Grand-Rapids/54-76th-St-SW-49548/home/96345758,SW Michigan MLS,25035537,N,Y,42.8259212,-85.664938
MLS Listing,,Multi-Family (2-4 Unit),101 Valley Ave NW,Grand Rapids,MI,49504,369900,4,2.0,Grand Rapids,,9583,1906,14,,,Active,,,https://www.redfin.com/MI/Grand-Rapids/101-Valley-Ave-NW-49504/home/96840680,REALCOMP,65025035511,N,Y,42.9658678,-85.6990299
MLS Listing,,Single Family Residential,1636 Woodcliff Ave,Grand Rapids,MI,49506,547500,4,4.0,MAPLEVALE,3129,23087,1952,14,175,,Active,,,https://www.redfin.com/MI/Grand-Rapids/1636-Woodcliff-Ave-SE-49506/home/96235555,REALCOMP,58050182033,N,Y,42.9332508,-85.5937655
MLS Listing,,Single Family Residential,441 Union Ave SE,Grand Rapids,MI,49503,429900,4,1.5,Grand Rapids - G,2291,6316,1895,14,188,,Active,,,https://www.redfin.com/MI/Grand-Rapids/441-Union-Ave-SE-49503/home/99538118,SW Michigan MLS,25035414,N,Y,42.9544646,-85.6544651
MLS Listing,,Single Family Residential,914 Leonard St NE,Grand Rapids,MI,49503,249999,4,1.0,Grand Rapids - G,2173,5924,1905,14,115,,Active,,,https://www.redfin.com/MI/Grand-Rapids/914-Leonard-St-NE-49503/home/96125158,SW Michigan MLS,25035365,N,Y,42.9842208,-85.6457411
MLS Listing,,Single Family Residential,2524 Albert Dr SE,Grand Rapids,MI,49506,585000,3,1.5,Grand Rapids - G,1643,5688,1950,14,356,,Active,August-2-2025 12:30 PM,August-2-2025 02:00 PM,https://www.redfin.com/MI/Grand-Rapids/2524-Albert-Dr-SE-49506/home/99546440,SW Michigan MLS,25035294,N,Y,42.9348372,-85.6063405
MLS Listing,,Single Family Residential,3479 Eastridge Ct NE,Grand Rapids,MI,49525,479900,4,2.5,Eastlake Estates,2242,18469,1984,14,214,13,Active,,,https://www.redfin.com/MI/Grand-Rapids/3479-Eastridge-Ct-NE-49525/home/96240411,SW Michigan MLS,25035290,N,Y,42.9763561,-85.5837983
MLS Listing,,Single Family Residential,2302 Blaine Ave SE,Grand Rapids,MI,49507,285000,3,1.5,Grand Rapids - G,1452,5140,1946,14,196,,Active,,,https://www.redfin.com/MI/Grand-Rapids/2302-Blaine-Ave-SE-49507/home/96462740,SW Michigan MLS,25035274,N,Y,42.9216682,-85.6426159
MLS Listing,,Single Family Residential,701 Fuller Ave NE,Grand Rapids,MI,49503,279900,2,1.0,D J Deen,800,7405,1941,14,350,,Active,,,https://www.redfin.com/MI/Grand-Rapids/701-Fuller-Ave-NE-49503/home/96227268,SW Michigan MLS,25034594,N,Y,42.9751019,-85.6401123
MLS Listing,,Condo/Co-op,6663 Waybridge Dr SE #37,Grand Rapids,MI,49546,450000,2,2.5,Grand Rapids - G,1996,,1989,15,225,585,Active,August-2-2025 12:00 PM,August-2-2025 02:00 PM,https://www.redfin.com/MI/Grand-Rapids/6663-Waybridge-Dr-SE-49546/unit-37/home/196450932,SW Michigan MLS,25035214,N,Y,42.9155185,-85.5046588
MLS Listing,,Single Family Residential,1265 Ionia Ave SW,Grand Rapids,MI,49507,240000,3,1.0,Grand Rapids - G,1094,6752,2025,15,219,,Active,,,https://www.redfin.com/MI/Grand-Rapids/1265-Ionia-Ave-SW-49507/home/99566683,SW Michigan MLS,25035178,N,Y,42.939605,-85.670091
MLS Listing,,Single Family Residential,1418 Hall St SE,Grand Rapids,MI,49506,484900,4,3.5,Grand Rapids - G,2773,6186,1925,15,175,,Active,August-2-2025 01:30 AM,August-2-2025 03:00 PM,https://www.redfin.com/MI/Grand-Rapids/1418-Hall-St-SE-49506/home/96361747,SW Michigan MLS,25035151,N,Y,42.9408026,-85.6338919
MLS Listing,,Single Family Residential,155 Palmer St NE,Grand Rapids,MI,49505,199000,2,1.0,Grand Rapids - G,1123,5140,1890,15,177,,Active,,,https://www.redfin.com/MI/Grand-Rapids/155-Palmer-St-NE-49505/home/96209899,SW Michigan MLS,25035128,N,Y,42.9947423,-85.6651347
MLS Listing,,Condo/Co-op,40 Skyline Cir NW #163,Grand Rapids,MI,49504,269900,3,2.5,Grand Rapids - G,2690,,1988,15,100,500,Active,,,https://www.redfin.com/MI/Grand-Rapids/40-Skyline-Cir-NW-49504/unit-163/home/196445145,SW Michigan MLS,25035125,N,Y,42.9662239,-85.72559
MLS Listing,,Single Family Residential,110 Ken O Sha Dr SE,Grand Rapids,MI,49507,259900,3,1.0,Grand Rapids - G,1500,5619,1930,15,173,,Active,,,https://www.redfin.com/MI/Grand-Rapids/110-Ken-O-Sha-Dr-SE-49507/home/96526383,SW Michigan MLS,25035095,N,Y,42.9165888,-85.6644177
MLS Listing,,Multi-Family (5+ Unit),106 Prospect Ave SE,Grand Rapids,MI,49503,945000,9,9.0,Grand Rapids,,3920,1920,15,,,Active,,,https://www.redfin.com/MI/Grand-Rapids/106-Prospect-Ave-SE-49503/home/96839393,REALCOMP,65025035081,N,Y,42.9610633,-85.6601046
MLS Listing,,Single Family Residential,1125 Thomas St SE,Grand Rapids,MI,49506,290000,5,2.0,Grand Rapids - G,1900,6186,1900,15,153,,Active,,,https://www.redfin.com/MI/Grand-Rapids/1125-Thomas-St-SE-49506/home/96342145,SW Michigan MLS,25035042,N,Y,42.9502745,-85.6408832
MLS Listing,,Condo/Co-op,2229 Watertown Way NE,Grand Rapids,MI,49505,409900,3,2.5,Grand Rapids - G,1505,,2025,15,272,245,Active,August-3-2025 01:00 PM,August-3-2025 03:00 PM,https://www.redfin.com/MI/Grand-Rapids/2229-Watertown-Way-49505/home/194015785,SW Michigan MLS,25035028,N,Y,42.977969,-85.613777
MLS Listing,,Single Family Residential,1718 Madison Ave SE,Grand Rapids,MI,49507,375000,5,2.0,Grand Rapids - G,2364,14502,1897,15,159,,Active,,,https://www.redfin.com/MI/Grand-Rapids/1718-Madison-Ave-SE-49507/home/96176288,SW Michigan MLS,25035024,N,Y,42.9321478,-85.657987
MLS Listing,,Single Family Residential,1163 Second St NW,Grand Rapids,MI,49504,249900,3,1.5,West Grand,1147,4182,1910,15,218,,Active,,,https://www.redfin.com/MI/Grand-Rapids/1163-2nd-St-NW-49504/home/96392225,SW Michigan MLS,25035018,N,Y,42.9734099,-85.6973759
MLS Listing,,Multi-Family (2-4 Unit),320 Charles Ave SE,Grand Rapids,MI,49503,469000,4,2.0,Grand Rapids,2298,5663,1880,15,204,,Active,,,https://www.redfin.com/MI/Grand-Rapids/320-Charles-Ave-SE-49503/home/96844667,REALCOMP,65025035004,N,Y,42.9569279,-85.6503035
MLS Listing,,Single Family Residential,240 Calkins Ave SE,Grand Rapids,MI,49506,439000,4,1.5,Grand Rapids - G,1744,4487,1910,15,252,,Active,,,https://www.redfin.com/MI/Grand-Rapids/240-Calkins-Ave-SE-49506/home/96241856,SW Michigan MLS,25034746,N,Y,42.9578641,-85.6415117
MLS Listing,,Single Family Residential,1878 Watermark Dr SE,Grand Rapids,MI,49546,3395000,4,7.0,Grand Rapids - G,10633,42689,2001,16,319,152,Active,,,https://www.redfin.com/MI/Grand-Rapids/1878-Watermark-Dr-SE-49546/home/106040564,SW Michigan MLS,25034954,N,Y,42.9297229,-85.5307388
MLS Listing,,Single Family Residential,631 Watkins St SE,Grand Rapids,MI,49507,189000,4,1.5,Grand Rapids - G,1238,4269,1921,16,153,,Active,,,https://www.redfin.com/MI/Grand-Rapids/631-Watkins-St-SE-49507/home/96683746,SW Michigan MLS,25034767,N,Y,42.9460574,-85.6528597
MLS Listing,,Single Family Residential,726 College Ave SE,Grand Rapids,MI,49503,379900,4,2.0,Grand Rapids - G,1877,6621,1915,17,202,,Active,,,https://www.redfin.com/MI/Grand-Rapids/726-College-Ave-SE-49503/home/96405627,SW Michigan MLS,25034652,N,Y,42.9494859,-85.6563126
MLS Listing,,Single Family Residential,2146 Lansing St SE,Grand Rapids,MI,49506,425000,2,1.0,Grand Rapids - G,840,7318,1953,17,506,,Active,,,https://www.redfin.com/MI/Grand-Rapids/2146-Lansing-St-SE-49506/home/105997185,SW Michigan MLS,25034585,N,Y,42.9539957,-85.6154605
MLS Listing,,Single Family Residential,225 Prospect Ave NE,Grand Rapids,MI,49503,775000,5,2.5,Grand Rapids - G,3264,6401,1875,17,237,,Active,,,https://www.redfin.com/MI/Grand-Rapids/225-Prospect-Ave-NE-49503/home/96154094,SW Michigan MLS,25034545,N,Y,42.9682159,-85.660614
MLS Listing,,Single Family Residential,1055 San Lucia Dr SE,Grand Rapids,MI,49506,1149500,5,3.5,Grand Rapids - G,4330,9104,1931,17,265,,Active,August-3-2025 02:00 PM,August-3-2025 04:00 PM,https://www.redfin.com/MI/Grand-Rapids/1055-San-Lucia-Dr-SE-49506/home/96289964,SW Michigan MLS,25034473,N,Y,42.9431906,-85.6213939
MLS Listing,,Single Family Residential,1045 Santa Cruz Dr SE,Grand Rapids,MI,49506,899900,4,3.0,Grand Rapids - G,3084,8680,1930,18,292,,Active,,,https://www.redfin.com/MI/Grand-Rapids/1045-Santa-Cruz-Dr-SE-49506/home/96204211,SW Michigan MLS,25034452,N,Y,42.9434494,-85.6202188
MLS Listing,,Condo/Co-op,600 Douglas Ave NW Unit 612A,Grand Rapids,MI,49504,199000,1,1.0,600 Douglas,559,,2014,18,356,358,Active,August-2-2025 01:00 PM,August-2-2025 02:30 PM,https://www.redfin.com/MI/Grand-Rapids/600-Douglas-St-NW-49504/unit-612A/home/160612697,SW Michigan MLS,25026577,N,Y,42.9696231,-85.6832342
MLS Listing,,Condo/Co-op,2598 Falcon Wood Dr NW,Walker,MI,49534,310000,2,2.0,Grand Rapids - G,1987,,1997,19,156,280,Active,,,https://www.redfin.com/MI/Grand-Rapids/2598-Falcon-Woods-Dr-NW-49534/home/106253039,SW Michigan MLS,25034344,N,Y,43.0115729,-85.7767509
MLS Listing,,Single Family Residential,1215 Emerald Ave NE,Grand Rapids,MI,49505,299900,3,1.5,Grand Rapids - G,1537,5100,1929,19,195,,Active,,,https://www.redfin.com/MI/Grand-Rapids/1215-Emerald-Ave-NE-49505/home/96121744,SW Michigan MLS,25034312,N,Y,42.9850579,-85.6476656
MLS Listing,,Single Family Residential,820 Henry Ave SE,Grand Rapids,MI,49507,280000,6,1.5,Grand Rapids - G,2374,4356,1928,20,118,,Active,August-2-2025 12:30 PM,August-2-2025 02:00 PM,https://www.redfin.com/MI/Grand-Rapids/820-Henry-Ave-SE-49507/home/96259452,SW Michigan MLS,25032278,N,Y,42.9477663,-85.6514227
MLS Listing,,Multi-Family (2-4 Unit),139 Pearl St NW,Grand Rapids,MI,49503,4000000,3,2.0,Grand Rapids,,4356,1890,20,,,Active,,,https://www.redfin.com/MI/Grand-Rapids/139-Pearl-St-NW-49503/home/106307578,REALCOMP,65025034224,N,Y,42.9666663,-85.6717004
MLS Listing,,Single Family Residential,130 Robinwood Ave SE,Grand Rapids,MI,49506,2995000,4,4.0,Grand Rapids - G,4550,65776,1957,20,658,,Active,,,https://www.redfin.com/MI/Grand-Rapids/130-Robinwood-Ave-SE-49506/home/96679584,SW Michigan MLS,25034230,N,Y,42.9599861,-85.6191212
MLS Listing,,Vacant Land,2753 Dean Lake Ave NE,Grand Rapids,MI,49505,19900,,,Grand Rapids - G,,9496,,20,,,Active,,,https://www.redfin.com/MI/Grand-Rapids/2753-Dean-Lake-Ave-NE-49505/home/99533803,SW Michigan MLS,25034171,N,Y,43.012502,-85.6155409
MLS Listing,,Single Family Residential,1410 Rothbury Dr NE,Grand Rapids,MI,49505,539900,4,3.0,Grand Rapids - G,3064,14070,1988,20,176,,Active,August-3-2025 12:00 PM,August-3-2025 02:00 PM,https://www.redfin.com/MI/Grand-Rapids/1410-Rothbury-Dr-NE-49505/home/99534992,SW Michigan MLS,25034060,N,Y,42.9881519,-85.6107915
MLS Listing,,Single Family Residential,851 Lyon St NE,Grand Rapids,MI,49503,399900,5,2.0,Grand Rapids - G,1996,5881,1890,20,200,,Active,August-2-2025 02:00 AM,August-2-2025 04:00 PM,https://www.redfin.com/MI/Grand-Rapids/851-Lyon-St-NE-49503/home/96155825,SW Michigan MLS,25034033,N,Y,42.9674707,-85.6474368
MLS Listing,,Condo/Co-op,600 7th St NW #208,Grand Rapids,MI,49504,525000,3,2.0,Grand Rapids - G,2222,,1918,20,236,628,Active,,,https://www.redfin.com/MI/Grand-Rapids/600-7th-St-NW-49504/unit-208/home/144727084,SW Michigan MLS,25034002,N,Y,42.97775,-85.6833662
MLS Listing,,Condo/Co-op,638 Fulton St E Unit D7,Grand Rapids,MI,49503,550000,2,2.5,Hill Pointe Condominiums,1459,17250,2025,21,377,105,Active,,,https://www.redfin.com/MI/Grand-Rapids/638-Fulton-St-E-49503/unit-D7/home/196344128,SW Michigan MLS,25033984,N,Y,42.962632,-85.652914
MLS Listing,,Single Family Residential,11438 Ivy Grove West Dr,Grand Rapids,MI,49534,574900,4,3.0,Sessions Pointe,3334,13278,2017,21,172,50,Active,,,https://www.redfin.com/MI/Grand-Rapids/11438-Ivy-Grv-NW-49534/home/180177777,SW Michigan MLS,25033935,N,Y,42.9772167,-85.7983347
MLS Listing,,Single Family Residential,445 Prince St SE,Grand Rapids,MI,49507,260000,4,2.0,Grand Rapids - G,1802,11892,1900,21,144,,Active,,,https://www.redfin.com/MI/Grand-Rapids/445-Prince-St-SE-49507/home/99538610,SW Michigan MLS,25033303,N,Y,42.947023,-85.6573146
MLS Listing,,Condo/Co-op,940 Monroe Ave NW #416,Grand Rapids,MI,49503,240000,1,1.0,Grand Rapids - G,586,,1892,21,410,292,Active,August-2-2025 11:00 AM,August-2-2025 12:30 PM,https://www.redfin.com/MI/Grand-Rapids/940-Monroe-Ave-NW-49503/unit-416/home/96579766,SW Michigan MLS,25033835,N,Y,42.9784811,-85.671809
MLS Listing,,Condo/Co-op,335 Bridge St NW #1503,Grand Rapids,MI,49504,419900,2,2.0,Grand Rapids - G,1401,,2008,21,300,840,Active,,,https://www.redfin.com/MI/Grand-Rapids/335-Bridge-St-NW-49504/unit-1503/home/96468577,SW Michigan MLS,25033866,N,Y,42.9710015,-85.6767998
MLS Listing,,Single Family Residential,1217 El Camino Dr NW,Grand Rapids,MI,49504,840000,4,4.5,Grand Rapids - G,5102,27791,1974,21,165,,Active,August-2-2025 01:00 PM,August-2-2025 03:00 PM,https://www.redfin.com/MI/Grand-Rapids/1217-El-Camino-Dr-NW-49504/home/99565830,SW Michigan MLS,25033771,N,Y,42.987207,-85.7314794
MLS Listing,,Single Family Residential,2736 Cascade Rd SE,Grand Rapids,MI,49506,429000,3,2.0,HODENPYL  PK Add,1146,13286,1952,21,374,,Active,,,https://www.redfin.com/MI/Grand-Rapids/2736-Cascade-Rd-SE-49506/home/99537015,SW Michigan MLS,25033699,N,Y,42.9594748,-85.601822
MLS Listing,,Single Family Residential,1213 Prospect Ave SE,Grand Rapids,MI,49507,244900,4,2.0,Grand Rapids - G,1466,4748,1926,21,167,,Active,,,https://www.redfin.com/MI/Grand-Rapids/1213-Prospect-Ave-SE-49507/home/99547524,SW Michigan MLS,25033679,N,Y,42.9408415,-85.6604048
MLS Listing,,Single Family Residential,1811 Jennette Ave NW,Grand Rapids,MI,49504,283000,2,1.0,Grand Rapids - G,2146,5160,1947,21,132,,Active,,,https://www.redfin.com/MI/Grand-Rapids/1811-Jennette-Ave-NW-49504/home/96384346,SW Michigan MLS,25033617,N,Y,42.9965886,-85.6904937
MLS Listing,,Single Family Residential,2250 Plainfield Ave NE,Grand Rapids,MI,49505,349900,2,2.0,Grand Rapids - G,2120,10803,1948,21,165,,Active,,,https://www.redfin.com/MI/Grand-Rapids/2250-Plainfield-Ave-NE-49505/home/96542397,SW Michigan MLS,25033005,N,Y,43.0042534,-85.6521657
MLS Listing,,Single Family Residential,1641 Thornapple River Dr SE,Grand Rapids,MI,49546,1500000,4,3.5,Grand Rapids - G,4061,33977,2014,21,369,,Active,,,https://www.redfin.com/MI/Grand-Rapids/1641-Thornapple-River-Dr-SE-49546/home/106251292,SW Michigan MLS,25033267,N,Y,42.9342477,-85.4916894
MLS Listing,,Multi-Family (2-4 Unit),352 Holmdene Blvd NE,Grand Rapids,MI,49503,357400,3,3.0,Grand Rapids,,6970,1910,22,,,Active,,,https://www.redfin.com/MI/Grand-Rapids/352-Holmdene-Blvd-NE-49503/home/96839790,REALCOMP,65025033578,N,Y,42.9697024,-85.6272476
MLS Listing,,Vacant Land,4327 Woodside Oaks Dr SE,Kentwood,MI,49546,279900,,,Grand Rapids - G,,117176,,22,,,Active,,,https://www.redfin.com/MI/Grand-Rapids/4327-Woodside-Oaks-Dr-SE-49546/home/96773648,SW Michigan MLS,25033426,N,Y,42.937268,-85.560945
MLS Listing,,Single Family Residential,908 Hall St SE,Grand Rapids,MI,49507,179900,3,1.0,Grand Rapids - G,1080,4269,1900,22,167,,Active,,,https://www.redfin.com/MI/Grand-Rapids/908-Hall-St-SE-49507/home/99547245,SW Michigan MLS,25033403,N,Y,42.9409268,-85.6466382
MLS Listing,,Condo/Co-op,2106 Cranbrook Dr NE,Grand Rapids,MI,49505,269900,2,1.5,Beckwith Hills,1083,,1986,22,249,430,Active,,,https://www.redfin.com/MI/Grand-Rapids/2106-Cranbrook-Dr-NE-49505/home/105995422,SW Michigan MLS,25033331,N,Y,42.985869,-85.618297
MLS Listing,,Single Family Residential,214 Bradford St NE,Grand Rapids,MI,49503,234900,3,1.0,Grand Rapids - G,1072,2396,1885,22,219,,Active,,,https://www.redfin.com/MI/Grand-Rapids/214-Bradford-St-NE-49503/home/96351556,SW Michigan MLS,25033323,N,Y,42.9773089,-85.6637203
MLS Listing,,Condo/Co-op,6305 Greenway Dr SE #51,Grand Rapids,MI,49546,338000,2,2.0,Grand Rapids - G,1987,,1979,22,170,506,Active,August-3-2025 01:00 PM,August-3-2025 03:00 PM,https://www.redfin.com/MI/Grand-Rapids/6305-Greenway-Dr-SE-49546/unit-51/home/170280218,SW Michigan MLS,25033295,N,Y,42.90761,-85.512221
MLS Listing,,Single Family Residential,560 Lydia St NE,Grand Rapids,MI,49503,235000,3,1.0,Grand Rapids - G,1116,5749,1880,22,211,,Active,,,https://www.redfin.com/MI/Grand-Rapids/560-Lydia-St-NE-49503/home/96233982,SW Michigan MLS,25033293,N,Y,42.9767744,-85.6547059
MLS Listing,,Single Family Residential,637 Prospect Ave NE,Grand Rapids,MI,49503,285000,4,1.0,Grand Rapids - G,1199,4966,1890,23,238,,Active,,,https://www.redfin.com/MI/Grand-Rapids/637-Prospect-Ave-NE-49503/home/96195035,SW Michigan MLS,25033245,N,Y,42.9747412,-85.6610039
MLS Listing,,Single Family Residential,1081 4 Mile Rd NE,Grand Rapids,MI,49525,475000,4,2.0,Grand Rapids - G,1936,52272,1988,23,245,,Active,,,https://www.redfin.com/MI/Grand-Rapids/1081-4-Mile-Rd-NE-49525/home/96222979,SW Michigan MLS,25033232,N,Y,43.0312778,-85.6428016
MLS Listing,,Multi-Family (2-4 Unit),510 La Grave Ave SE,Grand Rapids,MI,49503,374900,5,2.0,Grand Rapids,,4792,1910,23,,,Active,,,https://www.redfin.com/MI/Grand-Rapids/510-La-Grave-Ave-SE-49503/home/96442810,REALCOMP,65025033142,N,Y,42.95399,-85.6649795
MLS Listing,,Single Family Residential,1325 Maude Ave NE,Grand Rapids,MI,49505,194900,3,1.0,Grand Rapids - G,981,3703,1899,23,199,,Active,,,https://www.redfin.com/MI/Grand-Rapids/1325-Maude-Ave-NE-49505/home/96306793,SW Michigan MLS,25033055,N,Y,42.9871878,-85.6611577
MLS Listing,,Condo/Co-op,253 Prospect Ave NE #309,Grand Rapids,MI,49503,330000,2,1.0,Grand Rapids - G,951,,1933,24,347,491,Active,,,https://www.redfin.com/MI/Grand-Rapids/253-Prospect-Ave-NE-49503/unit-309/home/174940593,SW Michigan MLS,25032972,N,Y,42.9686453,-85.6607517
MLS Listing,,Single Family Residential,3566 Little Timber Ct SW,Grand Rapids,MI,49534,794900,5,3.0,serenity ridge,4576,47045,2002,24,174,146,Active,,,https://www.redfin.com/MI/Grand-Rapids/3566-Little-Timber-Ct-SW-49534/home/106040460,SW Michigan MLS,25032912,N,Y,42.948623,-85.754674
MLS Listing,,Single Family Residential,119 Bristol Ave NW,Grand Rapids,MI,49504,475000,4,2.5,Grand Rapids - G,2294,12631,1942,24,207,,Active,,,https://www.redfin.com/MI/Grand-Rapids/119-Bristol-Ave-NW-49504/home/99467295,SW Michigan MLS,25032893,N,Y,42.9664,-85.7074973
MLS Listing,,Single Family Residential,120 Union Ave SE,Grand Rapids,MI,49503,824900,5,3.0,Heritage Hill Historic District,4176,8712,1888,24,198,,Active,,,https://www.redfin.com/MI/Grand-Rapids/120-Union-Ave-SE-49503/home/96837107,SW Michigan MLS,25032841,N,Y,42.9599977,-85.6540009
MLS Listing,,Single Family Residential,165 Kenton St SE,Grand Rapids,MI,49548,209000,3,1.0,Grand Rapids - G,816,10062,1955,24,256,,Active,,,https://www.redfin.com/MI/Grand-Rapids/165-Kenton-St-SE-49548/home/96407894,SW Michigan MLS,25032815,N,Y,42.8359068,-85.6594785
MLS Listing,,Single Family Residential,3330 Bradford St NE,Grand Rapids,MI,49525,349900,3,1.5,Grand Rapids - G,2001,23043,1952,27,175,,Active,,,https://www.redfin.com/MI/Grand-Rapids/3330-Bradford-St-NE-49525/home/96385165,SW Michigan MLS,25032708,N,Y,42.9767383,-85.5874118
MLS Listing,,Single Family Residential,5640 Kraft Ave SE,Grand Rapids,MI,49512,350000,3,2.0,Grand Rapids - G,2131,26136,1974,27,164,,Active,,,https://www.redfin.com/MI/Grand-Rapids/5640-Kraft-Ave-SE-49512/home/96282457,SW Michigan MLS,25032440,N,Y,42.8612976,-85.5274737
MLS Listing,,Condo/Co-op,2471 High Ridge Ln SE,Grand Rapids,MI,49546,395000,3,2.5,Grand Rapids - G,2409,,1998,27,164,365,Active,,,https://www.redfin.com/MI/Grand-Rapids/2471-Highridge-Ln-SE-49546/home/106244412,SW Michigan MLS,25032623,N,Y,42.9186347,-85.5429266
MLS Listing,,Condo/Co-op,600 Broadway Ave NW #124,Grand Rapids,MI,49504,325000,2,2.0,Grand Rapids - G,1191,,1900,27,273,438,Active,,,https://www.redfin.com/MI/Grand-Rapids/600-Broadway-Ave-NW-49504/unit-124/home/106021649,SW Michigan MLS,25032613,N,Y,42.9738948,-85.6795789
MLS Listing,,Mobile/Manufactured Home,1163 Maple Leaf Ln NW,Walker,MI,49534,113000,3,2.0,Grand Rapids - G,1350,,1990,28,84,695,Active,,,https://www.redfin.com/MI/Walker/1163-Maple-Leaf-Ln-NW-49534/home/196264003,SW Michigan MLS,25032508,N,Y,42.9865863,-85.7837856
MLS Listing,,Single Family Residential,400 Burton St SW,Grand Rapids,MI,49507,224500,3,2.0,Grand Rapids - G,808,5271,1922,28,278,,Active,,,https://www.redfin.com/MI/Grand-Rapids/400-Burton-St-SW-49507/home/96145732,SW Michigan MLS,25032336,N,Y,42.9275161,-85.6760727
MLS Listing,,Single Family Residential,1246 Forest Hollow Ct SE,Grand Rapids,MI,49546,495000,4,3.0,Grand Rapids - G,2573,23740,1952,29,192,,Active,August-2-2025 11:00 AM,August-2-2025 12:30 PM,https://www.redfin.com/MI/Grand-Rapids/1246-Forest-Hollow-Ct-SE-49546/home/106278134,SW Michigan MLS,25031322,N,Y,42.9401998,-85.554811
MLS Listing,,Single Family Residential,1003 Kusterer Dr NW,Grand Rapids,MI,49534,370000,3,2.0,Grand Rapids - G,2552,6600,1987,29,145,,Active,,,https://www.redfin.com/MI/Grand-Rapids/1003-Kusterer-Dr-NW-49534/home/96261931,SW Michigan MLS,25032289,N,Y,42.9828816,-85.7541379
MLS Listing,,Single Family Residential,863 Burton St SE,Grand Rapids,MI,49507,229900,3,1.5,Grand Rapids - G,1300,4800,1921,29,177,,Active,,,https://www.redfin.com/MI/Grand-Rapids/863-Burton-St-SE-49507/home/96630246,SW Michigan MLS,25032263,N,Y,42.9275041,-85.6455704
MLS Listing,,Condo/Co-op,2319 Watertown Way,Grand Rapids,MI,49505,399900,3,2.5,Viridian Place Condominiums,1428,452077,2022,30,280,245,Active,,,https://www.redfin.com/MI/Grand-Rapids/2319-Watertown-Way-49505/home/176581976,SW Michigan MLS,25032056,N,Y,42.9782829,-85.613291
MLS Listing,,Condo/Co-op,335 Bridge St NW #2205,Grand Rapids,MI,49504,449900,2,2.0,Grand Rapids - G,1334,21331,2007,30,337,859,Active,,,https://www.redfin.com/MI/Grand-Rapids/335-Bridge-St-NW-49504/unit-2205/home/96582024,SW Michigan MLS,25031995,N,Y,42.9710015,-85.6767998
MLS Listing,,Multi-Family (2-4 Unit),661 NW Broadway Ave. Ave NW,Grand Rapids,MI,49504,309900,4,2.0,Grand Rapids,2595,5663,1900,31,119,,Active,,,https://www.redfin.com/MI/Grand-Rapids/661-Broadway-Ave-NW-49504/home/99531075,REALCOMP,67025031790,N,Y,42.9754598,-85.679969
MLS Listing,,Single Family Residential,611 New Ave SW,Grand Rapids,MI,49503,229900,4,2.0,Grand Rapids - G,1423,3485,1909,31,162,,Active,,,https://www.redfin.com/MI/Grand-Rapids/611-New-Ave-SW-49503/home/96179735,SW Michigan MLS,25022916,N,Y,42.9521146,-85.679108
MLS Listing,,Condo/Co-op,3333 Clear Vista Ct NE #23,Grand Rapids,MI,49525,244900,2,2.0,SUMMIT PARK GARDENS CONDO,946,,1997,32,259,320,Active,,,https://www.redfin.com/MI/Grand-Rapids/3333-Clear-Vista-Ct-NE-49525/unit-23/home/170591651,REALCOMP,20251012842,N,Y,43.039112,-85.585982
MLS Listing,,Single Family Residential,436 Martin Luther King Jr St SE,Grand Rapids,MI,49507,235000,3,1.0,Grand Rapids - G,1152,6011,2024,34,204,,Active,,,https://www.redfin.com/MI/Grand-Rapids/436-M-L-K-Jr-St-SE-49507/home/99538600,SW Michigan MLS,25031412,N,Y,42.9483102,-85.6575041
MLS Listing,,Single Family Residential,1680 Kalamazoo Ave SE,Grand Rapids,MI,49507,270000,3,2.5,Grand Rapids - G,2540,6011,1947,34,106,,Active,,,https://www.redfin.com/MI/Grand-Rapids/1680-Kalamazoo-Ave-SE-49507/home/96306835,SW Michigan MLS,25031282,N,Y,42.9327128,-85.6374993
MLS Listing,,Vacant Land,1839 Stratford Ln NW,Walker,MI,49534,109900,,,Cambridge Grove,,13489,,35,,8,Active,,,https://www.redfin.com/MI/Grand-Rapids/1839-Stratford-Ln-49534/home/194012650,SW Michigan MLS,25030988,N,Y,42.998728,-85.782802
MLS Listing,,Vacant Land,1734 Blaketon Dr NW,Walker,MI,49534,149900,,,Grand Rapids - G,,13317,,35,,8,Active,,,https://www.redfin.com/MI/Grand-Rapids/1734-Blaketon-Dr-49534/home/194012663,SW Michigan MLS,25030982,N,Y,42.996911,-85.781922
MLS Listing,,Multi-Family (2-4 Unit),3241 Marshall Ave SE,Grand Rapids,MI,49508,640000,7,4.0,GREEN ACRES #1,3472,13068,1964,35,184,,Active,,,https://www.redfin.com/MI/Grand-Rapids/3241-Marshall-Ave-SE-49508/home/96847305,REALCOMP,20251010448,N,Y,42.9046218,-85.6449718
MLS Listing,,Single Family Residential,1119 White Ave NW,Grand Rapids,MI,49504,242000,3,1.5,Grand Rapids - G,1189,4150,1891,35,204,,Active,,,https://www.redfin.com/MI/Grand-Rapids/1119-White-Ave-NW-49504/home/96108210,SW Michigan MLS,25030939,N,Y,42.9845552,-85.6987389
MLS Listing,,Single Family Residential,472 Ashton Ct SE,Grand Rapids,MI,49546,714900,3,2.5,ASHTON WOODS,3200,25265,1988,35,223,,Active,,,https://www.redfin.com/MI/Grand-Rapids/472-Ashton-Ct-SE-49546/home/96200943,REALCOMP,20251012030,N,Y,42.9544152,-85.58612
MLS Listing,,Single Family Residential,4608 Old Grand River Trl NE,Ada,MI,49301,1490900,4,4.5,Grand Rapids - G,5888,49719,1999,35,253,,Active,,,https://www.redfin.com/MI/Ada/4608-Old-Grand-River-Trl-NE-49301/home/105995792,SW Michigan MLS,25030382,N,Y,42.9938258,-85.556896
MLS Listing,,Single Family Residential,3440 Monterey Hills Dr NE,Grand Rapids,MI,49525,848900,6,3.5,Grand Rapids - G,3679,26260,2005,35,231,92,Active,,,https://www.redfin.com/MI/Grand-Rapids/3440-Monterey-Hills-Dr-NE-49525/home/96414020,SW Michigan MLS,25029537,N,Y,43.017292,-85.5828916
MLS Listing,,Vacant Land,3120 Reeds Lake Blvd SE,Grand Rapids,MI,49506,895000,,,Grand Rapids - G,,27007,,36,,,Active,,,https://www.redfin.com/MI/Grand-Rapids/3120-Reeds-Lake-Blvd-SE-49506/home/96801103,SW Michigan MLS,25030804,N,Y,42.944685,-85.590962
MLS Listing,,Condo/Co-op,2005 Celadon Dr NE #12,Grand Rapids,MI,49525,306000,2,2.0,Grand Rapids - G,1332,,2018,37,230,333,Active,,,https://www.redfin.com/MI/Grand-Rapids/2005-Celadon-Dr-NE-49525/unit-12/home/146070537,SW Michigan MLS,25030550,N,Y,42.9992688,-85.5991315
MLS Listing,,Condo/Co-op,1410 Windcrest Ln NE #32,Grand Rapids,MI,49525,314900,3,3.0,Grand Rapids - G,1996,,1995,38,158,440,Active,,,https://www.redfin.com/MI/Grand-Rapids/1410-Windcrest-Ln-NE-49525/unit-32/home/195073188,SW Michigan MLS,25028130,N,Y,42.988514,-85.593822
MLS Listing,,Single Family Residential,548 Lincoln Lawns Dr NW,Walker,MI,49534,534900,4,2.5,Grand Rapids - G,2262,12882,2025,38,236,42,Active,,,https://www.redfin.com/MI/Walker/548-Lincoln-Lawns-Dr-NW-49534/home/196166592,SW Michigan MLS,25030293,N,Y,42.974983,-85.757834
MLS Listing,,Single Family Residential,6094 Del Cano Dr SE,Grand Rapids,MI,49546,369900,4,2.0,Grand Rapids - G,1672,1236,1971,38,221,,Active,,,https://www.redfin.com/MI/Grand-Rapids/6094-Del-Cano-Dr-SE-49546/home/96239767,SW Michigan MLS,25030282,N,Y,42.918529,-85.517916
MLS Listing,,Single Family Residential,109 Fuller Ave SE,Grand Rapids,MI,49506,299000,4,2.0,Grand Rapids - G,1917,5793,1908,38,156,,Active,,,https://www.redfin.com/MI/Grand-Rapids/109-Fuller-Ave-SE-49506/home/96130075,SW Michigan MLS,25030185,N,Y,42.9606698,-85.6399636
MLS Listing,,Single Family Residential,828 Cadillac Dr SE,Grand Rapids,MI,49506,560000,4,2.5,Grand Rapids - G,1981,6621,1926,39,283,,Active,,,https://www.redfin.com/MI/Grand-Rapids/828-Cadillac-Dr-SE-49506/home/96396294,SW Michigan MLS,25030151,N,Y,42.9473648,-85.6300754
MLS Listing,,Single Family Residential,1995 San Lu Rae Dr SE,East Grand Rapids,MI,49506,6800000,5,8.0,Grand Rapids - G,11652,152896,1995,40,584,,Active,,,https://www.redfin.com/MI/Grand-Rapids/1995-San-Lu-Rae-Dr-SE-49506/home/96393361,SW Michigan MLS,25030120,N,Y,42.9483242,-85.6204653
MLS Listing,,Vacant Land,6761 Burton St SE,Grand Rapids,MI,49546,349900,,,Grand Rapids,,67082,,40,,,Active,,,https://www.redfin.com/MI/Grand-Rapids/6761-Burton-St-SE-49546/home/191785515,SW Michigan MLS,25030103,N,Y,42.921076,-85.501234
MLS Listing,,Condo/Co-op,600 Monroe Ave NW #409,Grand Rapids,MI,49503,299900,1,2.0,Grand Rapids - G,1110,,1880,40,270,581,Active,,,https://www.redfin.com/MI/Grand-Rapids/600-Monroe-Ave-NW-49503/unit-409/home/96214458,SW Michigan MLS,25030057,N,Y,42.9737686,-85.6719812
MLS Listing,,Single Family Residential,1835 Linson Ct SE,Grand Rapids,MI,49546,2445000,4,4.5,Beard Farm,7228,104544,1987,41,338,,Active,,,https://www.redfin.com/MI/Grand-Rapids/1835-Linson-Ct-SE-49546/home/96144676,SW Michigan MLS,25029829,N,Y,42.9303919,-85.5148644
MLS Listing,,Single Family Residential,1513 Browning Dr,Grand Rapids,MI,49534,599900,3,2.0,Grand Rapids - G,1810,28314,2025,42,331,,Active,,,https://www.redfin.com/MI/Grand-Rapids/1513-Browning-Dr-49534/home/189149793,SW Michigan MLS,25029733,N,Y,42.992254,-85.773906
MLS Listing,,Single Family Residential,2647 Manitoba Ct NE,Grand Rapids,MI,49525,899000,3,1.5,Grand Rapids - G,1500,37984,1964,42,599,,Active,,,https://www.redfin.com/MI/Grand-Rapids/2647-Manitoba-Ct-NE-49525/home/96229132,SW Michigan MLS,25029658,N,Y,43.0342935,-85.6038307
MLS Listing,,Single Family Residential,855 Mcreynolds Ave NW,Grand Rapids,MI,49504,233000,3,1.0,Grand Rapids - G,1003,8052,1890,42,232,,Active,,,https://www.redfin.com/MI/Grand-Rapids/855-McReynolds-Ave-NW-49504/home/99530895,SW Michigan MLS,25020808,N,Y,42.9795009,-85.6869361
MLS Listing,,Single Family Residential,1052 Santa Cruz Dr SE,Grand Rapids,MI,49506,649900,3,1.5,Grand Rapids - G,2210,6011,1950,42,294,,Active,,,https://www.redfin.com/MI/Grand-Rapids/1052-Santa-Cruz-Dr-SE-49506/home/96278911,SW Michigan MLS,25029470,N,Y,42.9432262,-85.6195838
MLS Listing,,Condo/Co-op,2519 Inverness Rd SE,Grand Rapids,MI,49546,365000,2,2.5,Ridgemoor,1309,23082,2021,43,279,278,Active,,,https://www.redfin.com/MI/Grand-Rapids/2519-Inverness-Rd-SE-49546/home/172650764,SW Michigan MLS,25029417,N,Y,42.925375,-85.605606
MLS Listing,,Single Family Residential,1602 4th St NW,Grand Rapids,MI,49504,375000,3,2.0,Grand Rapids - G,1843,14375,1966,43,203,,Active,,,https://www.redfin.com/MI/Grand-Rapids/1602-4th-St-NW-49504/home/96112312,SW Michigan MLS,25029309,N,Y,42.9765651,-85.7075374
MLS Listing,,Condo/Co-op,43 Campau Cir NW,Grand Rapids,MI,49503,435000,2,2.0,Grand Rapids - G,1314,23743,1990,43,331,1063,Active,,,https://www.redfin.com/MI/Grand-Rapids/43-Campau-Cir-NW-49503/home/105995388,SW Michigan MLS,25029297,N,Y,42.963974,-85.673552
MLS Listing,,Single Family Residential,3903 Willow Dr NE,Grand Rapids,MI,49525,165000,3,1.0,Grand Rapids - G,1424,11718,1973,43,116,,Active,,,https://www.redfin.com/MI/Grand-Rapids/3903-Willow-Dr-NE-49525/home/99524353,SW Michigan MLS,25029199,N,Y,43.0345323,-85.6582979
MLS Listing,,Single Family Residential,1326 Dickinson St SE,Grand Rapids,MI,49507,239900,4,2.0,Grand Rapids - G,1336,5314,1929,43,180,,Active,,,https://www.redfin.com/MI/Grand-Rapids/1326-Dickinson-St-SE-49507/home/96510103,SW Michigan MLS,25029131,N,Y,42.9332839,-85.6348649
MLS Listing,,Single Family Residential,60 Lafayette Ave NE,Grand Rapids,MI,49503,1150000,4,4.0,Grand Rapids - G,4135,13416,1922,44,278,,Active,,,https://www.redfin.com/MI/Grand-Rapids/60-Lafayette-Ave-NE-49503/home/96254713,SW Michigan MLS,25029047,N,Y,42.9647769,-85.66132
MLS Listing,,Single Family Residential,1300 Lancaster Ave NW,Grand Rapids,MI,49504,354900,3,1.5,Grand Rapids - G,1800,6000,2000,44,197,,Active,,,https://www.redfin.com/MI/Grand-Rapids/1300-Lancaster-Ave-NW-49504/home/96499822,SW Michigan MLS,25028866,N,Y,42.9885932,-85.7433702
MLS Listing,,Vacant Land,435 28th St,Grand Rapids,MI,49548,550000,,,GORTSEMA ADD,,42253,,45,,,Active,,,https://www.redfin.com/MI/Grand-Rapids/435-28th-St-SE-49548/home/185364936,REALCOMP,58050178476,N,Y,42.9134277,-85.6548709
MLS Listing,,Single Family Residential,243 Fairbanks St NE,Grand Rapids,MI,49503,219900,3,1.0,Grand Rapids - G,1083,4200,1885,45,203,,Active,,,https://www.redfin.com/MI/Grand-Rapids/243-Fairbanks-St-NE-49503/home/106008818,SW Michigan MLS,25028677,N,Y,42.9753793,-85.6626866
MLS Listing,,Single Family Residential,6185 Wing Ave SE,Grand Rapids,MI,49512,345000,2,1.0,Grand Rapids - G,876,22216,1947,46,394,,Active,,,https://www.redfin.com/MI/Grand-Rapids/6185-Wing-Ave-SE-49512/home/106232954,SW Michigan MLS,25028651,N,Y,42.8522013,-85.5885208
MLS Listing,,Single Family Residential,3801 Keeweenaw Dr NE,Grand Rapids,MI,49525,829900,4,3.0,Grand Rapids - G,2283,41818,1966,46,364,6,Active,August-3-2025 01:00 PM,August-3-2025 03:00 PM,https://www.redfin.com/MI/Grand-Rapids/3801-Keeweenaw-Dr-NE-49525/home/173295784,SW Michigan MLS,25028614,N,Y,43.0318113,-85.6024078
MLS Listing,,Single Family Residential,2605 Shadowbrook Dr SE,Grand Rapids,MI,49546,734900,5,3.5,Grand Rapids - G,3729,2278,1975,46,197,,Active,,,https://www.redfin.com/MI/Grand-Rapids/2605-Shadowbrook-Dr-SE-49546/home/96342543,SW Michigan MLS,25027489,N,Y,42.9166301,-85.4836471
MLS Listing,,Single Family Residential,1248 Fisk Rd SE,Grand Rapids,MI,49506,334900,3,1.5,Grand Rapids - G,2109,3440,1925,48,159,,Active,August-2-2025 11:00 AM,August-2-2025 01:00 PM,https://www.redfin.com/MI/Grand-Rapids/1248-Fisk-Rd-SE-49506/home/96188681,SW Michigan MLS,25028226,N,Y,42.9426396,-85.6374746
MLS Listing,,Multi-Family (2-4 Unit),251 Page St NE,Grand Rapids,MI,49505,499900,4,3.0,Grand Rapids,3000,5227,1930,48,167,,Active,,,https://www.redfin.com/MI/Grand-Rapids/251-Page-St-NE-49505/home/187598773,REALCOMP,65025028418,N,Y,42.986657,-85.6623711
MLS Listing,,Single Family Residential,1115 Keneberry Way SE,East Grand Rapids,MI,49506,499900,3,1.5,Grand Rapids - G,1870,5532,1940,48,267,,Active,August-2-2025 11:00 AM,August-2-2025 01:00 PM,https://www.redfin.com/MI/Grand-Rapids/1115-Keneberry-Way-SE-49506/home/96405004,SW Michigan MLS,25028374,N,Y,42.9425527,-85.6089744
MLS Listing,,Condo/Co-op,79 Campau Cir NW #2108,Grand Rapids,MI,49503,345000,1,2.0,Grand Rapids - G,1060,,1990,48,325,880,Active,,,https://www.redfin.com/MI/Grand-Rapids/79-Campau-Ave-NW-49503/unit-2108/home/173660211,SW Michigan MLS,25028370,N,Y,42.9638231,-85.673721
MLS Listing,,Single Family Residential,3544 Briggs Blvd NE,Grand Rapids,MI,49525,474900,4,2.0,Grand Rapids - G,2275,21879,1925,48,209,,Active,,,https://www.redfin.com/MI/Grand-Rapids/3544-Briggs-Blvd-NE-49525/home/96266980,SW Michigan MLS,25027084,N,Y,43.0279141,-85.6562036
MLS Listing,,Single Family Residential,3 Woodward Ln SE,Grand Rapids,MI,49506,749000,4,2.5,Grand Rapids - G,2803,12545,1885,49,267,,Active,,,https://www.redfin.com/MI/Grand-Rapids/3-Woodward-Ln-SE-49506/home/96286786,SW Michigan MLS,25028164,N,Y,42.9624865,-85.6228539
MLS Listing,,Single Family Residential,1757 Westlane Dr NE,Grand Rapids,MI,49505,800000,4,2.5,Grand Rapids - G,2974,37505,1963,49,269,,Active,,,https://www.redfin.com/MI/Grand-Rapids/1757-Westlane-Dr-NE-49505/home/99534790,SW Michigan MLS,25028119,N,Y,42.9952802,-85.649352
MLS Listing,,Single Family Residential,258 Richards Ave SW,Grand Rapids,MI,49504,297700,4,1.5,Grand Rapids - G,1280,4000,1925,49,233,,Active,August-3-2025 01:00 PM,August-3-2025 03:00 PM,https://www.redfin.com/MI/Grand-Rapids/258-Richards-Ave-SW-49504/home/96109803,SW Michigan MLS,25028037,N,Y,42.9585221,-85.6994601
MLS Listing,,Condo/Co-op,335 Bridge St NW #3102,Grand Rapids,MI,49504,1999000,3,3.0,Grand Rapids - G,4135,,2012,49,483,2134,Active,,,https://www.redfin.com/MI/Grand-Rapids/335-Bridge-St-NW-49504/unit-3102/home/103855672,SW Michigan MLS,25028007,N,Y,42.9710015,-85.6767998
MLS Listing,,Single Family Residential,2377 Lake Birch Ct NE,Grand Rapids,MI,49525,1375000,4,3.5,WaterLeaf,3817,22390,2015,49,360,225,Active,,,https://www.redfin.com/MI/Grand-Rapids/2377-Lake-Birch-Ct-NE-49525/home/99571835,SW Michigan MLS,25027915,N,Y,43.0060389,-85.5718312
MLS Listing,,Multi-Family (2-4 Unit),635 Sinclair Ave NE,Grand Rapids,MI,49503,299000,6,2.0,Grand Rapids,,9583,1890,50,,,Active,,,https://www.redfin.com/MI/Grand-Rapids/635-Sinclair-Ave-NE-49503/home/96837463,REALCOMP,65025027901,N,Y,42.9747605,-85.6585989
MLS Listing,,Single Family Residential,2125 Englewood Dr SE,Grand Rapids,MI,49506,524900,4,2.0,Grand Rapids - G,2266,13112,1949,50,232,,Active,,,https://www.redfin.com/MI/Grand-Rapids/2125-Englewood-Dr-SE-49506/home/96119126,SW Michigan MLS,25027624,N,Y,42.932208,-85.6160018
MLS Listing,,Single Family Residential,238 Richards Ave SW,Grand Rapids,MI,49504,318900,3,1.5,Grand Rapids - G,1548,4000,1930,50,206,,Active,,,https://www.redfin.com/MI/Grand-Rapids/238-Richards-Ave-SW-49504/home/99531023,SW Michigan MLS,25027602,N,Y,42.9590843,-85.6994464
MLS Listing,,Single Family Residential,121 Houseman Ave NE,Grand Rapids,MI,49503,280000,3,2.0,Grand Rapids - G,1292,5750,1885,52,217,,Active,,,https://www.redfin.com/MI/Grand-Rapids/121-Houseman-Ave-NE-49503/home/96247674,SW Michigan MLS,25027298,N,Y,42.9657525,-85.6473105
MLS Listing,,Single Family Residential,630 Prospect Ave NE,Grand Rapids,MI,49503,219900,4,1.0,Grand Rapids - G,1217,4966,1860,52,181,,Active,,,https://www.redfin.com/MI/Grand-Rapids/630-Prospect-Ave-NE-49503/home/99536058,SW Michigan MLS,25027297,N,Y,42.9746267,-85.6604583
MLS Listing,,Multi-Family (2-4 Unit),345 Paris Ave SE,Grand Rapids,MI,49503,635000,7,6.0,Grand Rapids,3273,6970,1875,52,194,,Active,August-1-2025 01:00 PM,August-1-2025 03:00 PM,https://www.redfin.com/MI/Grand-Rapids/345-Paris-Ave-SE-49503/home/96838183,REALCOMP,65025023577,N,Y,42.9561437,-85.6557668
MLS Listing,,Single Family Residential,4372 Hunsberger Ave NE,Grand Rapids,MI,49525,429900,3,2.0,Grand Rapids - G,1837,34979,1931,52,234,,Active,,,https://www.redfin.com/MI/Grand-Rapids/4372-Hunsberger-Ave-NE-49525/home/96237251,SW Michigan MLS,25027258,N,Y,43.0423757,-85.6190124
MLS Listing,,Condo/Co-op,335 Bridge St NW #1101,Grand Rapids,MI,49504,519900,2,2.0,Grand Rapids - G,1495,,2007,52,348,693,Active,,,https://www.redfin.com/MI/Grand-Rapids/335-Bridge-St-NW-49504/unit-1101/home/96426026,SW Michigan MLS,25027233,N,Y,42.9710015,-85.6767998
MLS Listing,,Single Family Residential,607 66th St SE,Grand Rapids,MI,49548,319999,3,1.5,Grand Rapids - G,1228,46409,1958,53,261,,Active,,,https://www.redfin.com/MI/Grand-Rapids/607-66th-St-SE-49548/home/96586496,SW Michigan MLS,25025463,N,Y,42.8449066,-85.6491424
MLS Listing,,Multi-Family (5+ Unit),2951 Vineland Ave SE,Grand Rapids,MI,49508,950000,18,18.0,Grand Rapids,7923,29621,1962,55,120,,Active,,,https://www.redfin.com/MI/Grand-Rapids/2951-Vineland-Ave-SE-49508/home/96847499,REALCOMP,65025022508,N,Y,42.9093996,-85.6345343
MLS Listing,,Single Family Residential,1032 Lafayette Ave NE,Grand Rapids,MI,49503,259900,3,1.5,Grand Rapids - G,1984,4704,1923,55,131,,Active,,,https://www.redfin.com/MI/Grand-Rapids/1032-Lafayette-Ave-NE-49503/home/96301160,SW Michigan MLS,25027015,N,Y,42.9819872,-85.661824
MLS Listing,,Condo/Co-op,627 Fairview Ave NE #2,Grand Rapids,MI,49503,465000,2,2.5,Belknap Bluffs,1326,,2019,55,351,253,Active,August-5-2025 05:30 PM,August-5-2025 07:30 PM,https://www.redfin.com/MI/Grand-Rapids/627-Fairview-Ave-NE-49503/unit-2/home/168658325,SW Michigan MLS,25026935,N,Y,42.974355,-85.66779
MLS Listing,,Single Family Residential,1116 Covell Ave NW,Grand Rapids,MI,49504,319900,4,4.0,Grand Rapids - G,2010,16799,1930,55,159,,Active,,,https://www.redfin.com/MI/Grand-Rapids/1116-Covell-Ave-NW-49504/home/96317491,SW Michigan MLS,25026897,N,Y,42.9842264,-85.7167183
MLS Listing,,Condo/Co-op,60 Campau Cir NW #2308,Grand Rapids,MI,49503,305000,1,1.0,Grand Rapids - G,731,23743,1990,55,417,660,Active,,,https://www.redfin.com/MI/Grand-Rapids/60-Campau-Ave-NW-49503/unit-2308/home/189489167,SW Michigan MLS,25026880,N,Y,42.9636809,-85.6737803
MLS Listing,,Condo/Co-op,940 Monroe Ave NW #335,Grand Rapids,MI,49503,299900,1,1.0,Grand Rapids - G,926,,1892,55,324,387,Active,,,https://www.redfin.com/MI/Grand-Rapids/940-Monroe-Ave-NW-49503/unit-335/home/96637863,SW Michigan MLS,25026845,N,Y,42.9784811,-85.671809
MLS Listing,,Single Family Residential,3020 Cascade Rd SE,Grand Rapids,MI,49506,488000,5,2.0,Grand Rapids - G,2012,12589,1950,55,243,,Active,August-3-2025 02:00 PM,August-3-2025 04:00 PM,https://www.redfin.com/MI/Grand-Rapids/3020-Cascade-Rd-SE-49506/home/96111454,SW Michigan MLS,25026827,N,Y,42.9575421,-85.5949517
MLS Listing,,Condo/Co-op,335 Bridge St NW #500,Grand Rapids,MI,49504,820000,3,3.0,Grand Rapids - G,1891,,2007,55,434,1125,Active,,,https://www.redfin.com/MI/Grand-Rapids/335-Bridge-St-NW-49504/unit-500/home/96703938,SW Michigan MLS,25026820,N,Y,42.9710015,-85.6767998
MLS Listing,,Single Family Residential,1200 Jackson,Grand Rapids,MI,49504,229900,3,2.0,Grand Rapids - G,1501,3742,1919,55,153,,Active,,,https://www.redfin.com/MI/Grand-Rapids/1200-Jackson-St-NW-49504/home/96360418,SW Michigan MLS,25026788,N,Y,42.9681178,-85.6976731
MLS Listing,,Single Family Residential,846 Lafayette Ave NE,Grand Rapids,MI,49503,209900,4,1.0,Grand Rapids - G,1198,3750,1880,55,175,,Active,,,https://www.redfin.com/MI/Grand-Rapids/846-Lafayette-Ave-NE-49503/home/106038060,SW Michigan MLS,25026754,N,Y,42.9788233,-85.6617832
MLS Listing,,Single Family Residential,1237 Wealthy St SE,Grand Rapids,MI,49506,325000,4,1.5,Grand Rapids - G,1896,4487,1900,55,171,,Active,,,https://www.redfin.com/MI/Grand-Rapids/1237-Wealthy-St-SE-49506/home/96268649,SW Michigan MLS,25025674,N,Y,42.9557149,-85.6380062
MLS Listing,,Single Family Residential,465 Kenwood St NE,Grand Rapids,MI,49505,324900,3,1.5,Grand Rapids - G,1540,5000,1925,56,211,,Active,,,https://www.redfin.com/MI/Grand-Rapids/465-Kenwood-St-NE-49505/home/96326777,SW Michigan MLS,25025386,N,Y,43.0020434,-85.6571265
MLS Listing,,Condo/Co-op,600 Broadway Ave NW #318,Grand Rapids,MI,49504,299000,2,2.0,Grand Rapids - G,,,1900,56,,595,Active,,,https://www.redfin.com/MI/Grand-Rapids/600-Broadway-Ave-NW-49504/unit-318/home/106005719,SW Michigan MLS,25026646,N,Y,42.9738948,-85.6795789
MLS Listing,,Single Family Residential,4515 Harbor View Dr,Grand Rapids,MI,49512,718000,4,2.5,Grand Rapids - G,3064,31619,2023,56,234,46,Active,,,https://www.redfin.com/MI/Grand-Rapids/4515-Harbor-View-Dr-49512/home/168664432,SW Michigan MLS,25021441,N,Y,42.8823097,-85.4731203
MLS Listing,,Condo/Co-op,2347 Ada Valley Dr,Grand Rapids,MI,49525,749000,2,2.0,The Reserve at Knapp Bluff,2092,12197,2025,56,358,457,Active,,,https://www.redfin.com/MI/Northview/2347-N-Valley-Dr-NE-49525/home/193449870,SW Michigan MLS,25026534,N,Y,43.004437,-85.553776
MLS Listing,,Single Family Residential,226 Sunset Ave NW,Grand Rapids,MI,49504,849900,3,2.5,Grand Rapids - G,2055,1246,1988,57,414,,Active,,,https://www.redfin.com/MI/Grand-Rapids/226-Sunset-Ave-NW-49504/home/99530988,SW Michigan MLS,25026357,N,Y,42.9684736,-85.7014579
MLS Listing,,Single Family Residential,2325 Indian Mill Crk NW,Grand Rapids,MI,49544,649900,7,3.5,Grand Rapids - G,4768,135036,1979,57,136,,Active,,,https://www.redfin.com/MI/Grand-Rapids/2325-Indian-Mill-Creek-Dr-NW-49544/home/106244450,SW Michigan MLS,25026324,N,Y,43.0396658,-85.7282918
MLS Listing,,Single Family Residential,1335 Knapp St NE,Grand Rapids,MI,49505,334000,3,2.0,Grand Rapids - G,1749,45302,1960,57,191,,Active,,,https://www.redfin.com/MI/Grand-Rapids/1335-Knapp-St-NE-49505/home/99534042,SW Michigan MLS,25026318,N,Y,42.9995542,-85.6366421
MLS Listing,,Multi-Family (2-4 Unit),510 Woodlawn St SE,Grand Rapids,MI,49507,289900,5,2.0,Grand Rapids,,4792,1900,57,,,Active,,,https://www.redfin.com/MI/Grand-Rapids/510-Woodlawn-St-SE-49507/home/96844248,REALCOMP,65025026238,N,Y,42.94241,-85.6560469
MLS Listing,,Single Family Residential,6830 Golden Vw SE,Grand Rapids,MI,49512,688888,4,2.5,Grand Rapids - G,2680,80184,2023,57,257,117,Active,,,https://www.redfin.com/MI/Grand-Rapids/6830-Golden-View-Dr-49512/home/174363623,SW Michigan MLS,25026157,N,Y,42.859302,-85.496542
MLS Listing,,Vacant Land,746 W Sedona Hills Ct NE,Grand Rapids,MI,49525,310000,,,Grand Rapids - G,,81457,,57,,,Active,,,https://www.redfin.com/MI/Grand-Rapids/746-W-Sedona-Hills-Ct-NE-49525/home/194015813,SW Michigan MLS,25026092,N,Y,42.975626,-85.575538
MLS Listing,,Vacant Land,757 W Sedona Hills Ct NE,Grand Rapids,MI,49525,249000,,,Grand Rapids - G,,28750,,57,,,Active,,,https://www.redfin.com/MI/Grand-Rapids/757-W-Sedona-Hills-Ct-NE-49525/home/194015809,SW Michigan MLS,25026091,N,Y,42.975859,-85.576961
MLS Listing,,Vacant Land,777 E Sedona Hills Ct NE,Grand Rapids,MI,49525,299000,,,Grand Rapids - G,,71438,,57,,,Active,,,https://www.redfin.com/MI/Grand-Rapids/777-E-Sedona-Hills-Ct-NE-49525/home/194015818,SW Michigan MLS,25026090,N,Y,42.976787,-85.5747
MLS Listing,,Single Family Residential,538 Eastern Ave NE,Grand Rapids,MI,49503,179900,2,1.0,Grand Rapids - G,821,6621,1900,58,219,,Active,,,https://www.redfin.com/MI/Grand-Rapids/538-Eastern-Ave-NE-49503/home/96288637,SW Michigan MLS,25025955,N,Y,42.9724598,-85.649418
MLS Listing,,Single Family Residential,349 Diamond Ave NE,Grand Rapids,MI,49503,209900,3,1.0,Grand Rapids - G,1111,2875,1910,58,189,,Active,,,https://www.redfin.com/MI/Grand-Rapids/349-Diamond-Ave-NE-49503/home/96196091,SW Michigan MLS,25025954,N,Y,42.9694041,-85.6448881
MLS Listing,,Condo/Co-op,335 Bridge St NW #2005,Grand Rapids,MI,49504,419000,2,2.0,River House Condominiums,1333,,2009,58,314,693,Active,,,https://www.redfin.com/MI/Grand-Rapids/335-Bridge-St-NW-49504/unit-2005/home/96678416,SW Michigan MLS,25025933,N,Y,42.9710015,-85.6767998
MLS Listing,,Single Family Residential,620 Twin Lakes Dr NE,Grand Rapids,MI,49525,475000,3,2.0,Grand Rapids - G,3291,33149,1983,58,144,,Active,,,https://www.redfin.com/MI/Grand-Rapids/620-Twin-Lakes-Dr-NE-49525/home/96125254,SW Michigan MLS,25025841,N,Y,42.9740685,-85.586349
MLS Listing,,Single Family Residential,573 College Ave SE,Grand Rapids,MI,49503,950000,6,5.0,Heritage Hill,4019,6098,1885,58,236,,Active,,,https://www.redfin.com/MI/Grand-Rapids/573-College-Ave-SE-49503/home/96108680,SW Michigan MLS,25025469,N,Y,42.9518457,-85.6569334
MLS Listing,,Single Family Residential,4268 Bradford St NE,Grand Rapids,MI,49525,1985000,5,4.5,Grand Rapids - G,4413,43560,2025,59,450,,Active,,,https://www.redfin.com/MI/Grand-Rapids/4268-Bradford-St-NE-49525/home/195973662,SW Michigan MLS,25025819,N,Y,42.976669,-85.5643892
MLS Listing,,Multi-Family (2-4 Unit),27 Rose St SW,Grand Rapids,MI,49507,369500,4,2.0,Grand Rapids,2262,6534,1905,59,163,,Active,,,https://www.redfin.com/MI/Grand-Rapids/27-Rose-St-SW-49507/home/105999722,REALCOMP,65025025778,N,Y,42.9300558,-85.6679571
MLS Listing,,Single Family Residential,1740 Flowers Mill Ct NE,Grand Rapids,MI,49525,1194000,4,3.5,Flowers Mill,5419,56628,1994,59,220,150,Active,,,https://www.redfin.com/MI/Grand-Rapids/1740-Flowers-Mill-Ct-NE-49525/home/106238049,SW Michigan MLS,25025752,N,Y,42.9941075,-85.5790585
MLS Listing,,Condo/Co-op,144 Oakes St SW #2203,Grand Rapids,MI,49503,950000,3,3.0,Grand Rapids - G,1710,,2024,59,556,735,Active,,,https://www.redfin.com/MI/Grand-Rapids/144-Oakes-St-SW-49503/unit-2203/home/193664340,SW Michigan MLS,25025719,N,Y,42.9609063,-85.6729004
MLS Listing,,Condo/Co-op,144 Oakes St SW #1903,Grand Rapids,MI,49503,895000,2,2.0,Grand Rapids - G,1497,,2024,59,598,647,Active,,,https://www.redfin.com/MI/Grand-Rapids/144-Oakes-St-SW-49503/unit-1903/home/193653559,SW Michigan MLS,25025714,N,Y,42.9609063,-85.6729004
MLS Listing,,Single Family Residential,6774 Woodbrook Dr SE,Grand Rapids,MI,49546,600000,4,3.5,Grand Rapids - G,3308,15682,1978,59,181,,Active,,,https://www.redfin.com/MI/Grand-Rapids/6774-Woodbrook-Dr-SE-49546/home/96614392,SW Michigan MLS,25024234,N,Y,42.8976948,-85.5001768
MLS Listing,,Condo/Co-op,801 Monroe Ave NW #402,Grand Rapids,MI,49503,375000,1,1.5,Landmark Lofts,1266,,1900,60,296,571,Active,,,https://www.redfin.com/MI/Grand-Rapids/801-Monroe-Ave-NW-49503/unit-402/home/106040972,SW Michigan MLS,25025521,N,Y,42.9768023,-85.6728597
MLS Listing,,Single Family Residential,4160 Knapp Valley Dr NE,Grand Rapids,MI,49525,475000,5,3.5,Grand Rapids - G,2696,22216,2002,62,176,,Active,,,https://www.redfin.com/MI/Grand-Rapids/4160-Knapp-Valley-Dr-NE-49525/home/99558790,SW Michigan MLS,25025394,N,Y,43.0037374,-85.5666728
MLS Listing,,Condo/Co-op,600 Douglas St NW Unit 620D,Grand Rapids,MI,49504,250000,2,2.0,Grand Rapids - G,806,,2014,62,310,493,Active,,,https://www.redfin.com/MI/Grand-Rapids/600-Douglas-St-NW-49504/unit-620D/home/173296543,SW Michigan MLS,25025220,N,Y,42.9696231,-85.6832342
MLS Listing,,Condo/Co-op,2234 Griggs St SE #44,Grand Rapids,MI,49506,625500,3,2.5,Breton Hamlet Condominiums,2089,,2025,63,299,350,Active,,,https://www.redfin.com/MI/Grand-Rapids/2234-Griggs-St-SE-49506/unit-44/home/188369299,SW Michigan MLS,25024822,N,Y,42.9302935,-85.6143714
MLS Listing,,Condo/Co-op,2246 Griggs St SE #40,Grand Rapids,MI,49506,595500,3,2.5,Breton Hamlet Condominiums,2089,,2025,63,285,350,Active,,,https://www.redfin.com/MI/Grand-Rapids/2246-Griggs-St-SE-49506/unit-40/home/188370098,SW Michigan MLS,25024819,N,Y,42.9302935,-85.6143714
MLS Listing,,Condo/Co-op,600 Broadway Ave NW #117,Grand Rapids,MI,49504,309900,2,1.0,Grand Rapids - G,1110,,1900,64,279,565,Active,,,https://www.redfin.com/MI/Grand-Rapids/600-Broadway-Ave-NW-49504/unit-117/home/106039967,SW Michigan MLS,25024692,N,Y,42.9738948,-85.6795789
MLS Listing,,Single Family Residential,933 Orchard Ave SE,East Grand Rapids,MI,49506,525000,4,1.5,Grand Rapids - G,1934,7362,1924,64,271,,Active,,,https://www.redfin.com/MI/Grand-Rapids/933-Orchard-Ave-SE-49506/home/96520176,SW Michigan MLS,25023657,N,Y,42.9457432,-85.6147165
MLS Listing,,Multi-Family (2-4 Unit),733 Lafayette Ave NE,Grand Rapids,MI,49503,285000,5,2.0,MOHRHARD S SECOND SUB,1740,6098,1900,64,164,,Active,,,https://www.redfin.com/MI/Grand-Rapids/733-Lafayette-Ave-NE-49503/home/99536339,REALCOMP,69025024555,N,Y,42.9762939,-85.6622196
MLS Listing,,Single Family Residential,737 Bates St SE,Grand Rapids,MI,49503,315000,4,3.5,Grand Rapids - G,1952,2439,2019,65,161,,Active,,,https://www.redfin.com/MI/Grand-Rapids/737-Bates-St-SE-49503/home/96267401,SW Michigan MLS,25023376,N,Y,42.9494489,-85.6502508
MLS Listing,,Single Family Residential,1710 Kreft St NE,Grand Rapids,MI,49525,699000,3,3.0,Grand Rapids - G,4324,87991,1953,69,162,,Active,,,https://www.redfin.com/MI/Grand-Rapids/1710-Kreft-St-NE-49525/home/99571167,SW Michigan MLS,25023979,N,Y,43.0264483,-85.6269491
MLS Listing,,Multi-Family (2-4 Unit),470 Crescent St NE,Grand Rapids,MI,49503,575000,3,3.0,Grand Rapids,,7841,1875,69,,,Active,,,https://www.redfin.com/MI/Grand-Rapids/470-Crescent-St-NE-49503/home/96846283,REALCOMP,65025023878,N,Y,42.9686926,-85.6574752
MLS Listing,,Single Family Residential,1705 Forest Hill Ave SE,Grand Rapids,MI,49546,659900,4,3.5,Grand Rapids - G,2708,36155,2025,69,244,,Active,,,https://www.redfin.com/MI/Grand-Rapids/1705-Forest-Hill-Ave-SE-49546/home/96782445,SW Michigan MLS,25023843,N,Y,42.932696,-85.558885
MLS Listing,,Single Family Residential,1145 Eastmont Dr SE,Grand Rapids,MI,49546,449900,4,2.5,Grand Rapids - G,2068,16117,1950,70,218,,Active,,,https://www.redfin.com/MI/Grand-Rapids/1145-Eastmont-Dr-SE-49546/home/96479820,SW Michigan MLS,25023619,N,Y,42.9420218,-85.5548357
MLS Listing,,Condo/Co-op,33 Campau Cir NW #2704,Grand Rapids,MI,49503,439000,2,2.0,Grand Rapids - G,1311,,1990,70,335,999,Active,,,https://www.redfin.com/MI/Grand-Rapids/33-Campau-Ave-NW-49503/unit-2704/home/140729279,SW Michigan MLS,25023489,N,Y,42.9634738,-85.673783
MLS Listing,,Single Family Residential,957 Breton Rd SE,East Grand Rapids,MI,49506,599900,3,1.5,Grand Rapids - G,2107,6098,1923,70,285,,Active,August-2-2025 11:00 AM,August-2-2025 12:30 PM,https://www.redfin.com/MI/Grand-Rapids/957-Breton-Rd-SE-49506/home/96297748,SW Michigan MLS,25022000,N,Y,42.9450924,-85.6103851
MLS Listing,,Single Family Residential,1058 Eastwood Ave SE,East Grand Rapids,MI,49506,535000,3,1.5,Grand Rapids - G,1680,8407,1928,71,318,,Active,,,https://www.redfin.com/MI/Grand-Rapids/1058-Eastwood-Ave-SE-49506/home/99539754,SW Michigan MLS,25023364,N,Y,42.9431492,-85.6052672
MLS Listing,,Condo/Co-op,600 Broadway Ave NW #414,Grand Rapids,MI,49504,330000,2,2.0,Grand Rapids - G,1363,,1900,71,242,649,Active,,,https://www.redfin.com/MI/Grand-Rapids/600-Broadway-Ave-NW-49504/unit-414/home/106031464,SW Michigan MLS,25023261,N,Y,42.9738948,-85.6795789
MLS Listing,,Single Family Residential,4695 Knapp Bluff St NE,Grand Rapids,MI,49525,949000,3,2.5,Grand Rapids,2421,12197,2025,72,392,47,Active,,,https://www.redfin.com/MI/Grand-Rapids/4700-Knapp-St-NE-49525/home/96761919,REALCOMP,65025023082,N,Y,43.0044243,-85.553802
MLS Listing,,Single Family Residential,4695 Knapp Bluff St NE,Grand Rapids,MI,49525,949000,3,2.5,Grand Rapids - G,2421,12197,2025,72,392,47,Active,,,https://www.redfin.com/MI/Grand-Rapids/4695-Knapp-St-NE-49525/home/195859024,SW Michigan MLS,25023082,N,Y,43.0055991,-85.5532337
MLS Listing,,Vacant Land,845 Ferris St NW,Grand Rapids,MI,49544,19999,,,Grand Rapids - G,,6316,,72,,,Active,,,https://www.redfin.com/MI/Grand-Rapids/845-Ferris-St-NW-49544/home/96755535,SW Michigan MLS,25023067,N,Y,43.011799,-85.690969
MLS Listing,,Multi-Family (2-4 Unit),914 W Fulton St,Grand Rapids,MI,49504,239900,4,2.0,Grand Rapids,,4356,1910,76,,,Active,,,https://www.redfin.com/MI/Grand-Rapids/914-Fulton-St-W-49504/home/96195905,REALCOMP,65025022200,N,Y,42.9634559,-85.6905962
MLS Listing,,Single Family Residential,412 Breens Ct SW,Grand Rapids,MI,49503,189900,3,1.0,Grand Rapids - G,1135,2309,1924,77,167,,Active,,,https://www.redfin.com/MI/Grand-Rapids/412-Breens-Ct-SW-49503/home/96563058,SW Michigan MLS,25022258,N,Y,42.9523792,-85.6771838
MLS Listing,,Single Family Residential,1950 Robinson Rd SE,East Grand Rapids,MI,49506,3475000,6,6.5,Grand Rapids - G,6071,105067,2014,77,572,35,Active,,,https://www.redfin.com/MI/Grand-Rapids/1950-Robinson-Rd-SE-49506/home/96175833,SW Michigan MLS,25022235,N,Y,42.9570088,-85.6226703
MLS Listing,,Single Family Residential,2429 Shears Crossing Ct NE,Grand Rapids,MI,49525,949900,5,5.0,Grand Rapids - G,3405,26572,2007,77,279,183,Active,,,https://www.redfin.com/MI/Grand-Rapids/2429-Shears-Crossing-Ct-NE-49525/home/106285028,SW Michigan MLS,25022060,N,Y,43.0066582,-85.5535782
