SALE TYPE,SOLD DATE,PROPERTY TYPE,ADDRESS,CITY,STATE OR PROVINCE,ZIP OR POSTAL CODE,PRICE,BEDS,BATHS,LOCATION,SQUARE FEET,LOT SIZE,YEAR BUILT,DAYS ON MARKET,$/SQUARE FEET,HOA/MONTH,STATUS,NEXT OPEN HOUSE START TIME,NEXT OPEN HOUSE END TIME,URL (SEE https://www.redfin.com/buy-a-home/comparative-market-analysis FOR INFO ON PRICING),SOURCE,MLS#,FAVORITE,INTERESTED,LATITUDE,LONGITUDE
"In accordance with local MLS rules, some MLS listings are not included in the download"
MLS Listing,,Condo/Co-op,469 Ena Rd #2108,Honolulu,HI,96815,820000,2,2.0,WAIKIKI,948,113169,1971,2,865,823,Active,August-3-2025 02:00 PM,August-3-2025 05:00 PM,https://www.redfin.com/HI/Honolulu/469-Ena-Rd-96815/unit-2108/home/91475583,HiCentral MLS,202516798,N,Y,21.2869026,-157.8344475
MLS Listing,,Condo/Co-op,400 Hobron Ln #2809,Honolulu,HI,96815,499000,1,1.0,WAIKIKI,681,104718,1974,18,733,1175,Active,August-3-2025 03:00 PM,August-3-2025 06:00 PM,https://www.redfin.com/HI/Honolulu/400-Hobron-Ln-96815/unit-2809/home/63845956,HiCentral MLS,202515888,N,Y,21.2873137,-157.8360439
MLS Listing,,Condo/Co-op,66 Queen St #2501,Honolulu,HI,96813,1100000,2,2.0,DOWNTOWN,1364,,1994,35,806,1569,Active,,,https://www.redfin.com/HI/Honolulu/66-Queen-St-96813/unit-2501/home/63757081,HiCentral MLS,202511221,N,Y,21.3089844,-157.8635915
MLS Listing,,Condo/Co-op,402 Iolani Ave #204,Honolulu,HI,96813,400000,2,1.0,PUNCHBOWL AREA,592,5881,1967,39,676,440,Active,,,https://www.redfin.com/HI/Honolulu/402-Iolani-Ave-96813/unit-204/home/63753974,HiCentral MLS,202514400,N,Y,21.3107653,-157.8508541
MLS Listing,,Condo/Co-op,1447 Kewalo St #101,Honolulu,HI,96822,270000,0,1.0,MAKIKI AREA,484,27007,1972,57,558,850,Active,,,https://www.redfin.com/HI/Honolulu/1447-Kewalo-St-96822/unit-101/home/88496016,HiCentral MLS,202513575,N,Y,21.3036871,-157.8389739
MLS Listing,,Condo/Co-op,2115 Ala Wai Blvd #501,Honolulu,HI,96815,420000,1,1.0,WAIKIKI,748,13634,1973,64,561,1125,Active,,,https://www.redfin.com/HI/Honolulu/2115-Ala-Wai-Blvd-96815/unit-501/home/63850233,HiCentral MLS,202513004,N,Y,21.283801,-157.82878
MLS Listing,,Condo/Co-op,444 Nahua St #1104,Honolulu,HI,96815,398000,1,1.0,WAIKIKI,531,23348,1976,85,750,1215,Active,,,https://www.redfin.com/HI/Honolulu/444-Nahua-St-96815/unit-1104/home/88503078,HiCentral MLS,202511042,N,Y,21.2801347,-157.8248664
MLS Listing,,Condo/Co-op,3045 Ala Napuaa Pl #1518,Honolulu,HI,96818,389000,1,1.0,SALT LAKE,594,,1974,114,655,853,Active,,,https://www.redfin.com/HI/Honolulu/3045-Ala-Napuaa-Pl-96818/unit-1518/home/88474483,HiCentral MLS,202507953,N,Y,21.3443108,-157.9074901
MLS Listing,,Condo/Co-op,949 Ala Nanala St #301,Honolulu,HI,96818,375000,2,1.0,SALT LAKE,700,31102,1974,116,536,1025,Active,,,https://www.redfin.com/HI/Honolulu/949-Ala-Nanala-St-96818/unit-301/home/63805021,HiCentral MLS,202508075,N,Y,21.3462172,-157.9097469
MLS Listing,,Condo/Co-op,594 Mananai Pl Unit 21U,Honolulu,HI,96818,598000,2,2.0,HALAWA,874,117089,1986,121,684,1052,Active,August-3-2025 02:00 PM,August-3-2025 05:00 PM,https://www.redfin.com/HI/Honolulu/594-Mananai-Pl-96818/unit-21U/home/91470677,HiCentral MLS,202507268,N,Y,21.369681,-157.9221275
MLS Listing,,Condo/Co-op,411 Hobron Ln #1808,Honolulu,HI,96815,446000,1,1.0,WAIKIKI,540,70611,1974,121,826,1029,Active,,,https://www.redfin.com/HI/Honolulu/411-Hobron-Ln-96815/unit-1808/home/88500229,HiCentral MLS,202507861,N,Y,21.2865092,-157.8364397
MLS Listing,,Condo/Co-op,88 Piikoi St Unit 3501/3502,Honolulu,HI,96814,1548000,2,2.0,KAKAAKO,1967,267981,1999,128,787,1797,Active,,,https://www.redfin.com/HI/Honolulu/88-Piikoi-St-96814/unit-3501-3502/home/68336256,HiCentral MLS,202507672,N,Y,21.2927813,-157.847431
MLS Listing,,Condo/Co-op,55 S Kukui St Unit D1306,Honolulu,HI,96813,388000,1,1.0,DOWNTOWN,615,,1976,141,631,584,Active,,,https://www.redfin.com/HI/Honolulu/55-S-Kukui-St-96813/unit-D1306/home/63846357,HiCentral MLS,202506594,N,Y,21.3119779,-157.8584598
MLS Listing,,Condo/Co-op,2463 Kuhio Ave #1106,Honolulu,HI,96815,350000,0,1.0,WAIKIKI,206,,1975,184,1699,635,Active,,,https://www.redfin.com/HI/Honolulu/2463-Kuhio-Ave-96815/unit-1106/home/63792689,HiCentral MLS,202502574,N,Y,21.2759263,-157.8230966
MLS Listing,,Condo/Co-op,229 Paoakalani Ave #3203,Honolulu,HI,96815,675000,1,1.0,WAIKIKI,546,49963,1979,186,1236,1129,Active,,,https://www.redfin.com/HI/Honolulu/229-Paoakalani-Ave-96815/unit-3203/home/63751735,HiCentral MLS,202502550,N,Y,21.2743201,-157.8202324
MLS Listing,,Townhouse,729 Ekela Ave,Honolulu,HI,96816,1610000,8,4.0,KAPAHULU,2136,4302,1950,350,754,,Active,,,https://www.redfin.com/HI/Honolulu/729-Ekela-Ave-96816/home/64020859,HiCentral MLS,202418189,N,Y,21.2821417,-157.8160942
MLS Listing,,Condo/Co-op,1001 Queen St #1908,Honolulu,HI,96814,950000,1,1.0,KAKAAKO,654,,2018,1,1453,890,Active,,,https://www.redfin.com/HI/Honolulu/1001-Queen-St-96814/unit-1908/home/113644633,HiCentral MLS,202517043,N,Y,21.2953666,-157.8530565
MLS Listing,,Condo/Co-op,1717 Ala Wai Blvd #505,Honolulu,HI,96815,550000,2,2.0,WAIKIKI,928,62073,1970,1,593,1475,Active,,,https://www.redfin.com/HI/Honolulu/1717-Ala-Wai-Blvd-96815/unit-505/home/63750792,HiCentral MLS,202517224,N,Y,21.2881301,-157.8354151
MLS Listing,,Condo/Co-op,1125 Young St #705,Honolulu,HI,96814,330000,1,1.0,MAKIKI AREA,510,,1966,1,647,742,Active,,,https://www.redfin.com/HI/Honolulu/1125-Young-St-96814/unit-705/home/88462565,HiCentral MLS,202517085,N,Y,21.3008354,-157.8446883
MLS Listing,,Condo/Co-op,1177 Queen St #4504,Honolulu,HI,96814,1298000,2,2.0,KAKAAKO,1113,,2006,1,1166,1449,Active,,,https://www.redfin.com/HI/Honolulu/1177-Queen-St-96814/unit-4504/home/63828025,HiCentral MLS,202517199,N,Y,21.29342,-157.849211
MLS Listing,,Single Family Residential,7223 Naohe St,Honolulu,HI,96825,1350000,4,2.0,KOKO HEAD TERRACE,1444,6000,1970,1,935,,Active,August-3-2025 02:00 PM,August-3-2025 05:00 PM,https://www.redfin.com/HI/Honolulu/7223-Naohe-St-96825/home/88531421,HiCentral MLS,202516982,N,Y,21.2931016,-157.6909177
MLS Listing,,Single Family Residential,1947 Alaeloa St,Honolulu,HI,96821,3600000,7,5.0,WAIALAE NUI RDGE,3592,7500,1965,1,1002,,Active,August-3-2025 02:00 PM,August-3-2025 05:00 PM,https://www.redfin.com/HI/Honolulu/1947-Alaeloa-St-96821/home/63855807,HiCentral MLS,202516643,N,Y,21.2892287,-157.7781079
MLS Listing,,Condo/Co-op,6125 Summer St Unit 6125B,Honolulu,HI,96821,975000,2,3.0,PAIKO LAGOON,843,,1974,1,1157,1320,Active,,,https://www.redfin.com/HI/Honolulu/6125-Summer-St-96821/unit-6125B/home/193205408,HiCentral MLS,202517089,N,Y,21.2849143,-157.7224159
MLS Listing,,Condo/Co-op,7007 Hawaii Kai Dr Unit L21,Honolulu,HI,96825,1098000,3,2.0,WEST MARINA,1296,365991,1988,1,847,1313,Active,August-3-2025 02:00 PM,August-3-2025 05:00 PM,https://www.redfin.com/HI/Honolulu/7007-Hawaii-Kai-Dr-96825/unit-L21/home/88529285,HiCentral MLS,202516601,N,Y,21.287029,-157.702608
MLS Listing,,Condo/Co-op,66 Queen St #2802,Honolulu,HI,96813,678888,2,2.0,DOWNTOWN,1253,57673,1994,1,542,1496,Active,,,https://www.redfin.com/HI/Honolulu/66-Queen-St-96813/unit-2802/home/63810684,HiCentral MLS,202515633,N,Y,21.3089844,-157.8635915
MLS Listing,,Single Family Residential,2103 Kalawahine Pl,Honolulu,HI,96822,4300000,5,4.0,MAKIKI HEIGHTS,3836,16156,1955,1,1121,,Active,,,https://www.redfin.com/HI/Honolulu/2103-Kalawahine-Pl-96822/home/196757371,HiCentral MLS,202517024,N,Y,21.3140618,-157.834842
MLS Listing,,Single Family Residential,57 Moloaa St,Honolulu,HI,96825,2588000,3,3.5,KOKO KAI,2256,13741,1970,1,1147,8,Active,August-3-2025 02:00 PM,August-3-2025 05:00 PM,https://www.redfin.com/HI/Honolulu/57-Moloaa-St-96825/home/88529596,HiCentral MLS,202517118,N,Y,21.2631293,-157.7091609
MLS Listing,,Condo/Co-op,2916 Date St Unit E-5,Honolulu,HI,96816,445000,2,2.0,KAPAHULU,652,,1981,1,683,831,Active,,,https://www.redfin.com/HI/Honolulu/2916-Date-St-96816/unit-5E/home/88509174,HiCentral MLS,202517172,N,Y,21.2816461,-157.8158686
MLS Listing,,Condo/Co-op,2609 Ala Wai Blvd #1002,Honolulu,HI,96815,395000,1,1.0,WAIKIKI,535,10803,1969,1,738,908,Active,,,https://www.redfin.com/HI/Honolulu/2609-Ala-Wai-Blvd-96815/unit-1002/home/88505525,HiCentral MLS,202516804,N,Y,21.2750935,-157.818696
MLS Listing,,Condo/Co-op,410 Atkinson Dr #2226,Honolulu,HI,96814,465000,1,1.0,ALA MOANA,503,,1970,1,924,2123,Active,,,https://www.redfin.com/HI/Honolulu/410-Atkinson-Dr-96814/unit-2226/home/63824446,HiCentral MLS,202516433,N,Y,21.2901551,-157.8395601
MLS Listing,,Condo/Co-op,1118 Ala Moana Blvd #4,Honolulu,HI,96814,4880000,3,3.5,KAKAAKO,2705,,2016,1,1804,4408,Active,,,https://www.redfin.com/HI/Honolulu/1118-Ala-Moana-Blvd-96814/unit-4/home/91492366,HiCentral MLS,202515120,N,Y,21.2933586,-157.8540211
MLS Listing,,Condo/Co-op,444 Nahua St #903,Honolulu,HI,96815,395000,1,1.0,WAIKIKI,521,23348,1976,1,758,1214,Active,,,https://www.redfin.com/HI/Honolulu/444-Nahua-St-96815/unit-903/home/63988931,HiCentral MLS,202517152,N,Y,21.2801347,-157.8248664
MLS Listing,,Condo/Co-op,1088 Bishop St #2902,Honolulu,HI,96813,440000,1,1.0,DOWNTOWN,616,58370,1984,1,714,1224,Active,,,https://www.redfin.com/HI/Honolulu/1088-Bishop-St-96813/unit-2902/home/63821639,HiCentral MLS,202517097,N,Y,21.3093313,-157.860751
MLS Listing,,Condo/Co-op,1315 Kalakaua Ave #1509,Honolulu,HI,96826,525000,1,1.0,PUNAHOU,524,,2013,1,1002,434,Active,,,https://www.redfin.com/HI/Honolulu/1315-Kalakaua-Ave-96826/unit-1509/home/63768086,HiCentral MLS,202516812,N,Y,21.2984916,-157.8364397
MLS Listing,,Single Family Residential,4504 Kahala Ave,Honolulu,HI,96816,7400000,5,7.0,KAHALA AREA,8325,13500,1993,2,889,,Active,,,https://www.redfin.com/HI/Honolulu/4504-Kahala-Ave-96816/home/63892552,HiCentral MLS,202517126,N,Y,21.2624609,-157.7872592
MLS Listing,,Condo/Co-op,1561 Kanunu St #406,Honolulu,HI,96814,600000,3,2.0,HOLIDAY MART,1345,,1970,2,446,1719,Active,,,https://www.redfin.com/HI/Honolulu/1561-Kanunu-St-96814/unit-406/home/88491647,HiCentral MLS,202516462,N,Y,21.2944782,-157.8398848
MLS Listing,,Condo/Co-op,2015 Ala Wai Blvd Unit 8A,Honolulu,HI,96815,619000,2,1.5,WAIKIKI,1330,10019,1961,2,465,1537,Active,,,https://www.redfin.com/HI/Honolulu/2015-Ala-Wai-Blvd-96815/unit-8A/home/63748525,HiCentral MLS,202516773,N,Y,21.2858137,-157.8308938
MLS Listing,,Condo/Co-op,2100 Date St #103,Honolulu,HI,96826,340000,1,1.0,MOILIILI,531,30928,1980,2,640,839,Active,,,https://www.redfin.com/HI/Honolulu/2100-Date-St-96826/unit-103/home/88506076,HiCentral MLS,202517060,N,Y,21.2916769,-157.8298264
MLS Listing,,Condo/Co-op,1860 Ala Moana Blvd #1606,Honolulu,HI,96815,217000,2,2.0,WAIKIKI,1180,43124,1970,2,184,1797,Active,,,https://www.redfin.com/HI/Honolulu/1860-Ala-Moana-Blvd-96815/unit-1606/home/63796187,HiCentral MLS,202517084,N,Y,21.2854126,-157.8358343
MLS Listing,,Single Family Residential,1143 C 7th Ave,Honolulu,HI,96816,799000,4,2.5,KAIMUKI,1504,4635,1962,2,531,,Active,August-3-2025 02:00 PM,August-3-2025 05:00 PM,https://www.redfin.com/HI/Honolulu/1143C-7th-Ave-96816/home/88516551,HiCentral MLS,202517106,N,Y,21.2847108,-157.8043456
MLS Listing,,Condo/Co-op,594 Mananai Pl Unit 21T,Honolulu,HI,96818,629000,2,2.0,HALAWA,874,117089,1986,2,720,948,Active,August-3-2025 02:00 PM,August-3-2025 05:00 PM,https://www.redfin.com/HI/Honolulu/594-Mananai-Pl-96818/unit-21T/home/63809277,HiCentral MLS,202517109,N,Y,21.369681,-157.9221275
MLS Listing,,Condo/Co-op,1650 Ala Moana Blvd #2005,Honolulu,HI,96815,620000,1,1.0,ALA MOANA,864,,1973,2,718,1562,Active,August-3-2025 02:00 PM,August-3-2025 05:00 PM,https://www.redfin.com/HI/Honolulu/1650-Ala-Moana-Blvd-96815/unit-2005/home/88493095,HiCentral MLS,202517051,N,Y,21.2888066,-157.8401964
MLS Listing,,Condo/Co-op,125-A Maunalua Ave #9,Honolulu,HI,96821,1950000,3,2.5,NAPUA POINT,1771,68999,1980,2,1101,2490,Active,,,https://www.redfin.com/HI/Honolulu/125A-Maunalua-Ave-96821/unit-9/home/88529029,HiCentral MLS,202517062,N,Y,21.284985,-157.719305
MLS Listing,,Condo/Co-op,88 Piikoi St #3009,Honolulu,HI,96814,2000000,2,2.0,KAKAAKO,1413,267981,1999,2,1415,1334,Active,,,https://www.redfin.com/HI/Honolulu/88-Piikoi-St-96814/unit-3009/home/91471175,HiCentral MLS,202517065,N,Y,21.2927813,-157.847431
MLS Listing,,Single Family Residential,7247 Nohili St,Honolulu,HI,96825,1400000,3,2.5,KOKO HEAD TERRACE,1810,5400,1967,2,773,,Active,,,https://www.redfin.com/HI/Honolulu/7247-Nohili-St-96825/home/88530381,HiCentral MLS,202517102,N,Y,21.2770883,-157.7015457
MLS Listing,,Condo/Co-op,1717 Citron St #709,Honolulu,HI,96826,399000,1,1.0,MCCULLY,503,15202,1977,2,793,732,Active,,,https://www.redfin.com/HI/Honolulu/1717-Citron-St-96826/unit-709/home/88492551,HiCentral MLS,202517101,N,Y,21.2934729,-157.8345102
MLS Listing,,Condo/Co-op,1550 Wilder Ave Unit A301,Honolulu,HI,96822,230000,0,1.0,MAKIKI AREA,360,52359,1966,2,639,474,Active,,,https://www.redfin.com/HI/Honolulu/1550-Wilder-Ave-96822/unit-A301/home/63750030,HiCentral MLS,202517094,N,Y,21.3036086,-157.8332145
MLS Listing,,Condo/Co-op,3130 Ala Ilima St Unit 10C,Honolulu,HI,96818,520000,2,2.0,SALT LAKE,904,72615,1981,2,575,870,Active,,,https://www.redfin.com/HI/Honolulu/3130-Ala-Ilima-St-96818/unit-10C/home/88473125,HiCentral MLS,202517034,N,Y,21.3456127,-157.9091656
MLS Listing,,Condo/Co-op,1516 Ward Ave #302,Honolulu,HI,96822,319000,1,1.0,PUNCHBOWL-LOWER,466,16640,1973,2,685,931,Active,,,https://www.redfin.com/HI/Honolulu/1516-Ward-Ave-96822/unit-302/home/63803323,HiCentral MLS,202517052,N,Y,21.3077432,-157.8481063
MLS Listing,,Condo/Co-op,1100 Ala Moana Blvd #3202,Honolulu,HI,96814,3000000,2,2.0,KAKAAKO,1295,,2024,2,2317,1608,Active,,,https://www.redfin.com/HI/Honolulu/1100-Ala-Moana-Blvd-96814/unit-3202/home/179137865,HiCentral MLS,202516994,N,Y,21.2936836,-157.8547411
MLS Listing,,Condo/Co-op,1425 Ward Ave Unit 22E,Honolulu,HI,96822,625000,2,2.0,PUNCHBOWL AREA,1450,,1968,2,431,995,Active,,,https://www.redfin.com/HI/Honolulu/1425-Ward-Ave-96822/unit-22E/home/63750446,HiCentral MLS,202516938,N,Y,21.306484,-157.84792
MLS Listing,,Condo/Co-op,1750 Kalakaua Ave #1303,Honolulu,HI,96826,308000,0,1.0,MCCULLY,330,56672,1978,2,933,548,Active,,,https://www.redfin.com/HI/Honolulu/1750-Kalakaua-Ave-96826/unit-1303/home/63766926,HiCentral MLS,202516967,N,Y,21.2913781,-157.835648
MLS Listing,,Condo/Co-op,1001 Queen St #1400,Honolulu,HI,96814,2165000,3,3.0,KAKAAKO,1334,,2018,2,1623,1737,Active,,,https://www.redfin.com/HI/Honolulu/1001-Queen-St-96814/unit-1400/home/113644374,HiCentral MLS,202516613,N,Y,21.2953666,-157.8530565
MLS Listing,,Condo/Co-op,965 Prospect St #209,Honolulu,HI,96822,205000,2,1.5,PUNCHBOWL AREA,723,,1977,3,284,780,Active,August-3-2025 02:00 PM,August-3-2025 05:00 PM,https://www.redfin.com/HI/Honolulu/965-Prospect-St-96822/unit-209/home/88494473,HiCentral MLS,202516593,N,Y,21.3083975,-157.8456612
MLS Listing,,Single Family Residential,2206 Wilson St,Honolulu,HI,96819,880000,3,1.0,KALIHI-UPPER,1158,5500,1959,3,760,,Active,,,https://www.redfin.com/HI/Honolulu/2206-Wilson-St-96819/home/88477822,HiCentral MLS,202517061,N,Y,21.3470917,-157.8656572
MLS Listing,,Condo/Co-op,1160 Ala Napunani St #806,Honolulu,HI,96818,488000,2,1.5,SALT LAKE,892,66429,1979,3,547,948,Active,,,https://www.redfin.com/HI/Honolulu/1160-Ala-Napunani-St-96818/unit-806/home/88475057,HiCentral MLS,202517057,N,Y,21.349112,-157.9021553
MLS Listing,,Single Family Residential,2153 Booth Rd,Honolulu,HI,96813,2400000,11,5.0,PAUOA VALLEY,4494,8388,1990,3,534,,Active,,,https://www.redfin.com/HI/Honolulu/2153-Booth-Rd-96813/home/88488112,HiCentral MLS,202517059,N,Y,21.3207748,-157.8470817
MLS Listing,,Condo/Co-op,1720 Ala Moana Blvd Unit 408B,Honolulu,HI,96815,90000,1,1.0,WAIKIKI,513,35592,1961,3,175,792,Active,,,https://www.redfin.com/HI/Honolulu/1720-Ala-Moana-Blvd-96815/unit-408B/home/91475089,HiCentral MLS,202516606,N,Y,21.2860301,-157.8386009
MLS Listing,,Condo/Co-op,2045 Kalakaua Ave #1412,Honolulu,HI,96815,455000,0,1.0,WAIKIKI,316,,1971,3,1440,963,Active,,,https://www.redfin.com/HI/Honolulu/2045-Kalakaua-Ave-96815/unit-1412/home/88455812,HiCentral MLS,202517038,N,Y,21.2836597,-157.8322249
MLS Listing,,Condo/Co-op,987 Queen St #2407,Honolulu,HI,96814,669000,1,1.0,KAKAAKO,431,,2021,3,1552,632,Active,,,https://www.redfin.com/HI/Honolulu/987-Queen-St-96814/unit-2407/home/145286970,HiCentral MLS,202517015,N,Y,21.2961139,-157.853282
MLS Listing,,Condo/Co-op,1777 Ala Moana Blvd #2517,Honolulu,HI,96815,680000,1,1.0,WAIKIKI,500,,1965,3,1360,952,Active,,,https://www.redfin.com/HI/Honolulu/1777-Ala-Moana-Blvd-96815/unit-2517/home/64000290,HiCentral MLS,202516934,N,Y,21.2840457,-157.8387358
MLS Listing,,Condo/Co-op,1200 Queen Emma St #812,Honolulu,HI,96813,999000,3,2.0,DOWNTOWN,1292,,2008,3,773,1652,Active,,,https://www.redfin.com/HI/Honolulu/1200-Queen-Emma-St-96813/unit-812/home/63762118,HiCentral MLS,202516907,N,Y,21.3109141,-157.8580119
MLS Listing,,Condo/Co-op,1391 Kapiolani Blvd #2802,Honolulu,HI,96814,750000,1,1.0,ALA MOANA,702,,2021,3,1068,634,Active,,,https://www.redfin.com/HI/Honolulu/1391-Kapiolani-Blvd-96814/unit-2802/home/174904312,HiCentral MLS,202516925,N,Y,21.2935554,-157.8438515
MLS Listing,,Condo/Co-op,2542 Date St #901,Honolulu,HI,96826,375000,2,1.0,KAPIOLANI,594,23784,1981,3,631,875,Active,,,https://www.redfin.com/HI/Honolulu/2542-Date-St-96826/unit-901/home/88508526,HiCentral MLS,202516346,N,Y,21.2867123,-157.8220948
MLS Listing,,Condo/Co-op,1515 Nuuanu Ave #356,Honolulu,HI,96817,349900,2,2.0,DOWNTOWN,749,354186,1963,3,467,1037,Active,,,https://www.redfin.com/HI/Honolulu/1515-Nuuanu-Ave-96817/unit-356/home/63778441,HiCentral MLS,202516230,N,Y,21.3149348,-157.8566525
MLS Listing,,Condo/Co-op,1716 Keeaumoku St #304,Honolulu,HI,96822,464000,2,1.5,MAKIKI AREA,766,17032,1967,3,606,989,Active,,,https://www.redfin.com/HI/Honolulu/1716-Keeaumoku-St-96822/unit-304/home/88496712,HiCentral MLS,202517005,N,Y,21.3065952,-157.8349722
MLS Listing,,Condo/Co-op,"2895 Kalakaua Ave Unit 1403, 1404 & 1405",Honolulu,HI,96815,5795000,3,3.0,DIAMOND HEAD,2372,,1959,3,2443,4356,Active,,,https://www.redfin.com/HI/Honolulu/2895-Kalakaua-Ave-96815/unit-1403/home/63840487,HiCentral MLS,202516952,N,Y,21.2623923,-157.821089
MLS Listing,,Single Family Residential,11 Niuhi St,Honolulu,HI,96821,4675000,4,4.5,WAILUPE AREA,4854,11024,2008,4,963,30,Active,,,https://www.redfin.com/HI/Honolulu/11-Niuhi-St-96821/home/63886968,HiCentral MLS,202516844,N,Y,21.2748718,-157.7559632
MLS Listing,,Condo/Co-op,3009 Ala Makahala Pl #1505,Honolulu,HI,96818,600000,2,1.5,SALT LAKE,794,,2008,4,756,729,Active,,,https://www.redfin.com/HI/Honolulu/3009-Ala-Makahala-Pl-96818/unit-1505/home/88462408,HiCentral MLS,202516949,N,Y,21.3472753,-157.9028531
MLS Listing,,Condo/Co-op,1700 Ala Moana Blvd #2704,Honolulu,HI,96815,295000,0,1.0,WAIKIKI,365,38768,1984,4,808,1000,Active,August-3-2025 02:00 PM,August-3-2025 05:00 PM,https://www.redfin.com/HI/Honolulu/1700-Ala-Moana-Blvd-96815/unit-2704/home/63828849,HiCentral MLS,202516917,N,Y,21.2867805,-157.8390478
MLS Listing,,Condo/Co-op,475 Atkinson Dr #1201,Honolulu,HI,96814,380000,1,1.0,ALA MOANA,587,17860,1979,4,647,1239,Active,,,https://www.redfin.com/HI/Honolulu/475-Atkinson-Dr-96814/unit-1201/home/63758840,HiCentral MLS,202516974,N,Y,21.2898124,-157.8380938
MLS Listing,,Condo/Co-op,1189 Waimanu St #2308,Honolulu,HI,96814,755000,1,1.0,KAKAAKO,659,,2014,4,1146,778,Active,,,https://www.redfin.com/HI/Honolulu/1189-Waimanu-St-96814/unit-2308/home/88469038,HiCentral MLS,202516965,N,Y,21.293548,-157.8481851
MLS Listing,,Condo/Co-op,1837 Kalakaua Ave #1901,Honolulu,HI,96815,1088888,2,2.0,WAIKIKI,1216,,2009,4,895,1379,Active,,,https://www.redfin.com/HI/Honolulu/1837-Kalakaua-Ave-96815/unit-1901/home/63768168,HiCentral MLS,202516921,N,Y,21.2875116,-157.8347631
MLS Listing,,Condo/Co-op,796 Isenberg St Unit 8H,Honolulu,HI,96826,345000,1,1.0,MOILIILI,552,32888,1974,4,625,737,Active,,,https://www.redfin.com/HI/Honolulu/796-Isenberg-St-96826/unit-8H/home/88506353,HiCentral MLS,202516928,N,Y,21.291159,-157.826869
MLS Listing,,Condo/Co-op,1630 Liholiho St #1403,Honolulu,HI,96822,340000,1,1.0,MAKIKI,548,,1973,4,620,1139,Active,,,https://www.redfin.com/HI/Honolulu/1630-Liholiho-St-96822/unit-1403/home/63823859,HiCentral MLS,202516914,N,Y,21.3069587,-157.8381798
MLS Listing,,Condo/Co-op,55 S Kukui St Unit D602,Honolulu,HI,96813,699000,3,2.0,DOWNTOWN,1198,,1976,4,583,1258,Active,August-3-2025 02:00 PM,August-3-2025 05:00 PM,https://www.redfin.com/HI/Honolulu/55-S-Kukui-St-96813/unit-D602/home/88484915,HiCentral MLS,202516960,N,Y,21.3119779,-157.8584598
MLS Listing,,Single Family Residential,2626 Hillside Ave,Honolulu,HI,96822,3888000,8,7.0,MANOA AREA,5749,18340,1911,4,676,,Active,August-3-2025 02:00 PM,August-3-2025 05:00 PM,https://www.redfin.com/HI/Honolulu/2626-Hillside-Ave-96822/home/63899485,HiCentral MLS,202516860,N,Y,21.3090229,-157.8174613
MLS Listing,,Condo/Co-op,2440 Kuhio Ave #2106,Honolulu,HI,96815,700000,3,1.0,WAIKIKI,1037,33803,1974,4,675,2419,Active,,,https://www.redfin.com/HI/Honolulu/2440-Kuhio-Ave-96815/unit-2106/home/91475951,HiCentral MLS,202516945,N,Y,21.2769758,-157.8229577
MLS Listing,,Single Family Residential,1114 Maalaea Rd,Honolulu,HI,96817,1130000,5,3.0,KAMEHAMEHA HEIGHTS,1850,6784,1947,4,611,,Active,August-3-2025 02:00 PM,August-3-2025 05:00 PM,https://www.redfin.com/HI/Honolulu/1114-Maalaea-Rd-96817/home/63974636,HiCentral MLS,202516450,N,Y,21.3321709,-157.8616862
MLS Listing,,Condo/Co-op,1314 Kalakaua Ave #405,Honolulu,HI,96826,225000,2,1.0,MAKIKI AREA,703,51575,1996,4,320,3606,Active,,,https://www.redfin.com/HI/Honolulu/1314-Kalakaua-Ave-96826/unit-405/home/63842147,HiCentral MLS,202516791,N,Y,21.2988647,-157.8372064
MLS Listing,,Condo/Co-op,1655 Makaloa St #404,Honolulu,HI,96814,330000,1,1.0,HOLIDAY MART,484,56105,1970,4,682,640,Active,,,https://www.redfin.com/HI/Honolulu/1655-Makaloa-St-96814/unit-404/home/63792125,HiCentral MLS,202516941,N,Y,21.2922524,-157.8378369
MLS Listing,,Condo/Co-op,55 S Kukui St Unit D2007,Honolulu,HI,96813,349000,1,1.0,DOWNTOWN,615,221459,1976,4,567,584,Active,August-3-2025 02:00 PM,August-3-2025 05:00 PM,https://www.redfin.com/HI/Honolulu/55-S-Kukui-St-96813/unit-D2007/home/88485221,HiCentral MLS,202516932,N,Y,21.3119779,-157.8584598
MLS Listing,,Condo/Co-op,3130 Ala Ilima St Unit 21C,Honolulu,HI,96818,550000,2,2.0,SALT LAKE,904,72615,1981,4,608,870,Active,,,https://www.redfin.com/HI/Honolulu/3130-Ala-Ilima-St-96818/unit-21C/home/63789452,HiCentral MLS,202516553,N,Y,21.3456127,-157.9091656
MLS Listing,,Condo/Co-op,2222 Aloha Dr #602,Honolulu,HI,96815,540000,2,2.0,WAIKIKI,936,9453,1970,4,577,742,Active,,,https://www.redfin.com/HI/Honolulu/2222-Aloha-Dr-96815/unit-602/home/88502448,HiCentral MLS,202516936,N,Y,21.2819424,-157.8269633
MLS Listing,,Condo/Co-op,229 Paoakalani Ave #3705,Honolulu,HI,96815,650000,1,1.0,WAIKIKI,546,,1979,4,1190,1129,Active,,,https://www.redfin.com/HI/Honolulu/229-Paoakalani-Ave-96815/unit-3705/home/88505472,HiCentral MLS,202516924,N,Y,21.2743201,-157.8202324
MLS Listing,,Condo/Co-op,1560 Kanunu St #1402,Honolulu,HI,96814,280000,0,1.0,PAWAA,369,33628,1973,4,759,457,Active,,,https://www.redfin.com/HI/Honolulu/1560-Kanunu-St-96814/unit-1402/home/88491039,HiCentral MLS,202516883,N,Y,21.2948367,-157.8393273
MLS Listing,,Condo/Co-op,1433 Kewalo St #309,Honolulu,HI,96822,690000,3,2.0,MAKIKI AREA,1025,45694,1991,4,673,1242,Active,,,https://www.redfin.com/HI/Honolulu/1433-Kewalo-St-96822/unit-309/home/63987918,HiCentral MLS,202516752,N,Y,21.3032506,-157.8391642
MLS Listing,,Condo/Co-op,728 Ala Moana Blvd #2006,Honolulu,HI,96813,1466640,1,1.5,KAKAAKO,873,104542,2028,4,1680,1091,Active,,,https://www.redfin.com/HI/Honolulu/728-Ala-Moana-Blvd-96813/unit-2006/home/196659214,HiCentral MLS,202516906,N,Y,21.2969443,-157.8607806
MLS Listing,,Condo/Co-op,754 Ekela Ave #904,Honolulu,HI,96816,369888,1,1.0,KAPAHULU,546,,1972,4,677,679,Active,,,https://www.redfin.com/HI/Honolulu/754-Ekela-Ave-96816/unit-904/home/63850776,HiCentral MLS,202516629,N,Y,21.2829954,-157.8159037
MLS Listing,,Single Family Residential,5249 Apo Dr,Honolulu,HI,96821,2100000,4,1.5,AINA HAINA AREA,2364,10170,1952,4,888,,Active,August-1-2025 10:00 AM,August-1-2025 12:00 PM,https://www.redfin.com/HI/Honolulu/5249-APO-Dr-96821/home/88526556,HiCentral MLS,202516576,N,Y,21.2820436,-157.7541702
MLS Listing,,Condo/Co-op,225 Kaiulani Ave #506,Honolulu,HI,96815,425000,1,1.0,WAIKIKI,607,20952,1966,4,700,846,Active,,,https://www.redfin.com/HI/Honolulu/225-Kaiulani-Ave-96815/unit-506/home/63764036,HiCentral MLS,202515935,N,Y,21.2774344,-157.8235789
MLS Listing,,Single Family Residential,1425 Monte Cooke Pl,Honolulu,HI,96817,1279000,4,2.5,KAPALAMA,1643,6430,1954,4,778,,Active,August-2-2025 09:00 AM,August-2-2025 11:00 AM,https://www.redfin.com/HI/Honolulu/1425-Monte-Cooke-Pl-96817/home/63971740,HiCentral MLS,202516774,N,Y,21.3324612,-157.8672946
MLS Listing,,Condo/Co-op,1925 Kalakaua Ave #1004,Honolulu,HI,96815,409000,1,1.0,WAIKIKI,548,24655,1975,4,746,1050,Active,August-3-2025 02:00 PM,August-3-2025 05:00 PM,https://www.redfin.com/HI/Honolulu/1925-Kalakaua-Ave-96815/unit-1004/home/63755606,HiCentral MLS,202516535,N,Y,21.286212,-157.8335025
MLS Listing,,Condo/Co-op,2547 Ala Wai Blvd #1001,Honolulu,HI,96815,1150000,3,2.0,WAIKIKI,2012,6534,1969,4,572,1788,Active,,,https://www.redfin.com/HI/Honolulu/2547-Ala-Wai-Blvd-96815/unit-1001/home/63790685,HiCentral MLS,202516908,N,Y,21.2759135,-157.8195687
MLS Listing,,Condo/Co-op,486 Kawaihae St Unit C,Honolulu,HI,96825,850000,3,2.5,WEST MARINA,1479,229431,1973,4,575,946,Active,,,https://www.redfin.com/HI/Honolulu/486-Kawaihae-St-96825/unit-C/home/63759723,HiCentral MLS,202516922,N,Y,21.290841,-157.714852
MLS Listing,,Condo/Co-op,1911 Kalakaua Ave #608,Honolulu,HI,96815,428000,1,1.0,WAIKIKI,437,11064,1966,4,979,955,Active,August-3-2025 02:00 PM,August-3-2025 05:00 PM,https://www.redfin.com/HI/Honolulu/1911-Kalakaua-Ave-96815/unit-608/home/63750814,HiCentral MLS,202516813,N,Y,21.2865775,-157.8337385
MLS Listing,,Condo/Co-op,1388 Ala Moana Blvd #6504,Honolulu,HI,96814,12650000,4,3.5,ALA MOANA,4060,,2016,5,3116,7745,Active,,,https://www.redfin.com/HI/Honolulu/1388-Ala-Moana-Blvd-96814/unit-6504/home/113643971,HiCentral MLS,202516904,N,Y,21.2915361,-157.8473719
MLS Listing,,Multi-Family (5+ Unit),1223 Wilder Ave,Honolulu,HI,96822,2800000,,,MAKIKI AREA,3147,5723,1920,5,890,,Active,,,https://www.redfin.com/HI/Honolulu/1223-Wilder-Ave-96822/home/88495753,HiCentral MLS,202516779,N,Y,21.3058681,-157.838978
MLS Listing,,Condo/Co-op,1425 Liliha St Unit 7G,Honolulu,HI,96817,385000,2,1.0,LILIHA,686,93610,1975,6,561,680,Active,,,https://www.redfin.com/HI/Honolulu/1425-Liliha-St-96817/unit-7G/home/88481896,HiCentral MLS,202516888,N,Y,21.3197173,-157.8609839
MLS Listing,,Condo/Co-op,600 Ala Moana Blvd #1101,Honolulu,HI,96813,1228000,3,2.0,KAKAAKO,1133,,2016,6,1084,1180,Active,,,https://www.redfin.com/HI/Honolulu/600-Ala-Moana-Blvd-96813/unit-1101/home/91485769,HiCentral MLS,202516828,N,Y,21.2988196,-157.8618261
MLS Listing,,Single Family Residential,1934 Pauoa Rd,Honolulu,HI,96813,1175000,6,3.0,NUUANU-LOWER,1456,5881,1921,7,807,,Active,,,https://www.redfin.com/HI/Honolulu/1934-Pauoa-Rd-96813/home/88487888,HiCentral MLS,202516857,N,Y,21.3204716,-157.8512733
MLS Listing,,Condo/Co-op,1323 Makiki St Unit 307A,Honolulu,HI,96814,315000,2,1.0,MAKIKI AREA,841,49223,1971,7,375,947,Active,,,https://www.redfin.com/HI/Honolulu/1323-Makiki-St-96814/unit-307A/home/195278592,HiCentral MLS,202516287,N,Y,21.3009416,-157.837115
MLS Listing,,Single Family Residential,1205 Lunalilo Home Rd,Honolulu,HI,96825,1375000,4,2.0,KAMILOIKI,1395,8000,1980,7,986,,Active,August-3-2025 02:00 PM,August-3-2025 05:00 PM,https://www.redfin.com/HI/Honolulu/1205-Lunalilo-Home-Rd-96825/home/63984611,HiCentral MLS,202511575,N,Y,21.3100151,-157.6831508
MLS Listing,,Condo/Co-op,7000 Hawaii Kai Dr #3115,Honolulu,HI,96825,799000,3,2.0,WEST MARINA,1024,,2016,7,780,814,Active,,,https://www.redfin.com/HI/Honolulu/7000-Hawaii-Kai-Dr-96825/unit-3115/home/172586144,HiCentral MLS,202516751,N,Y,21.2873641,-157.7048215
MLS Listing,,Single Family Residential,280 Kuliouou Rd,Honolulu,HI,96821,1990000,6,3.0,KULIOUOU,2790,10000,2003,7,713,,Active,August-3-2025 02:00 PM,August-3-2025 05:00 PM,https://www.redfin.com/HI/Honolulu/280-Kuliouou-Rd-96821/home/88528472,HiCentral MLS,202512519,N,Y,21.2885681,-157.7236416
MLS Listing,,Condo/Co-op,440 Seaside Ave #407,Honolulu,HI,96815,275000,0,1.0,WAIKIKI,309,23435,1980,7,890,509,Active,August-3-2025 02:00 PM,August-3-2025 05:00 PM,https://www.redfin.com/HI/Honolulu/440-Seaside-Ave-96815/unit-407/home/63826595,HiCentral MLS,202516633,N,Y,21.2813998,-157.8263303
MLS Listing,,Condo/Co-op,888 Kapiolani Blvd #1512,Honolulu,HI,96813,749000,1,1.0,KAKAAKO,672,,2016,7,1115,803,Active,,,https://www.redfin.com/HI/Honolulu/888-Kapiolani-Blvd-96813/unit-1512/home/63988642,HiCentral MLS,202516836,N,Y,21.3000354,-157.8526035
MLS Listing,,Condo/Co-op,469 Ena Rd #1406,Honolulu,HI,96815,650000,1,1.0,WAIKIKI,725,113169,1971,7,897,629,Active,,,https://www.redfin.com/HI/Honolulu/469-Ena-Rd-96815/unit-1406/home/91480650,HiCentral MLS,202516436,N,Y,21.2869026,-157.8344475
MLS Listing,,Single Family Residential,255/257 Portlock Rd,Honolulu,HI,96825,16750000,6,7.5,PORTLOCK,7150,26836,2011,7,2343,,Active,,,https://www.redfin.com/HI/Honolulu/255-Portlock-Rd-96825/home/63892761,HiCentral MLS,202516742,N,Y,21.2777358,-157.708438
MLS Listing,,Condo/Co-op,521 Pepeekeo St Unit 16A,Honolulu,HI,96825,749000,3,2.0,HAHAIONE-LOWER,1305,191533,1969,7,574,1566,Active,August-3-2025 01:00 PM,August-3-2025 04:00 PM,https://www.redfin.com/HI/Honolulu/521-Pepeekeo-St-96825/unit-16A/home/196374470,HiCentral MLS,202516492,N,Y,21.2940196,-157.7105788
MLS Listing,,Condo/Co-op,5210 Likini St #1401,Honolulu,HI,96818,475000,3,1.5,SALT LAKE,816,,1980,7,582,910,Active,August-3-2025 02:00 PM,August-3-2025 05:00 PM,https://www.redfin.com/HI/Honolulu/5210-Likini-St-96818/unit-1401/home/88473114,HiCentral MLS,202513533,N,Y,21.3453074,-157.9084195
MLS Listing,,Condo/Co-op,700 Richards St #1602,Honolulu,HI,96813,449000,1,1.0,DOWNTOWN,773,67910,1971,7,581,1346,Active,August-5-2025 10:00 AM,August-5-2025 01:30 PM,https://www.redfin.com/HI/Honolulu/700-Richards-St-96813/unit-1602/home/88485410,HiCentral MLS,202516737,N,Y,21.30618,-157.86235
MLS Listing,,Single Family Residential,1244 Mokuhano St,Honolulu,HI,96825,1495000,4,2.0,KALAMA VALLEY,1566,8184,1974,7,955,,Active,August-3-2025 02:00 PM,August-3-2025 05:00 PM,https://www.redfin.com/HI/Honolulu/1244-Mokuhano-St-96825/home/63865056,HiCentral MLS,202516790,N,Y,21.2969099,-157.6686679
MLS Listing,,Condo/Co-op,1535 Pensacola St #906,Honolulu,HI,96822,320000,1,1.0,MAKIKI AREA,493,,1967,7,649,611,Active,,,https://www.redfin.com/HI/Honolulu/1535-Pensacola-St-96822/unit-906/home/63791715,HiCentral MLS,202516679,N,Y,21.3060703,-157.8415628
MLS Listing,,Condo/Co-op,410 Atkinson Dr #3315,Honolulu,HI,96814,548999,1,1.0,ALA MOANA,534,,1970,7,1028,2123,Active,,,https://www.redfin.com/HI/Honolulu/410-Atkinson-Dr-96814/unit-3315/home/63752316,HiCentral MLS,202516814,N,Y,21.2901551,-157.8395601
MLS Listing,,Single Family Residential,4509 Luaole St,Honolulu,HI,96818,1370000,6,3.5,HALAWA,2814,5018,1985,7,487,,Active,August-3-2025 02:00 PM,August-3-2025 05:00 PM,https://www.redfin.com/HI/Honolulu/4509-Luaole-St-96818/home/91470589,HiCentral MLS,202515544,N,Y,21.3637345,-157.928633
MLS Listing,,Condo/Co-op,1555 Kapiolani Blvd #900,Honolulu,HI,96814,2550000,3,3.0,ALA MOANA,1800,,2014,7,1417,3020,Active,,,https://www.redfin.com/HI/Honolulu/1555-Kapiolani-Blvd-96814/unit-900/home/63747437,HiCentral MLS,202516697,N,Y,21.2919938,-157.8414381
MLS Listing,,Condo/Co-op,343 Hobron Ln #2603,Honolulu,HI,96815,1075000,2,2.5,WAIKIKI,1315,,1986,8,817,1908,Active,,,https://www.redfin.com/HI/Honolulu/343-Hobron-Ln-96815/unit-2603/home/63757175,HiCentral MLS,202516757,N,Y,21.2860232,-157.8373829
MLS Listing,,Condo/Co-op,235 Liliuokalani Ave #133,Honolulu,HI,96815,137500,0,1.0,WAIKIKI,323,13547,1960,8,426,565,Active,,,https://www.redfin.com/HI/Honolulu/235-Liliuokalani-Ave-96815/unit-133/home/88504927,HiCentral MLS,202516759,N,Y,21.2760347,-157.8213268
MLS Listing,,Condo/Co-op,235 Liliuokalani Ave #131,Honolulu,HI,96815,137500,0,1.0,WAIKIKI,323,13547,1960,8,426,565,Active,,,https://www.redfin.com/HI/Honolulu/235-Liliuokalani-Ave-96815/unit-131/home/88504929,HiCentral MLS,202516738,N,Y,21.2760347,-157.8213268
MLS Listing,,Single Family Residential,471 Maono Loop,Honolulu,HI,96821,3385000,3,3.0,HAWAII LOA RIDGE,3583,13632,1987,8,945,403,Active,August-3-2025 02:00 PM,August-3-2025 05:00 PM,https://www.redfin.com/HI/Honolulu/471-Maono-Loop-96821/home/88528101,HiCentral MLS,202516505,N,Y,21.2844325,-157.7442273
MLS Listing,,Condo/Co-op,909 Kapiolani Blvd #903,Honolulu,HI,96814,695000,2,2.0,KAKAAKO,850,,2007,8,818,1250,Active,,,https://www.redfin.com/HI/Honolulu/909-Kapiolani-Blvd-96814/unit-903/home/91471782,HiCentral MLS,202516783,N,Y,21.2981193,-157.8526006
MLS Listing,,Condo/Co-op,988 Halekauwila St #3305,Honolulu,HI,96814,670000,2,2.0,KAKAAKO,744,51768,2017,8,901,1075,Active,,,https://www.redfin.com/HI/Honolulu/988-Halekauwila-St-96814/unit-3305/home/113646086,HiCentral MLS,202513622,N,Y,21.2972515,-157.8555479
MLS Listing,,Single Family Residential,1131 Banyan St Unit B,Honolulu,HI,96817,1250000,6,3.0,PALAMA,2176,7087,1950,8,574,,Active,,,https://www.redfin.com/HI/Honolulu/1131-Banyan-St-96817/unit-B/home/196597806,HiCentral MLS,202516788,N,Y,21.3220039,-157.8649285
MLS Listing,,Condo/Co-op,3130 Ala Ilima St Unit 21D,Honolulu,HI,96818,570000,2,2.0,SALT LAKE,904,72615,1981,8,631,870,Active,,,https://www.redfin.com/HI/Honolulu/3130-Ala-Ilima-St-96818/unit-21D/home/63792939,HiCentral MLS,202516781,N,Y,21.3456127,-157.9091656
MLS Listing,,Condo/Co-op,60 N Beretania St #410,Honolulu,HI,96817,400000,2,2.0,CHINATOWN,1064,74488,1982,8,376,1541,Active,,,https://www.redfin.com/HI/Honolulu/60-N-Beretania-St-96817/unit-410/home/88481321,HiCentral MLS,202516573,N,Y,21.3133189,-157.8606383
MLS Listing,,Condo/Co-op,1735 Dole St #106,Honolulu,HI,96822,325000,1,1.0,PUNAHOU,629,19994,1960,8,517,641,Active,,,https://www.redfin.com/HI/Honolulu/1735-Dole-St-96822/unit-106/home/88509901,HiCentral MLS,202516222,N,Y,21.3002335,-157.8310359
MLS Listing,,Condo/Co-op,1088 Bishop St #2610,Honolulu,HI,96813,385000,1,1.0,DOWNTOWN,650,58370,1984,8,592,1292,Active,,,https://www.redfin.com/HI/Honolulu/1088-Bishop-St-96813/unit-2610/home/63786772,HiCentral MLS,202516608,N,Y,21.3093313,-157.860751
MLS Listing,,Condo/Co-op,415 South St #2902,Honolulu,HI,96813,695000,1,1.0,KAKAAKO,804,106548,1989,8,864,1673,Active,August-2-2025 12:00 PM,August-2-2025 03:00 PM,https://www.redfin.com/HI/Honolulu/415-South-St-96813/unit-2902/home/63765003,HiCentral MLS,202516131,N,Y,21.3000217,-157.8620281
MLS Listing,,Condo/Co-op,2345 Ala Wai Blvd #2201,Honolulu,HI,96815,590000,2,2.0,WAIKIKI,723,37810,1974,8,816,1194,Active,,,https://www.redfin.com/HI/Honolulu/2345-Ala-Wai-Blvd-96815/unit-2201/home/88502738,HiCentral MLS,202516598,N,Y,21.279881,-157.8241445
MLS Listing,,Condo/Co-op,987 Queen St #2906,Honolulu,HI,96814,565000,0,1.0,KAKAAKO,367,,2019,8,1540,543,Active,,,https://www.redfin.com/HI/Honolulu/987-Queen-St-96814/unit-2906/home/145287068,HiCentral MLS,202516710,N,Y,21.2961139,-157.853282
MLS Listing,,Condo/Co-op,1255 Nuuanu Ave Unit E2410,Honolulu,HI,96817,420000,1,1.0,DOWNTOWN,615,,1976,8,683,584,Active,August-3-2025 02:00 PM,August-3-2025 05:00 PM,https://www.redfin.com/HI/Honolulu/1255-Nuuanu-Ave-96817/unit-E2410/home/63750281,HiCentral MLS,202516164,N,Y,21.312267,-157.8594231
MLS Listing,,Condo/Co-op,2029 Ala Wai Blvd #704,Honolulu,HI,96815,560000,2,2.0,WAIKIKI,896,,1971,8,625,1376,Active,August-3-2025 02:00 PM,August-3-2025 05:00 PM,https://www.redfin.com/HI/Honolulu/2029-Ala-Wai-Blvd-96815/unit-704/home/63819023,HiCentral MLS,202516459,N,Y,21.2854087,-157.8305577
MLS Listing,,Single Family Residential,3901 Maunahilu Pl,Honolulu,HI,96816,1269500,4,4.0,WILHELMINA,1232,6023,1958,8,1030,40,Active,,,https://www.redfin.com/HI/Honolulu/3901-Maunahilu-Pl-96816/home/63934724,HiCentral MLS,202516728,N,Y,21.2899373,-157.7896111
MLS Listing,,Condo/Co-op,909 Ala Lilikoi St #312,Honolulu,HI,96818,299000,2,1.0,SALT LAKE,758,758,1975,8,394,966,Active,August-3-2025 01:00 PM,August-3-2025 04:00 PM,https://www.redfin.com/HI/Honolulu/909-Ala-Lilikoi-St-96818/unit-312/home/88473691,HiCentral MLS,202515771,N,Y,21.3462262,-157.9123607
MLS Listing,,Single Family Residential,1848 Puowaina Dr,Honolulu,HI,96813,1500000,6,4.0,PUNCHBOWL AREA,2626,6597,1940,8,571,,Active,,,https://www.redfin.com/HI/Honolulu/1848-Puowaina-Dr-96813/home/63972285,HiCentral MLS,202516684,N,Y,21.3167068,-157.848572
MLS Listing,,Condo/Co-op,1551 Ala Wai Blvd #1605,Honolulu,HI,96815,1255000,2,2.0,WAIKIKI,1081,,2008,9,1161,1783,Active,,,https://www.redfin.com/HI/Honolulu/1551-Ala-Wai-Blvd-96815/unit-1605/home/63756832,HiCentral MLS,202516704,N,Y,21.2875788,-157.8386869
MLS Listing,,Single Family Residential,521 Lawelawe St,Honolulu,HI,96821,1650000,4,2.5,AINA HAINA AREA,1646,7500,1965,9,1002,,Active,August-3-2025 02:30 PM,August-3-2025 05:00 PM,https://www.redfin.com/HI/Honolulu/521-Lawelawe-St-96821/home/63857580,HiCentral MLS,202514816,N,Y,21.2859164,-157.7516088
MLS Listing,,Condo/Co-op,1212 Nuuanu Ave #3403,Honolulu,HI,96817,645000,2,2.0,CHINATOWN,905,72702,1989,9,713,1231,Active,August-3-2025 02:00 PM,August-3-2025 05:00 PM,https://www.redfin.com/HI/Honolulu/1212-Nuuanu-Ave-96817/unit-3403/home/63797842,HiCentral MLS,202516135,N,Y,21.3127662,-157.860099
MLS Listing,,Condo/Co-op,419-A Atkinson Dr #806,Honolulu,HI,96814,290000,2,1.0,ALA MOANA,792,,1959,9,366,864,Active,August-3-2025 02:00 PM,August-3-2025 05:00 PM,https://www.redfin.com/HI/Honolulu/419A-Atkinson-Dr-96814/unit-806/home/91474330,HiCentral MLS,202516686,N,Y,21.2887786,-157.8390674
MLS Listing,,Single Family Residential,815 Lopez Ln,Honolulu,HI,96817,2988000,12,12.0,KAPALAMA,5808,5757,1916,9,514,,Active,,,https://www.redfin.com/HI/Honolulu/815-Lopez-Ln-96817/home/63913042,HiCentral MLS,202516689,N,Y,21.3232886,-157.8666775
MLS Listing,,Single Family Residential,,Honolulu,HI,96825,18500000,5,5.5,,7021,27991,2006,9,2635,,Active,,,https://www.redfin.com/HI/Honolulu/Undisclosed-address-96825/home/196562412,HiCentral MLS,202515762,N,Y,21.2962334,-157.7019881
MLS Listing,,Condo/Co-op,1260 Richard Ln #406,Honolulu,HI,96819,320000,2,1.0,KALIHI-LOWER,643,87991,1978,9,498,720,Active,,,https://www.redfin.com/HI/Honolulu/1260-Richard-Ln-96819/unit-406/home/91479982,HiCentral MLS,202516705,N,Y,21.336655,-157.8767057
MLS Listing,,Single Family Residential,2296 Waiomao Rd,Honolulu,HI,96816,500000,3,4.0,PALOLO,3836,5000,1951,9,130,,Active,,,https://www.redfin.com/HI/Honolulu/2296-Waiomao-Rd-96816/home/63940354,HiCentral MLS,202516701,N,Y,21.3017346,-157.7876551
MLS Listing,,Single Family Residential,440 Maono Loop,Honolulu,HI,96821,2788888,3,3.0,HAWAII LOA RIDGE,3444,8655,1982,9,810,402,Active,,,https://www.redfin.com/HI/Honolulu/440-Maono-Loop-96821/home/88528109,HiCentral MLS,202515912,N,Y,21.2846554,-157.7450423
MLS Listing,,Condo/Co-op,217 Prospect St Unit M8,Honolulu,HI,96813,999000,2,2.0,PUNCHBOWL AREA,1438,102540,1980,9,695,2278,Active,,,https://www.redfin.com/HI/Honolulu/217-Prospect-St-96813/unit-M8/home/63773088,HiCentral MLS,202516330,N,Y,21.3135726,-157.850924
MLS Listing,,Condo/Co-op,3075 Ala Poha Pl #2010,Honolulu,HI,96818,625000,2,2.0,SALT LAKE,823,84245,1996,9,759,1038,Active,,,https://www.redfin.com/HI/Honolulu/3075-Ala-Poha-Pl-96818/unit-2010/home/63799704,HiCentral MLS,202516493,N,Y,21.3483559,-157.9038319
MLS Listing,,Single Family Residential,718 21st Ave,Honolulu,HI,96816,1600000,6,3.5,KAIMUKI,2336,7500,1977,9,685,,Active,August-3-2025 02:00 PM,August-3-2025 05:00 PM,https://www.redfin.com/HI/Honolulu/718-21st-Ave-96816/home/88518178,HiCentral MLS,202515788,N,Y,21.2706875,-157.7941051
MLS Listing,,Condo/Co-op,435 Seaside Ave #709,Honolulu,HI,96815,368000,1,1.0,WAIKIKI,732,27269,1962,9,503,895,Active,,,https://www.redfin.com/HI/Honolulu/435-Seaside-Ave-96815/unit-709/home/63749110,HiCentral MLS,202516644,N,Y,21.2805783,-157.8260074
MLS Listing,,Single Family Residential,621 22nd Ave,Honolulu,HI,96816,1310000,3,2.0,KAHALA-PUUPANINI,1024,5000,1933,9,1279,,Active,,,https://www.redfin.com/HI/Honolulu/621-22nd-Ave-96816/home/88518819,HiCentral MLS,202516546,N,Y,21.268004,-157.7940776
MLS Listing,,Condo/Co-op,425 South St #1202,Honolulu,HI,96813,600000,1,1.0,KAKAAKO,804,,1989,9,746,1504,Active,August-3-2025 02:00 PM,August-3-2025 05:00 PM,https://www.redfin.com/HI/Honolulu/425-South-St-96813/unit-1202/home/88486967,HiCentral MLS,202516329,N,Y,21.300197,-157.8613691
MLS Listing,,Condo/Co-op,1555 Kapiolani Blvd Ph 2110,Honolulu,HI,96814,1050000,1,1.0,ALA MOANA,761,,2014,9,1380,1286,Active,,,https://www.redfin.com/HI/Honolulu/1555-Kapiolani-Blvd-96814/unit-2110/home/64000409,HiCentral MLS,202516409,N,Y,21.2919938,-157.8414381
MLS Listing,,Condo/Co-op,2345 Ala Wai Blvd #1015,Honolulu,HI,96815,305000,0,1.0,WAIKIKI,364,37810,1974,9,838,745,Active,,,https://www.redfin.com/HI/Honolulu/2345-Ala-Wai-Blvd-96815/unit-1015/home/88502897,HiCentral MLS,202516144,N,Y,21.279881,-157.8241445
MLS Listing,,Condo/Co-op,824 Kinau St #1103,Honolulu,HI,96813,270000,0,1.0,PUNCHBOWL-LOWER,428,18731,1974,10,631,560,Active,,,https://www.redfin.com/HI/Honolulu/824-Kinau-St-96813/unit-1103/home/63805974,HiCentral MLS,202516677,N,Y,21.3051846,-157.8492008
MLS Listing,,Condo/Co-op,2740 Kuilei St #2107,Honolulu,HI,96826,375000,1,1.0,MOILIILI,541,30318,1975,10,693,866,Active,,,https://www.redfin.com/HI/Honolulu/2740-Kuilei-St-96826/unit-2107/home/63774366,HiCentral MLS,202516656,N,Y,21.2893682,-157.8205067
MLS Listing,,Single Family Residential,1017 2nd Ave,Honolulu,HI,96816,1080000,3,1.0,KAIMUKI,948,4500,1943,10,1139,,Active,August-2-2025 02:00 PM,August-2-2025 05:00 PM,https://www.redfin.com/HI/Honolulu/1017-2nd-Ave-96816/home/63934459,HiCentral MLS,202516610,N,Y,21.2859403,-157.8117737
MLS Listing,,Condo/Co-op,720 Kapiolani Blvd #303,Honolulu,HI,96813,1250000,2,2.0,KAKAAKO,1066,4719,2009,10,1173,1273,Active,,,https://www.redfin.com/HI/Honolulu/720-Kapiolani-Blvd-96813/unit-303/home/63753840,HiCentral MLS,202516635,N,Y,21.301522,-157.8541143
MLS Listing,,Condo/Co-op,454 Namahana St #501,Honolulu,HI,96815,65000,1,1.0,WAIKIKI,512,,1967,10,127,1317,Active,,,https://www.redfin.com/HI/Honolulu/454-Namahana-St-96815/unit-501/home/63746290,HiCentral MLS,202516547,N,Y,21.2852753,-157.8302284
MLS Listing,,Single Family Residential,187 Dowsett Ave,Honolulu,HI,96817,8300000,1,1.0,DOWSETT,610,162217,1925,10,13607,,Active,,,https://www.redfin.com/HI/Honolulu/187-Dowsett-Ave-96817/home/63749095,HiCentral MLS,202516253,N,Y,21.3378014,-157.8325509
MLS Listing,,Condo/Co-op,610 Ala Moana Blvd Unit M311,Honolulu,HI,96813,515000,0,1.0,KAKAAKO,475,,2016,10,1084,776,Active,,,https://www.redfin.com/HI/Honolulu/610-Ala-Moana-Blvd-96813/unit-M311/home/91492192,HiCentral MLS,202516653,N,Y,21.2986165,-157.8622553
MLS Listing,,Condo/Co-op,2161 Kalia Rd #308,Honolulu,HI,96815,1500000,1,1.0,WAIKIKI,706,26397,1960,10,2125,739,Active,,,https://www.redfin.com/HI/Honolulu/2161-Kalia-Rd-96815/unit-308/home/88498646,HiCentral MLS,202516618,N,Y,21.2788798,-157.8326217
MLS Listing,,Condo/Co-op,223 Saratoga Rd #1203,Honolulu,HI,96815,1500000,2,2.0,WAIKIKI,1139,,2009,10,1317,2166,Active,,,https://www.redfin.com/HI/Honolulu/223-Saratoga-Rd-96815/unit-1203/home/88460501,HiCentral MLS,202516114,N,Y,21.2793863,-157.8320619
MLS Listing,,Condo/Co-op,1212 Nuuanu Ave #1309,Honolulu,HI,96817,615000,2,2.0,CHINATOWN,905,,1989,10,680,1231,Active,August-3-2025 02:00 PM,August-3-2025 05:00 PM,https://www.redfin.com/HI/Honolulu/1212-Nuuanu-Ave-96817/unit-1309/home/88481063,HiCentral MLS,202515968,N,Y,21.3127662,-157.860099
MLS Listing,,Single Family Residential,532 Portlock Rd,Honolulu,HI,96825,4700000,4,4.5,PORTLOCK,3798,20637,1972,10,1237,,Active,,,https://www.redfin.com/HI/Honolulu/532-Portlock-Rd-96825/home/63899157,HiCentral MLS,202516592,N,Y,21.2674488,-157.7079392
MLS Listing,,Condo/Co-op,4300 Waialae Ave Unit B1205,Honolulu,HI,96816,720000,3,2.0,WAIALAE NUI VLY,1368,117002,1968,10,526,1204,Active,,,https://www.redfin.com/HI/Honolulu/4300-Waialae-Ave-96816/unit-B1205/home/88523676,HiCentral MLS,202516511,N,Y,21.2793035,-157.7851635
MLS Listing,,Condo/Co-op,1635 Dole St #1401,Honolulu,HI,96822,424900,2,1.5,PUNAHOU,719,8973,1970,10,591,750,Active,,,https://www.redfin.com/HI/Honolulu/1635-Dole-St-96822/unit-1401/home/88510102,HiCentral MLS,202516616,N,Y,21.3010472,-157.8324196
MLS Listing,,Condo/Co-op,1610 Kanunu St #1207,Honolulu,HI,96814,443900,2,1.0,PAWAA,795,20996,1966,10,558,1080,Active,,,https://www.redfin.com/HI/Honolulu/1610-Kanunu-St-96814/unit-1207/home/63779492,HiCentral MLS,202516438,N,Y,21.2945835,-157.8387684
MLS Listing,,Single Family Residential,1142 Kamaile St,Honolulu,HI,96814,1880000,6,2.0,KAKAAKO,1650,5485,1941,10,1139,,Active,,,https://www.redfin.com/HI/Honolulu/1142-Kamaile-St-96814/home/88490593,HiCentral MLS,202515500,N,Y,21.2966103,-157.8459639
MLS Listing,,Condo/Co-op,411 Hobron Ln #3705,Honolulu,HI,96815,465000,1,1.0,WAIKIKI,552,70611,1974,10,842,1029,Active,,,https://www.redfin.com/HI/Honolulu/411-Hobron-Ln-96815/unit-3705/home/88500274,HiCentral MLS,202516510,N,Y,21.2865092,-157.8364397
MLS Listing,,Condo/Co-op,444 Niu St #3804,Honolulu,HI,96815,599000,1,2.0,WAIKIKI,472,38463,1979,10,1269,1027,Active,,,https://www.redfin.com/HI/Honolulu/444-Niu-St-96815/unit-3804/home/79928414,HiCentral MLS,202516589,N,Y,21.2869649,-157.8327139
MLS Listing,,Condo/Co-op,444 Niu St #2409,Honolulu,HI,96815,349000,0,1.0,WAIKIKI,259,38463,1979,10,1347,523,Active,,,https://www.redfin.com/HI/Honolulu/444-Niu-St-96815/unit-2409/home/88500926,HiCentral MLS,202516584,N,Y,21.2869649,-157.8327139
MLS Listing,,Condo/Co-op,1925 Kalakaua Ave #1902,Honolulu,HI,96815,445000,1,1.0,WAIKIKI,546,24655,1975,11,815,1050,Active,,,https://www.redfin.com/HI/Honolulu/1925-Kalakaua-Ave-96815/unit-1902/home/88498950,HiCentral MLS,202516349,N,Y,21.286212,-157.8335025
MLS Listing,,Condo/Co-op,1388 Ala Moana Blvd #5301,Honolulu,HI,96814,6500000,3,3.0,ALA MOANA,2114,,2016,11,3075,4620,Active,,,https://www.redfin.com/HI/Honolulu/1388-Ala-Moana-Blvd-96814/unit-5301/home/113643608,HiCentral MLS,202516541,N,Y,21.2915361,-157.8473719
MLS Listing,,Condo/Co-op,620 Sheridan St #404,Honolulu,HI,96814,139900,1,1.0,ALA MOANA,481,9496,1980,11,291,780,Active,,,https://www.redfin.com/HI/Honolulu/620-Sheridan-St-96814/unit-404/home/63783973,HiCentral MLS,202516534,N,Y,21.2950162,-157.8452653
MLS Listing,,Condo/Co-op,1415 Punahou St #502,Honolulu,HI,96822,420000,2,1.0,PUNAHOU,744,,1974,11,565,918,Active,,,https://www.redfin.com/HI/Honolulu/1415-Punahou-St-96822/unit-502/home/87429633,HiCentral MLS,202516401,N,Y,21.3009689,-157.8334184
MLS Listing,,Condo/Co-op,1777 Ala Moana Blvd #516,Honolulu,HI,96815,799000,1,1.0,WAIKIKI,500,125279,1965,11,1598,952,Active,,,https://www.redfin.com/HI/Honolulu/1777-Ala-Moana-Blvd-96815/unit-516/home/88499561,HiCentral MLS,202516336,N,Y,21.2840457,-157.8387358
MLS Listing,,Condo/Co-op,555 University Ave #3207,Honolulu,HI,96826,448888,1,1.0,KAPIOLANI,684,,1971,11,656,779,Active,,,https://www.redfin.com/HI/Honolulu/555-University-Ave-96826/unit-3207/home/88507102,HiCentral MLS,202512486,N,Y,21.286474,-157.8265835
MLS Listing,,Condo/Co-op,6770 Hawaii Kai Dr #402,Honolulu,HI,96825,495000,2,2.0,HAHAIONE-LOWER,1626,125583,1974,11,304,2771,Active,,,https://www.redfin.com/HI/Honolulu/6770-Hawaii-Kai-Dr-96825/unit-402/home/63749117,HiCentral MLS,202515759,N,Y,21.2915357,-157.7071574
MLS Listing,,Condo/Co-op,445 Kaiolu St #704,Honolulu,HI,96815,379000,1,1.0,WAIKIKI,456,,1955,11,831,1229,Active,August-3-2025 03:00 PM,August-3-2025 05:00 PM,https://www.redfin.com/HI/Honolulu/445-Kaiolu-St-96815/unit-704/home/91475701,HiCentral MLS,202516044,N,Y,21.2829043,-157.8280153
MLS Listing,,Condo/Co-op,1777 Ala Moana Blvd #207,Honolulu,HI,96815,565000,0,1.0,WAIKIKI,448,,1965,11,1261,953,Active,,,https://www.redfin.com/HI/Honolulu/1777-Ala-Moana-Blvd-96815/unit-207/home/113646003,HiCentral MLS,202516558,N,Y,21.2840457,-157.8387358
MLS Listing,,Condo/Co-op,819 Ala Lilikoi St #8193,Honolulu,HI,96818,425000,2,1.5,SALT LAKE,897,172759,1969,11,474,781,Active,,,https://www.redfin.com/HI/Honolulu/819-Ala-Lilikoi-St-96818/unit-8193/home/63784440,HiCentral MLS,202516494,N,Y,21.3447321,-157.9124961
MLS Listing,,Single Family Residential,5245 Kalanianaole Hwy,Honolulu,HI,96821,7500000,4,4.5,AINA HAINA BEACH,5127,19943,2006,11,1463,,Active,,,https://www.redfin.com/HI/Honolulu/5245-Kalanianaole-Hwy-96821/home/63985399,HiCentral MLS,202516516,N,Y,21.277013,-157.752373
MLS Listing,,Condo/Co-op,1422 Heulu St Unit A204,Honolulu,HI,96822,379900,2,1.0,MAKIKI AREA,588,19994,1987,11,646,503,Active,,,https://www.redfin.com/HI/Honolulu/1422-Heulu-St-96822/unit-A204/home/63750893,HiCentral MLS,202516527,N,Y,21.3058803,-157.8342741
MLS Listing,,Condo/Co-op,1634 Nuuanu Ave #201,Honolulu,HI,96817,475000,2,2.0,NUUANU-LOWER,837,51401,1978,11,568,990,Active,,,https://www.redfin.com/HI/Honolulu/1634-Nuuanu-Ave-96817/unit-201/home/88481395,HiCentral MLS,202516536,N,Y,21.3173233,-157.8554416
MLS Listing,,Condo/Co-op,629 Keeaumoku St #2405,Honolulu,HI,96814,775000,1,1.0,HOLIDAY MART,658,,2019,11,1178,722,Active,,,https://www.redfin.com/HI/Honolulu/629-Keeaumoku-St-96814/unit-2405/home/161301443,HiCentral MLS,202516537,N,Y,21.2941202,-157.841812
MLS Listing,,Single Family Residential,856 Kii St,Honolulu,HI,96825,1850000,3,3.0,HAHAIONE-LOWER,1925,6108,1969,11,961,,Active,August-3-2025 02:00 PM,August-3-2025 05:00 PM,https://www.redfin.com/HI/Honolulu/856-Kii-St-96825/home/88530942,HiCentral MLS,202516512,N,Y,21.3017589,-157.7096311
MLS Listing,,Condo/Co-op,500 University Ave #1611,Honolulu,HI,96826,435000,1,1.0,KAPIOLANI,532,6941983,1970,11,818,506,Active,,,https://www.redfin.com/HI/Honolulu/500-University-Ave-96826/unit-1611/home/63777553,HiCentral MLS,202516410,N,Y,21.2867219,-157.8272307
MLS Listing,,Condo/Co-op,1909 Ala Wai Blvd #410,Honolulu,HI,96815,255000,2,1.0,WAIKIKI,674,,1971,11,378,777,Active,,,https://www.redfin.com/HI/Honolulu/1909-Ala-Wai-Blvd-96815/unit-410/home/63849988,HiCentral MLS,202516363,N,Y,21.2875874,-157.8329671
MLS Listing,,Single Family Residential,1508 Frear St Unit B,Honolulu,HI,96813,916500,3,2.0,PUNCHBOWL-LOWER,960,2380,1941,11,955,,Active,,,https://www.redfin.com/HI/Honolulu/1508-Frear-St-96813/unit-B/home/88455641,HiCentral MLS,202516273,N,Y,21.308928,-157.852203
MLS Listing,,Condo/Co-op,1888 Kalakaua Ave #2502,Honolulu,HI,96815,898000,2,2.0,WAIKIKI,1308,117133,1992,11,687,1951,Active,August-3-2025 02:00 PM,August-3-2025 05:00 PM,https://www.redfin.com/HI/Honolulu/1888-Kalakaua-Ave-96815/unit-2502/home/63845499,HiCentral MLS,202514031,N,Y,21.288,-157.8338316
MLS Listing,,Condo/Co-op,3138 Waialae Ave #510,Honolulu,HI,96816,599000,2,2.0,ST. LOUIS,959,323999,1981,11,625,1544,Active,,,https://www.redfin.com/HI/Honolulu/3138-Waialae-Ave-96816/unit-510/home/88518881,HiCentral MLS,202516431,N,Y,21.2901662,-157.8095323
MLS Listing,,Condo/Co-op,1610 Kanunu St #902,Honolulu,HI,96814,459000,2,1.0,PAWAA,795,20996,1966,11,577,1080,Active,,,https://www.redfin.com/HI/Honolulu/1610-Kanunu-St-96814/unit-902/home/63830701,HiCentral MLS,202516514,N,Y,21.2945835,-157.8387684
MLS Listing,,Single Family Residential,1331 9th Ave,Honolulu,HI,96816,2100000,5,4.0,PALOLO,2717,4001,2024,11,773,,Active,August-3-2025 02:00 PM,August-3-2025 05:00 PM,https://www.redfin.com/HI/Honolulu/1331-9th-Ave-96816/home/88519002,HiCentral MLS,202515780,N,Y,21.2868007,-157.8007298
MLS Listing,,Condo/Co-op,3161 Ala Ilima St #509,Honolulu,HI,96818,439000,2,2.0,SALT LAKE,795,170799,1973,11,552,994,Active,,,https://www.redfin.com/HI/Honolulu/3161-Ala-Ilima-St-96818/unit-509/home/63851508,HiCentral MLS,202516513,N,Y,21.3441923,-157.910725
MLS Listing,,Condo/Co-op,2040 Nuuanu Ave #1602,Honolulu,HI,96817,336000,1,1.0,NUUANU-LOWER,551,26005,1984,12,610,1078,Active,,,https://www.redfin.com/HI/Honolulu/2040-Nuuanu-Ave-96817/unit-1602/home/88481571,HiCentral MLS,202516439,N,Y,21.3224028,-157.8509007
MLS Listing,,Condo/Co-op,7007 Hawaii Kai Dr Unit L14,Honolulu,HI,96825,1200000,3,2.0,WEST MARINA,1296,365991,1988,12,926,1269,Active,,,https://www.redfin.com/HI/Honolulu/7007-Hawaii-Kai-Dr-96825/unit-L14/home/88529284,HiCentral MLS,202516495,N,Y,21.287029,-157.702608
MLS Listing,,Condo/Co-op,249 Kapili St Unit 701A,Honolulu,HI,96815,281700,1,2.0,WAIKIKI,454,6708,1974,12,620,1461,Active,,,https://www.redfin.com/HI/Honolulu/249-Kapili-St-96815/unit-701A/home/63850351,HiCentral MLS,202516484,N,Y,21.2769551,-157.8219323
MLS Listing,,Condo/Co-op,201 Ohua Ave Unit 3102 T2,Honolulu,HI,96815,798000,1,1.0,WAIKIKI,540,99796,1977,12,1478,1525,Active,,,https://www.redfin.com/HI/Honolulu/201-Ohua-Ave-96815/unit-3102-T2/home/196506740,HiCentral MLS,202516482,N,Y,21.2747247,-157.820931
MLS Listing,,Condo/Co-op,5333 Likini St #1105,Honolulu,HI,96818,438999,1,1.0,SALT LAKE,626,133032,1984,13,701,857,Active,,,https://www.redfin.com/HI/Honolulu/5333-Likini-St-96818/unit-1105/home/63782555,HiCentral MLS,202516475,N,Y,21.346759,-157.9047168
MLS Listing,,Condo/Co-op,1242 Matlock Ave #204,Honolulu,HI,96814,300000,1,1.0,MAKIKI AREA,486,6750,1988,13,617,446,Active,,,https://www.redfin.com/HI/Honolulu/1242-Matlock-Ave-96814/unit-204/home/63786484,HiCentral MLS,202513934,N,Y,21.302805,-157.8413137
MLS Listing,,Single Family Residential,646 Honua St,Honolulu,HI,96816,3995000,4,3.0,KAHALA AREA,2214,10748,1957,13,1804,,Active,,,https://www.redfin.com/HI/Honolulu/646-Honua-St-96816/home/88524540,HiCentral MLS,202516279,N,Y,21.2657928,-157.7872506
MLS Listing,,Condo/Co-op,425 Ena Rd Unit 308C,Honolulu,HI,96815,85000,1,1.0,WAIKIKI,500,,1958,14,170,743,Active,,,https://www.redfin.com/HI/Honolulu/425-Ena-Rd-96815/unit-308C/home/91475108,HiCentral MLS,202516088,N,Y,21.2862254,-157.8354025
MLS Listing,,Condo/Co-op,454 Namahana St #803,Honolulu,HI,96815,95000,1,1.0,WAIKIKI,491,4400,1967,14,193,1679,Active,,,https://www.redfin.com/HI/Honolulu/454-Namahana-St-96815/unit-803/home/88501167,HiCentral MLS,202516351,N,Y,21.2852753,-157.8302284
MLS Listing,,Single Family Residential,1901 Judd Hillside Rd,Honolulu,HI,96822,3495000,4,4.0,UALAKAA,2185,16751,1952,14,1600,,Active,,,https://www.redfin.com/HI/Honolulu/1901-Judd-Hillside-Rd-96822/home/88497933,HiCentral MLS,202516416,N,Y,21.3074539,-157.8268577
MLS Listing,,Single Family Residential,1605 Ala Aoloa Loop,Honolulu,HI,96819,1225000,3,1.5,MOANALUA VALLEY,1382,6000,1966,14,886,,Active,August-3-2025 02:00 PM,August-3-2025 05:00 PM,https://www.redfin.com/HI/Honolulu/1605-Ala-Aoloa-Loop-96819/home/88471966,HiCentral MLS,202511447,N,Y,21.3684533,-157.8883087
MLS Listing,,Condo/Co-op,1 Keahole Pl #3310,Honolulu,HI,96825,1030000,2,2.0,WEST MARINA,1427,373091,1993,14,722,1481,Active,,,https://www.redfin.com/HI/Honolulu/1-Keahole-Pl-96825/unit-3310/home/88529228,HiCentral MLS,202515869,N,Y,21.2858138,-157.705737
MLS Listing,,Condo/Co-op,3731 Kanaina Ave #240,Honolulu,HI,96815,605000,1,1.0,DIAMOND HEAD,788,88862,1975,14,768,977,Active,,,https://www.redfin.com/HI/Honolulu/3731-Kanaina-Ave-96815/unit-240/home/63998506,HiCentral MLS,202516209,N,Y,21.2680475,-157.8137122
MLS Listing,,Multi-Family (2-4 Unit),2325/2327 Round Top Dr Unit 2325/2327,Honolulu,HI,96822,2900000,,,MAKIKI HEIGHTS,4070,7609,1970,14,713,,Active,August-3-2025 01:00 PM,August-3-2025 03:00 PM,https://www.redfin.com/HI/Honolulu/23252327-Round-Top-Dr-96822/unit-2325-2327/home/196718735,HiCentral MLS,202516414,N,Y,21.309264,-157.8266303
MLS Listing,,Condo/Co-op,1314 Piikoi St #201,Honolulu,HI,96814,390000,2,1.0,MAKIKI AREA,716,13869,1970,14,545,1035,Active,,,https://www.redfin.com/HI/Honolulu/1314-Piikoi-St-96814/unit-201/home/63750464,HiCentral MLS,202516398,N,Y,21.3028014,-157.8429367
MLS Listing,,Condo/Co-op,415 South St #1201,Honolulu,HI,96813,945000,2,2.0,KAKAAKO,1470,106548,1989,14,643,2447,Active,,,https://www.redfin.com/HI/Honolulu/415-South-St-96813/unit-1201/home/63993231,HiCentral MLS,202515861,N,Y,21.3000217,-157.8620281
MLS Listing,,Single Family Residential,2327 Round Top Dr,Honolulu,HI,96822,1100000,3,3.0,MAKIKI HEIGHTS,1792,5320,1982,14,614,,Active,August-3-2025 01:00 PM,August-3-2025 03:00 PM,https://www.redfin.com/HI/Honolulu/2327-Round-Top-Dr-96822/home/196500346,HiCentral MLS,202516239,N,Y,21.3092833,-157.8266049
MLS Listing,,Single Family Residential,2325 Round Top Dr,Honolulu,HI,96822,1800000,5,3.0,MAKIKI HEIGHTS,2278,7609,1970,14,790,,Active,August-3-2025 01:00 PM,August-3-2025 03:00 PM,https://www.redfin.com/HI/Honolulu/2325-Round-Top-Dr-96822/home/196500148,HiCentral MLS,202516238,N,Y,21.3092833,-157.8266049
MLS Listing,,Condo/Co-op,910 Ahana St #408,Honolulu,HI,96814,369000,2,1.0,PAWAA,780,41818,1965,14,473,1195,Active,,,https://www.redfin.com/HI/Honolulu/910-Ahana-St-96814/unit-408/home/88490914,HiCentral MLS,202516404,N,Y,21.2961123,-157.8401028
MLS Listing,,Condo/Co-op,1015 Wilder St #402,Honolulu,HI,96822,750000,2,2.0,PUNCHBOWL AREA,1232,,1989,14,609,1523,Active,,,https://www.redfin.com/HI/Honolulu/1015-Wilder-Ave-96822/unit-402/home/63815088,HiCentral MLS,202516312,N,Y,21.3083168,-157.8430635
MLS Listing,,Condo/Co-op,1750 Kalakaua Ave #3403,Honolulu,HI,96826,180000,3,5.0,MCCULLY,1205,56672,1978,14,149,1825,Active,,,https://www.redfin.com/HI/Honolulu/1750-Kalakaua-Ave-96826/unit-3403/home/63761807,HiCentral MLS,202513469,N,Y,21.2913437,-157.8355694
MLS Listing,,Condo/Co-op,1323 Makiki St Unit A209,Honolulu,HI,96814,349000,2,1.0,MAKIKI AREA,841,49223,1971,14,415,947,Active,,,https://www.redfin.com/HI/Honolulu/1323-Makiki-St-96814/unit-A209/home/88493679,HiCentral MLS,202516002,N,Y,21.3009416,-157.837115
MLS Listing,,Condo/Co-op,1000 Auahi St #1504,Honolulu,HI,96814,1750000,2,2.0,KAKAAKO,1133,,2021,14,1545,1493,Active,,,https://www.redfin.com/HI/Honolulu/1000-Auahi-St-96814/unit-1504/home/161300378,HiCentral MLS,202516211,N,Y,21.2948066,-157.8546268
MLS Listing,,Condo/Co-op,1128 Ala Napunani St #406,Honolulu,HI,96818,520000,3,1.5,SALT LAKE,1051,82938,1974,14,495,1325,Active,August-3-2025 02:00 PM,August-3-2025 05:00 PM,https://www.redfin.com/HI/Honolulu/1128-Ala-Napunani-St-96818/unit-406/home/63845505,HiCentral MLS,202516389,N,Y,21.3484904,-157.9026536
MLS Listing,,Condo/Co-op,1925 Kalakaua Ave #1905,Honolulu,HI,96815,540000,1,1.0,WAIKIKI,546,24655,1975,14,989,1050,Active,,,https://www.redfin.com/HI/Honolulu/1925-Kalakaua-Ave-96815/unit-1905/home/63749529,HiCentral MLS,202516323,N,Y,21.286212,-157.8335025
MLS Listing,,Condo/Co-op,2240 Kuhio Ave #3801,Honolulu,HI,96815,118800,3,3.0,WAIKIKI,2000,46783,1976,15,59,4999,Active,,,https://www.redfin.com/HI/Honolulu/2240-Kuhio-Ave-96815/unit-3801/home/63774858,HiCentral MLS,202516306,N,Y,21.280858,-157.8270786
MLS Listing,,Single Family Residential,1714 Ema Pl,Honolulu,HI,96819,1250000,6,3.5,KALIHI-LOWER,2392,5263,1974,15,523,,Active,,,https://www.redfin.com/HI/Honolulu/1714-Ema-Pl-96819/home/88477481,HiCentral MLS,202515324,N,Y,21.3415682,-157.8668754
MLS Listing,,Condo/Co-op,1022 Prospect St Unit 1104A,Honolulu,HI,96822,500000,1,1.5,PUNCHBOWL AREA,1072,36808,1969,15,466,1653,Active,August-2-2025 11:00 AM,August-2-2025 02:00 PM,https://www.redfin.com/HI/Honolulu/1022-Prospect-St-96822/unit-1104A/home/67747056,HiCentral MLS,202516376,N,Y,21.3097798,-157.8448229
MLS Listing,,Condo/Co-op,1630 Liholiho St #506,Honolulu,HI,96822,280000,0,1.0,MAKIKI,444,45956,1973,15,631,891,Active,,,https://www.redfin.com/HI/Honolulu/1630-Liholiho-St-96822/unit-506/home/88497272,HiCentral MLS,202510685,N,Y,21.3069587,-157.8381798
MLS Listing,,Condo/Co-op,1452 Liholiho St #206,Honolulu,HI,96822,397000,2,1.0,MAKIKI AREA,721,19776,1968,15,551,490,Active,,,https://www.redfin.com/HI/Honolulu/1452-Liholiho-St-96822/unit-206/home/88495859,HiCentral MLS,202516348,N,Y,21.3046262,-157.8405149
MLS Listing,,Condo/Co-op,727 University Ave #303,Honolulu,HI,96826,350333,2,1.0,MOILIILI,655,5009,1970,15,535,593,Active,,,https://www.redfin.com/HI/Honolulu/727-University-Ave-96826/unit-303/home/63761512,HiCentral MLS,202516288,N,Y,21.2890656,-157.824096
MLS Listing,,Condo/Co-op,1388 Kapiolani Blvd #1505,Honolulu,HI,96814,796999,1,1.0,HOLIDAY MART,567,,2023,15,1406,916,Active,,,https://www.redfin.com/HI/Honolulu/1388-Kapiolani-Blvd-96814/unit-1505/home/172582588,HiCentral MLS,202514132,N,Y,21.2941684,-157.8435887
MLS Listing,,Condo/Co-op,1288 Kapiolani Blvd Unit I4301,Honolulu,HI,96814,650000,1,1.0,KAKAAKO,701,,2007,15,927,950,Active,,,https://www.redfin.com/HI/Honolulu/1288-Kapiolani-Blvd-96814/unit-I-4301/home/63833647,HiCentral MLS,202516091,N,Y,21.2958282,-157.8471154
MLS Listing,,Condo/Co-op,909 Kapiolani Blvd #3102,Honolulu,HI,96814,755000,2,2.0,KAKAAKO,839,,2007,15,900,1234,Active,,,https://www.redfin.com/HI/Honolulu/909-Kapiolani-Blvd-96814/unit-3102/home/63841423,HiCentral MLS,202516261,N,Y,21.2981193,-157.8526006
MLS Listing,,Condo/Co-op,920 Ward Ave Unit 16H,Honolulu,HI,96814,618000,2,2.0,KAKAAKO,1020,18992,1970,15,606,767,Active,,,https://www.redfin.com/HI/Honolulu/920-Ward-Ave-96814/unit-16H/home/63803709,HiCentral MLS,202516266,N,Y,21.3012747,-157.8510404
MLS Listing,,Condo/Co-op,4999 Kahala Ave #263,Honolulu,HI,96816,85000,2,2.0,WAIALAE G/C,1258,,1966,15,68,1371,Active,,,https://www.redfin.com/HI/Honolulu/4999-Kahala-Ave-96816/unit-263/home/88524256,HiCentral MLS,202516117,N,Y,21.2713715,-157.7752437
MLS Listing,,Condo/Co-op,1426 Keeaumoku St Unit B16,Honolulu,HI,96822,320000,2,1.0,MAKIKI AREA,542,,1964,15,590,659,Active,,,https://www.redfin.com/HI/Honolulu/1426-Keeaumoku-St-96822/unit-B16/home/63751579,HiCentral MLS,202515838,N,Y,21.303176,-157.8386063
MLS Listing,,Condo/Co-op,1658 Liholiho St #604,Honolulu,HI,96822,375000,1,1.0,MAKIKI,612,11326,1970,15,613,563,Active,,,https://www.redfin.com/HI/Honolulu/1658-Liholiho-St-96822/unit-604/home/196476941,HiCentral MLS,202516193,N,Y,21.3075929,-157.8374095
MLS Listing,,Condo/Co-op,3215 Ala Ilima St Unit B809,Honolulu,HI,96818,498000,3,2.0,SALT LAKE,940,177507,1972,15,530,949,Active,,,https://www.redfin.com/HI/Honolulu/3215-Ala-Ilima-St-96818/unit-B809/home/88474122,HiCentral MLS,202514967,N,Y,21.3441647,-157.9116252
MLS Listing,,Multi-Family (5+ Unit),1716 Kalakaua Ave,Honolulu,HI,96826,6888000,,,MCCULLY,8406,6413,1962,15,819,,Active,,,https://www.redfin.com/HI/Honolulu/1716-Kalakaua-Ave-96826/home/145291010,HiCentral MLS,202516289,N,Y,21.291857,-157.8360521
MLS Listing,,Condo/Co-op,1088 Bishop St #3510,Honolulu,HI,96813,415000,1,1.0,DOWNTOWN,650,58370,1984,16,638,1221,Active,,,https://www.redfin.com/HI/Honolulu/1088-Bishop-St-96813/unit-3510/home/63798821,HiCentral MLS,202516260,N,Y,21.3093313,-157.860751
MLS Listing,,Condo/Co-op,1777 Ala Moana Blvd #927,Honolulu,HI,96815,880000,1,1.0,WAIKIKI,470,125279,1965,16,1872,952,Active,,,https://www.redfin.com/HI/Honolulu/1777-Ala-Moana-Blvd-96815/unit-927/home/88499352,HiCentral MLS,202516248,N,Y,21.2840457,-157.8387358
MLS Listing,,Condo/Co-op,1868 Kahakai Dr #112,Honolulu,HI,96814,315000,1,1.0,ALA MOANA,405,,1947,16,778,340,Active,,,https://www.redfin.com/HI/Honolulu/1868-Kahakai-Dr-96814/unit-112/home/88469283,HiCentral MLS,202516265,N,Y,21.28868,-157.83818
MLS Listing,,Single Family Residential,1017 Maluna St,Honolulu,HI,96818,1100000,6,5.0,ALIAMANU,2021,5200,1954,16,544,,Active,,,https://www.redfin.com/HI/Honolulu/1017-Maluna-St-96818/home/88470582,HiCentral MLS,202516137,N,Y,21.3515972,-157.9244181
MLS Listing,,Condo/Co-op,1448 Young St #304,Honolulu,HI,96814,325000,1,1.0,MAKIKI AREA,415,,1999,16,783,491,Active,,,https://www.redfin.com/HI/Honolulu/1448-Young-St-96814/unit-304/home/91471635,HiCentral MLS,202516242,N,Y,21.2991286,-157.8383288
MLS Listing,,Condo/Co-op,1414 Alexander St #503,Honolulu,HI,96822,445000,2,1.5,PUNAHOU,751,13939,1974,16,593,934,Active,,,https://www.redfin.com/HI/Honolulu/1414-Alexander-St-96822/unit-503/home/87286299,HiCentral MLS,202516204,N,Y,21.2996985,-157.8313007
MLS Listing,,Condo/Co-op,2333 Kapiolani Blvd #2707,Honolulu,HI,96826,585000,2,2.0,KAPIOLANI,851,171278,1971,16,687,921,Active,,,https://www.redfin.com/HI/Honolulu/2333-Kapiolani-Blvd-96826/unit-2707/home/63996940,HiCentral MLS,202516252,N,Y,21.2877087,-157.8285223
MLS Listing,,Condo/Co-op,1200 Queen Emma St #3405,Honolulu,HI,96813,888000,2,2.0,DOWNTOWN,1103,,2008,16,805,1407,Active,,,https://www.redfin.com/HI/Honolulu/1200-Queen-Emma-St-96813/unit-3405/home/63767139,HiCentral MLS,202516199,N,Y,21.3109141,-157.8580119
MLS Listing,,Condo/Co-op,2121 Ala Wai Blvd #2206,Honolulu,HI,96815,595000,2,1.0,WAIKIKI,662,30274,1979,16,899,1108,Active,,,https://www.redfin.com/HI/Honolulu/2121-Ala-Wai-Blvd-96815/unit-2206/home/88501460,HiCentral MLS,202516159,N,Y,21.283473,-157.8283128
MLS Listing,,Townhouse,1708 Nakiu Pl,Honolulu,HI,96822,1594000,7,4.0,MANOA-LOWER,1504,5373,1945,16,1060,,Active,,,https://www.redfin.com/HI/Honolulu/1708-Nakiu-Pl-96822/home/63951360,HiCentral MLS,202515328,N,Y,21.2997,-157.8254701
MLS Listing,,Condo/Co-op,1288 Ala Moana Blvd Unit 7C,Honolulu,HI,96814,2390000,2,2.0,KAKAAKO,1524,,2006,16,1568,1924,Active,,,https://www.redfin.com/HI/Honolulu/1288-Ala-Moana-Blvd-96814/unit-7C/home/63756847,HiCentral MLS,202516224,N,Y,21.2924733,-157.8499925
MLS Listing,,Condo/Co-op,440 Seaside Ave #503,Honolulu,HI,96815,360000,1,1.0,WAIKIKI,624,23435,1980,16,577,1100,Active,,,https://www.redfin.com/HI/Honolulu/440-Seaside-Ave-96815/unit-503/home/63794357,HiCentral MLS,202516168,N,Y,21.2813998,-157.8263303
MLS Listing,,Condo/Co-op,4300 Waialae Ave Unit A703,Honolulu,HI,96816,615000,2,2.0,WAIALAE NUI VLY,841,,1968,16,731,1058,Active,,,https://www.redfin.com/HI/Honolulu/4300-Waialae-Ave-96816/unit-A703/home/88523572,HiCentral MLS,202515870,N,Y,21.2793035,-157.7851635
MLS Listing,,Condo/Co-op,217 Prospect St Unit M10,Honolulu,HI,96813,735000,3,3.0,PUNCHBOWL AREA,1438,,1980,16,511,2278,Active,,,https://www.redfin.com/HI/Honolulu/217-Prospect-St-96813/unit-M10/home/88487550,HiCentral MLS,202516012,N,Y,21.3135726,-157.850924
MLS Listing,,Single Family Residential,2237 Kauhana St,Honolulu,HI,96816,1175000,3,2.5,PALOLO,1182,6950,1947,16,994,,Active,August-3-2025 02:00 PM,August-3-2025 05:00 PM,https://www.redfin.com/HI/Honolulu/2237-Kauhana-St-96816/home/88522635,HiCentral MLS,202515343,N,Y,21.3037812,-157.7922657
MLS Listing,,Condo/Co-op,520 Lunalilo Home Rd #8311,Honolulu,HI,96825,850000,2,2.0,WEST MARINA,1287,,2004,16,660,993,Active,,,https://www.redfin.com/HI/Honolulu/520-Lunalilo-Home-Rd-96825/unit-8311/home/63824994,HiCentral MLS,202516084,N,Y,21.2864898,-157.6991321
MLS Listing,,Condo/Co-op,909 Kapiolani Blvd #701,Honolulu,HI,96814,745000,2,2.0,KAKAAKO,978,58806,2007,16,762,1439,Active,,,https://www.redfin.com/HI/Honolulu/909-Kapiolani-Blvd-96814/unit-701/home/91471461,HiCentral MLS,202516080,N,Y,21.2981193,-157.8526006
MLS Listing,,Condo/Co-op,1000 Auahi St #3107,Honolulu,HI,96814,1495000,2,2.0,KAKAAKO,968,,2021,16,1544,1307,Active,,,https://www.redfin.com/HI/Honolulu/1000-Auahi-St-96814/unit-3107/home/161300816,HiCentral MLS,202516041,N,Y,21.2948066,-157.8546268
MLS Listing,,Condo/Co-op,2465 Kuhio Ave #306,Honolulu,HI,96815,995000,2,2.0,WAIKIKI,876,21432,1971,16,1136,1566,Active,,,https://www.redfin.com/HI/Honolulu/2464-Prince-Edward-St-96815/unit-306/home/63850443,HiCentral MLS,202516016,N,Y,21.275755,-157.8232971
MLS Listing,,Condo/Co-op,1505 Kewalo St Unit 203A,Honolulu,HI,96822,338000,1,1.0,MAKIKI AREA,533,27007,1959,16,634,426,Active,,,https://www.redfin.com/HI/Honolulu/1505-Kewalo-St-96822/unit-203A/home/88496039,HiCentral MLS,202513728,N,Y,21.3040491,-157.8388848
MLS Listing,,Condo/Co-op,410 Nahua St #204,Honolulu,HI,96815,72000,1,1.0,WAIKIKI,468,15600,1959,17,154,413,Active,,,https://www.redfin.com/HI/Honolulu/410-Nahua-St-96815/unit-204/home/91476177,HiCentral MLS,202516120,N,Y,21.2794623,-157.8254411
MLS Listing,,Single Family Residential,1560 Murphy St Unit A,Honolulu,HI,96819,775000,3,2.0,KALIHI UKA,964,4820,1974,17,804,,Active,,,https://www.redfin.com/HI/Honolulu/1560-Murphy-St-96819/unit-A/home/171590026,HiCentral MLS,202516128,N,Y,21.3457367,-157.8576633
MLS Listing,,Condo/Co-op,1765 Ala Moana Blvd #1097,Honolulu,HI,96815,425000,0,1.0,WAIKIKI,427,55016,1968,17,995,838,Active,,,https://www.redfin.com/HI/Honolulu/1765-Ala-Moana-Blvd-96815/unit-1097/home/88499189,HiCentral MLS,202516118,N,Y,21.2855735,-157.8395601
MLS Listing,,Condo/Co-op,1850 Ala Moana Blvd #205,Honolulu,HI,96815,650000,1,1.0,WAIKIKI,793,,1970,17,820,1971,Active,,,https://www.redfin.com/HI/Honolulu/1850-Ala-Moana-Blvd-96815/unit-205/home/63809576,HiCentral MLS,202516197,N,Y,21.2848702,-157.8366091
MLS Listing,,Condo/Co-op,600 Queen St #607,Honolulu,HI,96813,730000,2,1.0,KAKAAKO,881,,2008,17,829,820,Active,,,https://www.redfin.com/HI/Honolulu/600-Queen-St-96813/unit-607/home/88460243,HiCentral MLS,202516162,N,Y,21.3021596,-157.8573045
MLS Listing,,Condo/Co-op,987 Queen St #508,Honolulu,HI,96814,495000,0,1.0,KAKAAKO,364,,2019,17,1360,653,Active,,,https://www.redfin.com/HI/Honolulu/987-Queen-St-96814/unit-508/home/145286537,HiCentral MLS,202516182,N,Y,21.2961139,-157.853282
MLS Listing,,Condo/Co-op,356 Opihikao Pl #542,Honolulu,HI,96825,998000,3,2.5,WEST MARINA,1762,1114352,1970,17,566,1275,Active,,,https://www.redfin.com/HI/Honolulu/356-Opihikao-Pl-96825/unit-542/home/63784018,HiCentral MLS,202516149,N,Y,21.287083,-157.712256
MLS Listing,,Condo/Co-op,1616 Kewalo St #303,Honolulu,HI,96822,315000,0,1.0,MAKIKI,440,10629,1969,17,716,555,Active,,,https://www.redfin.com/HI/Honolulu/1616-Kewalo-St-96822/unit-303/home/63976368,HiCentral MLS,202516058,N,Y,21.3059784,-157.8376513
MLS Listing,,Condo/Co-op,2015 Wilder Ave Unit 3C,Honolulu,HI,96822,470000,2,1.0,PUNAHOU,684,16683,1969,17,687,380,Active,,,https://www.redfin.com/HI/Honolulu/2015-Wilder-Ave-96822/unit-3C/home/88510281,HiCentral MLS,202516153,N,Y,21.2993319,-157.8273869
MLS Listing,,Condo/Co-op,1189 Waimanu St #4301,Honolulu,HI,96814,3250000,3,2.5,KAKAAKO,2015,,2014,17,1613,2802,Active,,,https://www.redfin.com/HI/Honolulu/1189-Waimanu-St-96814/unit-4301/home/88469309,HiCentral MLS,202516133,N,Y,21.293548,-157.8481851
MLS Listing,,Condo/Co-op,520 Lunalilo Home Rd #6419,Honolulu,HI,96825,805000,2,2.0,WEST MARINA,1287,,2004,17,625,1273,Active,,,https://www.redfin.com/HI/Honolulu/520-Lunalilo-Home-Rd-96825/unit-6419/home/63810829,HiCentral MLS,202516085,N,Y,21.2864898,-157.6991321
MLS Listing,,Condo/Co-op,440 Olohana St #1705,Honolulu,HI,96815,420000,0,1.0,WAIKIKI,353,,1977,17,1190,684,Active,,,https://www.redfin.com/HI/Honolulu/440-Olohana-St-96815/unit-1705/home/63809735,HiCentral MLS,202515134,N,Y,21.2845232,-157.8301056
MLS Listing,,Condo/Co-op,239 Mananai Pl Unit 54F,Honolulu,HI,96818,398000,1,1.0,HALAWA,577,28575,1986,17,690,839,Active,,,https://www.redfin.com/HI/Honolulu/239-Mananai-Pl-96818/unit-54F/home/63828415,HiCentral MLS,202515770,N,Y,21.368143,-157.9259638
MLS Listing,,Condo/Co-op,1177 Queen St #3405,Honolulu,HI,96814,1125000,2,2.0,KAKAAKO,1157,,2006,17,972,1455,Active,,,https://www.redfin.com/HI/Honolulu/1177-Queen-St-96814/unit-3405/home/63828319,HiCentral MLS,202516127,N,Y,21.29342,-157.849211
MLS Listing,,Condo/Co-op,383 Kalaimoku St #3109,Honolulu,HI,96815,1550000,1,1.0,WAIKIKI,813,,2014,17,1907,1804,Active,,,https://www.redfin.com/HI/Honolulu/383-Kalaimoku-St-96815/unit-3109/home/113643206,HiCentral MLS,202516013,N,Y,21.2822884,-157.8301058
MLS Listing,,Condo/Co-op,1000 Auahi St #2007,Honolulu,HI,96814,1560000,2,2.0,KAKAAKO,968,,2021,17,1612,1276,Active,,,https://www.redfin.com/HI/Honolulu/1000-Auahi-St-96814/unit-2007/home/161300520,HiCentral MLS,202515925,N,Y,21.2948066,-157.8546268
MLS Listing,,Condo/Co-op,775 Kinalau Pl #1204,Honolulu,HI,96813,349900,1,1.0,PUNCHBOWL-LOWER,520,35893,1976,18,673,506,Active,,,https://www.redfin.com/HI/Honolulu/775-Kinalau-Pl-96813/unit-1204/home/88486122,HiCentral MLS,202516113,N,Y,21.3052744,-157.8498528
MLS Listing,,Condo/Co-op,2211 Ala Wai Blvd #2505,Honolulu,HI,96815,348000,1,1.0,WAIKIKI,413,47175,1976,18,843,825,Active,,,https://www.redfin.com/HI/Honolulu/2211-Ala-Wai-Blvd-96815/unit-2505/home/63789915,HiCentral MLS,202515962,N,Y,21.2823806,-157.8269389
MLS Listing,,Single Family Residential,3233 Allan Pl,Honolulu,HI,96817,3100000,4,6.0,DOWSETT,2482,11409,1958,18,1249,,Active,,,https://www.redfin.com/HI/Honolulu/3233-Allan-Pl-96817/home/63887521,HiCentral MLS,202515893,N,Y,21.3404382,-157.8325043
MLS Listing,,Single Family Residential,4439 Kahala Ave,Honolulu,HI,96816,11800000,0,,KAHALA AREA,,35428,,18,,,Active,,,https://www.redfin.com/HI/Honolulu/4439-Kahala-Ave-96816/home/63901900,HiCentral MLS,202516011,N,Y,21.2608407,-157.7882838
MLS Listing,,Condo/Co-op,1330 Ala Moana Blvd #3305,Honolulu,HI,96814,1380000,2,2.0,KAKAAKO,1222,135472,1990,18,1129,1885,Active,,,https://www.redfin.com/HI/Honolulu/1330-Ala-Moana-Blvd-96814/unit-3305/home/88490511,HiCentral MLS,202516086,N,Y,21.2924066,-157.8485487
MLS Listing,,Single Family Residential,1952 Nehoa Pl,Honolulu,HI,96822,1820000,5,3.5,MAKIKI HEIGHTS,2006,8764,1964,18,907,,Active,,,https://www.redfin.com/HI/Honolulu/1952-Nehoa-Pl-96822/home/88497044,HiCentral MLS,202516079,N,Y,21.3095481,-157.834058
MLS Listing,,Condo/Co-op,615 Keawe St #3005,Honolulu,HI,96813,840000,2,2.0,KAKAAKO,785,,2024,18,1070,885,Active,,,https://www.redfin.com/HI/Honolulu/615-Keawe-St-96813/unit-3005/home/196409216,HiCentral MLS,202516071,N,Y,21.300979,-157.8583292
MLS Listing,,Condo/Co-op,1022 Prospect St Unit 704A,Honolulu,HI,96822,537000,2,2.0,PUNCHBOWL AREA,1072,36808,1969,18,501,1654,Active,,,https://www.redfin.com/HI/Honolulu/1022-Prospect-St-96822/unit-704A/home/63780981,HiCentral MLS,202516057,N,Y,21.3097798,-157.8448229
MLS Listing,,Single Family Residential,1482 Honokahua St,Honolulu,HI,96825,1175000,3,2.0,KALAMA VALLEY,1032,4080,1985,18,1139,,Active,August-3-2025 02:00 PM,August-3-2025 05:00 PM,https://www.redfin.com/HI/Honolulu/1482-Honokahua-St-96825/home/88534069,HiCentral MLS,202514969,N,Y,21.3116817,-157.67254
MLS Listing,,Condo/Co-op,444 Kanekapolei St #513,Honolulu,HI,96815,300000,0,1.0,WAIKIKI,223,,1967,18,1345,430,Active,,,https://www.redfin.com/HI/Honolulu/444-Kanekapolei-St-96815/unit-513/home/63822262,HiCentral MLS,202516067,N,Y,21.2790803,-157.8236089
MLS Listing,,Condo/Co-op,5333 Likini St #2408,Honolulu,HI,96818,308000,0,1.0,SALT LAKE,325,133032,1984,18,948,536,Active,,,https://www.redfin.com/HI/Honolulu/5333-Likini-St-96818/unit-2408/home/63839926,HiCentral MLS,202516021,N,Y,21.346759,-157.9047168
MLS Listing,,Condo/Co-op,888 Kapiolani Blvd #3006,Honolulu,HI,96813,1028000,2,2.0,KAKAAKO,1145,,2016,18,898,1371,Active,August-3-2025 02:00 PM,August-3-2025 05:00 PM,https://www.redfin.com/HI/Honolulu/888-Kapiolani-Blvd-96813/unit-3006/home/91484271,HiCentral MLS,202516053,N,Y,21.3000354,-157.8526035
MLS Listing,,Condo/Co-op,509 University Ave #707,Honolulu,HI,96826,238000,0,1.0,KAPIOLANI,414,28009,1961,18,575,763,Active,,,https://www.redfin.com/HI/Honolulu/509-University-Ave-96826/unit-707/home/88507130,HiCentral MLS,202515956,N,Y,21.2858091,-157.8270335
MLS Listing,,Condo/Co-op,430 Keoniana St #811,Honolulu,HI,96815,360000,1,1.0,WAIKIKI,643,32496,1977,18,560,1061,Active,August-3-2025 02:00 PM,August-3-2025 05:00 PM,https://www.redfin.com/HI/Honolulu/430-Keoniana-St-96815/unit-811/home/63993763,HiCentral MLS,202513048,N,Y,21.2855475,-157.8321783
MLS Listing,,Condo/Co-op,927 Prospect St #606,Honolulu,HI,96822,499000,2,2.0,PUNCHBOWL AREA,868,43908,1971,18,575,863,Active,August-3-2025 01:00 PM,August-3-2025 04:00 PM,https://www.redfin.com/HI/Honolulu/927-Prospect-St-96822/unit-606/home/88494204,HiCentral MLS,202514798,N,Y,21.3078595,-157.8468721
MLS Listing,,Condo/Co-op,909 Ala Nanala St #1501,Honolulu,HI,96818,349900,1,1.0,SALT LAKE,552,31799,1974,18,634,605,Active,,,https://www.redfin.com/HI/Honolulu/909-Ala-Nanala-St-96818/unit-1501/home/88473269,HiCentral MLS,202515922,N,Y,21.345251,-157.9101342
MLS Listing,,Condo/Co-op,1212 Nuuanu Ave #1104,Honolulu,HI,96817,615000,2,2.0,CHINATOWN,875,72702,1989,18,703,1190,Active,,,https://www.redfin.com/HI/Honolulu/1212-Nuuanu-Ave-96817/unit-1104/home/63988627,HiCentral MLS,202515960,N,Y,21.3127662,-157.860099
MLS Listing,,Condo/Co-op,1200 Queen Emma St #3511,Honolulu,HI,96813,1099000,2,2.0,DOWNTOWN,1268,,2008,18,867,1618,Active,,,https://www.redfin.com/HI/Honolulu/1200-Queen-Emma-St-96813/unit-3511/home/88460434,HiCentral MLS,202514250,N,Y,21.3109141,-157.8580119
MLS Listing,,Condo/Co-op,600 Ala Moana Blvd #3401,Honolulu,HI,96813,1399000,3,2.0,KAKAAKO,1133,,2016,19,1235,1181,Active,August-3-2025 02:00 PM,August-3-2025 05:00 PM,https://www.redfin.com/HI/Honolulu/600-Ala-Moana-Blvd-96813/unit-3401/home/91485665,HiCentral MLS,202515756,N,Y,21.2988196,-157.8618261
MLS Listing,,Condo/Co-op,1676 Ala Moana Blvd #1007,Honolulu,HI,96815,569000,2,1.5,WAIKIKI,801,31058,1968,19,710,1040,Active,,,https://www.redfin.com/HI/Honolulu/1676-Ala-Moana-Blvd-96815/unit-1007/home/88499832,HiCentral MLS,202515853,N,Y,21.2871486,-157.8396326
MLS Listing,,Condo/Co-op,60 N Beretania St #1708,Honolulu,HI,96817,389000,1,1.0,CHINATOWN,726,74488,1982,19,536,1051,Active,August-3-2025 02:30 PM,August-3-2025 04:30 PM,https://www.redfin.com/HI/Honolulu/60-N-Beretania-St-96817/unit-1708/home/88481160,HiCentral MLS,202516008,N,Y,21.3133189,-157.8606383
MLS Listing,,Single Family Residential,2407 St Louis Dr Unit B,Honolulu,HI,96816,2380000,5,3.5,ST. LOUIS,3524,6212,2015,19,675,,Active,,,https://www.redfin.com/HI/Honolulu/2407-Saint-Louis-Dr-96816/unit-B/home/172585639,HiCentral MLS,202515933,N,Y,21.3000954,-157.8009747
MLS Listing,,Condo/Co-op,2101 Nuuanu Ave Unit I2506,Honolulu,HI,96817,448000,1,1.0,NUUANU-LOWER,798,158210,1981,19,561,994,Active,,,https://www.redfin.com/HI/Honolulu/2101-Nuuanu-Ave-96817/unit-I2506/home/63807350,HiCentral MLS,202512602,N,Y,21.3226764,-157.8496898
MLS Listing,,Condo/Co-op,1702 Kewalo St #204,Honolulu,HI,96822,409000,2,1.0,MAKIKI AREA,736,,1965,20,556,699,Active,August-3-2025 02:00 PM,August-3-2025 05:00 PM,https://www.redfin.com/HI/Honolulu/1702-Kewalo-St-96822/unit-204/home/63831822,HiCentral MLS,202515506,N,Y,21.3074263,-157.836233
MLS Listing,,Single Family Residential,911 6th Ave,Honolulu,HI,96816,1595000,4,3.5,KAIMUKI,2325,3757,2004,20,686,,Active,,,https://www.redfin.com/HI/Honolulu/911-6th-Ave-96816/home/63930527,HiCentral MLS,202515985,N,Y,21.2817814,-157.8083797
MLS Listing,,Condo/Co-op,1860 Ala Moana Blvd #1208,Honolulu,HI,96815,695000,2,2.0,WAIKIKI,1180,43124,1970,20,589,1696,Active,,,https://www.redfin.com/HI/Honolulu/1860-Ala-Moana-Blvd-96815/unit-1208/home/63990304,HiCentral MLS,202515866,N,Y,21.2854126,-157.8358343
MLS Listing,,Condo/Co-op,2121 Ala Wai Blvd #2301,Honolulu,HI,96815,545000,2,1.0,WAIKIKI,690,30274,1979,20,790,1108,Active,,,https://www.redfin.com/HI/Honolulu/2121-Ala-Wai-Blvd-96815/unit-2301/home/63793100,HiCentral MLS,202515974,N,Y,21.283473,-157.8283128
MLS Listing,,Condo/Co-op,445 Seaside Ave #720,Honolulu,HI,96815,550000,1,1.0,WAIKIKI,570,49833,1979,20,965,861,Active,,,https://www.redfin.com/HI/Honolulu/445-Seaside-Ave-96815/unit-720/home/88502861,HiCentral MLS,202515122,N,Y,21.2809674,-157.8256348
MLS Listing,,Condo/Co-op,435 Seaside Ave #209,Honolulu,HI,96815,285000,1,1.0,WAIKIKI,732,27269,1962,20,389,699,Active,,,https://www.redfin.com/HI/Honolulu/435-Seaside-Ave-96815/unit-209/home/63761493,HiCentral MLS,202515979,N,Y,21.2805783,-157.8260074
MLS Listing,,Condo/Co-op,417 Nohonani St #405,Honolulu,HI,96815,99999,1,1.0,WAIKIKI,468,15594,1959,20,214,798,Active,,,https://www.redfin.com/HI/Honolulu/417-Nohonani-St-96815/unit-405/home/63781420,HiCentral MLS,202515970,N,Y,21.2799611,-157.8258444
MLS Listing,,Condo/Co-op,509 University Ave #1001,Honolulu,HI,96826,428000,2,1.0,KAPIOLANI,705,,1961,21,607,1309,Active,,,https://www.redfin.com/HI/Honolulu/509-University-Ave-96826/unit-1001/home/88507160,HiCentral MLS,202515016,N,Y,21.2858091,-157.8270335
MLS Listing,,Single Family Residential,2316 Round Top Dr,Honolulu,HI,96822,1750000,3,2.5,MAKIKI HEIGHTS,2016,10014,1954,21,868,,Active,August-3-2025 02:00 PM,August-3-2025 05:00 PM,https://www.redfin.com/HI/Honolulu/2316-Round-Top-Dr-96822/home/63986829,HiCentral MLS,202515831,N,Y,21.3089122,-157.8271904
MLS Listing,,Condo/Co-op,445 Kaiolu St #407,Honolulu,HI,96815,268000,1,1.0,WAIKIKI,456,,1955,21,588,1165,Active,,,https://www.redfin.com/HI/Honolulu/445-Kaiolu-St-96815/unit-407/home/63759973,HiCentral MLS,202514610,N,Y,21.2829043,-157.8280153
MLS Listing,,Condo/Co-op,1778 Ala Moana Blvd #2014,Honolulu,HI,96815,699000,2,2.0,WAIKIKI,1031,84463,1977,21,678,1568,Active,,,https://www.redfin.com/HI/Honolulu/1778-Ala-Moana-Blvd-96815/unit-2014/home/63748817,HiCentral MLS,202515945,N,Y,21.2853305,-157.8381164
MLS Listing,,Condo/Co-op,411 Hobron Ln #3801,Honolulu,HI,96815,499000,1,1.0,WAIKIKI,600,,1974,21,832,1029,Active,,,https://www.redfin.com/HI/Honolulu/411-Hobron-Ln-96815/unit-3801/home/63984257,HiCentral MLS,202515753,N,Y,21.2865092,-157.8364397
MLS Listing,,Single Family Residential,3857 Poka St,Honolulu,HI,96816,5499000,3,4.5,DIAMOND HEAD,4508,10000,2000,21,1220,,Active,August-3-2025 02:00 PM,August-3-2025 05:00 PM,https://www.redfin.com/HI/Honolulu/3857-Poka-St-96816/home/88516124,HiCentral MLS,202515002,N,Y,21.2597868,-157.7981918
MLS Listing,,Condo/Co-op,2450 Prince Edward St Unit 1201A,Honolulu,HI,96815,220000,1,1.5,WAIKIKI,433,,1975,21,508,1084,Active,,,https://www.redfin.com/HI/Honolulu/2450-Prince-Edward-St-96815/unit-1201A/home/63758041,HiCentral MLS,202515879,N,Y,21.2759168,-157.8234011
MLS Listing,,Condo/Co-op,417 Nohonani St #312,Honolulu,HI,96815,87000,1,1.0,WAIKIKI,468,15594,1959,21,186,710,Active,,,https://www.redfin.com/HI/Honolulu/417-Nohonani-St-96815/unit-312/home/63750924,HiCentral MLS,202514763,N,Y,21.2799611,-157.8258444
MLS Listing,,Condo/Co-op,229 Paoakalani Ave #1014,Honolulu,HI,96815,985000,2,1.0,WAIKIKI,604,,1979,21,1631,1288,Active,August-3-2025 02:00 PM,August-3-2025 05:00 PM,https://www.redfin.com/HI/Honolulu/229-Paoakalani-Ave-96815/unit-1014/home/88505421,HiCentral MLS,202515786,N,Y,21.2743201,-157.8202324
MLS Listing,,Single Family Residential,763 Kaulana Pl,Honolulu,HI,96821,4380000,6,8.0,HAWAII LOA RIDGE,6493,15514,1993,21,675,402,Active,,,https://www.redfin.com/HI/Honolulu/763-Kaulana-Pl-96821/home/63896029,HiCentral MLS,202515864,N,Y,21.288946,-157.742949
MLS Listing,,Condo/Co-op,201 Ohua Ave Unit makai/2808,Honolulu,HI,96815,725000,1,1.0,WAIKIKI,533,99796,1977,21,1360,721,Active,,,https://www.redfin.com/HI/Honolulu/201-Ohua-Ave-96815/unit-MAKAI-2808/home/148644009,HiCentral MLS,202515915,N,Y,21.2747247,-157.820931
MLS Listing,,Condo/Co-op,,Honolulu,HI,96815,359000,0,1.0,,465,84463,1977,21,772,636,Active,,,https://www.redfin.com/HI/Honolulu/Undisclosed-address-96813/home/148639686,HiCentral MLS,202511518,N,Y,21.3136151,-157.8480364
MLS Listing,,Condo/Co-op,2916 Date St Unit 6F,Honolulu,HI,96816,250000,2,2.0,KAPAHULU EWA,652,49528,1981,21,383,148,Active,,,https://www.redfin.com/HI/Honolulu/2916-Date-St-96816/unit-6F/home/88509201,HI Information Service,721742,N,Y,21.2816461,-157.8158686
MLS Listing,,Condo/Co-op,2847 Waialae Ave #210,Honolulu,HI,96826,305000,2,1.0,MOILIILI,607,,1975,21,502,973,Active,August-3-2025 10:00 AM,August-3-2025 01:00 PM,https://www.redfin.com/HI/Honolulu/2847-Waialae-Ave-96826/unit-210/home/63761661,HiCentral MLS,202515808,N,Y,21.289783,-157.814881
MLS Listing,,Condo/Co-op,1215 Alexander St #204,Honolulu,HI,96826,380000,2,1.0,MOILIILI,625,,1974,21,608,758,Active,August-3-2025 02:00 PM,August-3-2025 05:00 PM,https://www.redfin.com/HI/Honolulu/1215-Alexander-St-96826/unit-204/home/63768103,HiCentral MLS,202515686,N,Y,21.2980042,-157.8316014
MLS Listing,,Condo/Co-op,2499 Kapiolani Blvd #2708,Honolulu,HI,96826,560000,2,2.0,KAPIOLANI,1064,95048,1979,21,526,1774,Active,,,https://www.redfin.com/HI/Honolulu/2499-Kapiolani-Blvd-96826/unit-2708/home/63805195,HiCentral MLS,202515572,N,Y,21.2866876,-157.8233527
MLS Listing,,Single Family Residential,1789 Laukahi St,Honolulu,HI,96821,2750000,5,4.5,WAIALAE IKI,3216,8138,1972,21,855,31,Active,August-3-2025 02:00 PM,August-3-2025 05:00 PM,https://www.redfin.com/HI/Honolulu/1789-Laukahi-St-96821/home/88525798,HiCentral MLS,202515883,N,Y,21.2840384,-157.7641364
MLS Listing,,Condo/Co-op,2040 Nuuanu Ave #1103,Honolulu,HI,96817,315000,0,1.0,NUUANU-LOWER,395,26005,1984,21,797,802,Active,,,https://www.redfin.com/HI/Honolulu/2040-Nuuanu-Ave-96817/unit-1103/home/88481554,HiCentral MLS,202515297,N,Y,21.3224028,-157.8509007
MLS Listing,,Condo/Co-op,987 Queen St #3209,Honolulu,HI,96814,575000,0,1.0,KAKAAKO,364,,2019,21,1580,536,Active,,,https://www.redfin.com/HI/Honolulu/987-Queen-St-96814/unit-3209/home/145287127,HiCentral MLS,202515895,N,Y,21.2961139,-157.853282
MLS Listing,,Single Family Residential,1751 Ahuula St,Honolulu,HI,96819,788000,2,1.0,KAPALAMA,560,5000,1982,22,1407,,Active,,,https://www.redfin.com/HI/Honolulu/1751-Ahuula-St-96819/home/88476296,HiCentral MLS,202515874,N,Y,21.3289038,-157.878973
MLS Listing,,Condo/Co-op,2427 Kuhio Ave #1501,Honolulu,HI,96815,540000,0,1.0,WAIKIKI,360,16335,1980,22,1500,748,Active,,,https://www.redfin.com/HI/Honolulu/2427-Kuhio-Ave-96815/unit-1501/home/88503447,HiCentral MLS,202515767,N,Y,21.2766879,-157.8237863
MLS Listing,,Condo/Co-op,700 Richards St #1709,Honolulu,HI,96813,779000,2,2.0,DOWNTOWN,1014,67910,1971,22,768,1731,Active,,,https://www.redfin.com/HI/Honolulu/700-Richards-St-96813/unit-1709/home/63767463,HiCentral MLS,202515094,N,Y,21.30618,-157.86235
MLS Listing,,Condo/Co-op,1314 Kalakaua Ave #413,Honolulu,HI,96826,550000,2,2.0,MAKIKI AREA,928,,1996,22,593,4363,Active,,,https://www.redfin.com/HI/Honolulu/1314-Kalakaua-Ave-96826/unit-413/home/63773863,HiCentral MLS,202515859,N,Y,21.2988647,-157.8372064
MLS Listing,,Condo/Co-op,1535 Pensacola St #208,Honolulu,HI,96822,395000,2,1.0,MAKIKI AREA,630,,1967,22,627,818,Active,,,https://www.redfin.com/HI/Honolulu/1535-Pensacola-St-96822/unit-208/home/63795908,HiCentral MLS,202515741,N,Y,21.3060703,-157.8415628
MLS Listing,,Condo/Co-op,375-A Haleloa Pl Unit A601,Honolulu,HI,96821,850000,3,2.5,KULIOUOU,1449,,1973,22,587,988,Active,August-3-2025 02:00 PM,August-3-2025 05:00 PM,https://www.redfin.com/HI/Honolulu/375A-Haleloa-Pl-96821/unit-A601/home/88528458,HiCentral MLS,202515325,N,Y,21.291203,-157.72304
MLS Listing,,Condo/Co-op,585 Mananai Pl Unit 26U,Honolulu,HI,96818,600000,2,2.0,HALAWA,874,,1985,22,686,1052,Active,,,https://www.redfin.com/HI/Honolulu/585-Mananai-Pl-96818/unit-26U/home/91482218,HiCentral MLS,202515138,N,Y,21.369681,-157.9221275
MLS Listing,,Condo/Co-op,876 Curtis St #2109,Honolulu,HI,96813,625000,2,2.0,KAKAAKO,847,56584,1987,22,738,897,Active,,,https://www.redfin.com/HI/Honolulu/876-Curtis-St-96813/unit-2109/home/63815970,HiCentral MLS,202515852,N,Y,21.3016941,-157.8559995
MLS Listing,,Condo/Co-op,670 Prospect St #606,Honolulu,HI,96813,395000,1,1.5,MAKIKI AREA,681,,1970,22,580,856,Active,August-3-2025 02:00 PM,August-3-2025 05:00 PM,https://www.redfin.com/HI/Honolulu/670-Prospect-St-96813/unit-606/home/196342071,HiCentral MLS,202515457,N,Y,21.3096324,-157.8492074
MLS Listing,,Condo/Co-op,1650 Kanunu St #209,Honolulu,HI,96814,245000,0,1.0,PAWAA,362,46261,1966,22,677,462,Active,,,https://www.redfin.com/HI/Honolulu/1650-Kanunu-St-96814/unit-209/home/88491161,HiCentral MLS,202515849,N,Y,21.2942404,-157.8375575
MLS Listing,,Condo/Co-op,909 University Ave #210,Honolulu,HI,96826,259000,0,1.0,MOILIILI,288,39814,1961,22,899,282,Active,,,https://www.redfin.com/HI/Honolulu/909-University-Ave-96826/unit-210/home/63826089,HiCentral MLS,202515830,N,Y,21.2906563,-157.8225843
MLS Listing,,Single Family Residential,156 Forest Ridge Way,Honolulu,HI,96822,2100000,4,3.0,TANTALUS,3094,22628,1971,22,679,,Active,,,https://www.redfin.com/HI/Honolulu/156-Forest-Ridge-Way-96822/home/88498370,HiCentral MLS,202507376,N,Y,21.3283344,-157.8150395
MLS Listing,,Condo/Co-op,2450 Prince Edward St Unit 506A,Honolulu,HI,96815,105000,0,1.0,WAIKIKI,255,,1975,22,412,732,Active,,,https://www.redfin.com/HI/Honolulu/2450-Prince-Edward-St-96815/unit-506A/home/63759189,HiCentral MLS,202515800,N,Y,21.2759168,-157.8234011
MLS Listing,,Condo/Co-op,629 Keeaumoku St #2310,Honolulu,HI,96814,1120000,2,2.0,HOLIDAY MART,916,,2019,22,1223,931,Active,,,https://www.redfin.com/HI/Honolulu/629-Keeaumoku-St-96814/unit-2310/home/161301436,HiCentral MLS,202515558,N,Y,21.2941202,-157.841812
MLS Listing,,Condo/Co-op,320 Liliuokalani Ave #602,Honolulu,HI,96815,460000,2,1.0,WAIKIKI,684,,1978,22,673,1259,Active,,,https://www.redfin.com/HI/Honolulu/320-Liliuokalani-Ave-96815/unit-602/home/63774326,HiCentral MLS,202515587,N,Y,21.2771727,-157.8209543
MLS Listing,,Single Family Residential,2963 Koali Rd Unit D,Honolulu,HI,96826,575000,1,1.0,UNIVERSITY,435,2817,1940,22,1322,,Active,,,https://www.redfin.com/HI/Honolulu/2963-Koali-Rd-96826/unit-D/home/170362052,HiCentral MLS,202515794,N,Y,21.2913674,-157.8136889
MLS Listing,,Condo/Co-op,411 Hobron Ln #3402,Honolulu,HI,96815,530000,1,1.0,WAIKIKI,552,70611,1974,22,960,1029,Active,,,https://www.redfin.com/HI/Honolulu/411-Hobron-Ln-96815/unit-3402/home/88500117,HiCentral MLS,202515798,N,Y,21.2865092,-157.8364397
MLS Listing,,Condo/Co-op,1296 Kapiolani Blvd Unit II2407,Honolulu,HI,96814,845000,2,2.0,KAKAAKO,1113,,2007,22,759,1477,Active,August-3-2025 02:00 PM,August-3-2025 05:00 PM,https://www.redfin.com/HI/Honolulu/1296-Kapiolani-Blvd-96814/unit-II2407/home/196336535,HiCentral MLS,202515646,N,Y,21.2957121,-157.8466392
MLS Listing,,Condo/Co-op,3370 Salt Lake Blvd #204,Honolulu,HI,96818,338000,2,1.0,ALIAMANU,595,,1974,22,568,981,Active,,,https://www.redfin.com/HI/Honolulu/3370-Salt-Lake-Blvd-96818/unit-204/home/63988432,HiCentral MLS,202515217,N,Y,21.3449557,-157.916201
MLS Listing,,Condo/Co-op,545 Queen St #628,Honolulu,HI,96813,549000,1,1.0,KAKAAKO,628,,1995,22,874,738,Active,August-3-2025 02:00 PM,August-3-2025 05:00 PM,https://www.redfin.com/HI/Honolulu/545-Queen-St-96813/unit-628/home/88485984,HiCentral MLS,202515658,N,Y,21.303323,-157.8593538
MLS Listing,,Condo/Co-op,1519 Nuuanu Ave #1146,Honolulu,HI,96817,355000,2,1.0,DOWNTOWN,749,354186,1963,22,474,1392,Active,,,https://www.redfin.com/HI/Honolulu/1519-Nuuanu-Ave-96817/unit-1146/home/91471283,HiCentral MLS,202515735,N,Y,21.3148766,-157.8560703
MLS Listing,,Condo/Co-op,430 Kaiolu St #505,Honolulu,HI,96815,290500,1,1.0,WAIKIKI,627,16117,1961,22,463,705,Active,,,https://www.redfin.com/HI/Honolulu/430-Kaiolu-St-96815/unit-505/home/63816770,HiCentral MLS,202515147,N,Y,21.2828044,-157.8287392
MLS Listing,,Condo/Co-op,1026 Kalo Pl #506,Honolulu,HI,96826,455000,2,1.0,MOILIILI,685,45520,1964,23,664,702,Active,,,https://www.redfin.com/HI/Honolulu/1026-Kalo-Pl-96826/unit-506/home/88511082,HiCentral MLS,202515718,N,Y,21.2921513,-157.8204469
MLS Listing,,Single Family Residential,101 Kawananakoa Pl,Honolulu,HI,96817,1350000,3,2.0,NUUANU-LOWER,1424,7156,1953,23,948,,Active,,,https://www.redfin.com/HI/Honolulu/101-Kawananakoa-Pl-96817/home/88482865,HiCentral MLS,202515738,N,Y,21.3280899,-157.8499692
MLS Listing,,Condo/Co-op,1177 Queen St #1805,Honolulu,HI,96814,1085000,2,2.0,KAKAAKO,1157,,2006,23,938,1601,Active,,,https://www.redfin.com/HI/Honolulu/1177-Queen-St-96814/unit-1805/home/63758907,HiCentral MLS,202515787,N,Y,21.29342,-157.849211
MLS Listing,,Condo/Co-op,410 Atkinson Dr #1716,Honolulu,HI,96814,235000,0,1.0,ALA MOANA,297,,1970,23,791,1401,Active,,,https://www.redfin.com/HI/Honolulu/410-Atkinson-Dr-96814/unit-1716/home/88458654,HiCentral MLS,202515713,N,Y,21.2901551,-157.8395601
MLS Listing,,Condo/Co-op,1600 Ala Moana Blvd #306,Honolulu,HI,96815,705000,1,1.0,ALA MOANA,1194,138216,1973,23,590,1700,Active,,,https://www.redfin.com/HI/Honolulu/1600-Ala-Moana-Blvd-96815/unit-306/home/63844218,HiCentral MLS,202515775,N,Y,21.2891365,-157.840927
MLS Listing,,Condo/Co-op,410 Atkinson Dr #2122,Honolulu,HI,96814,230000,0,1.0,ALA MOANA,297,,1970,23,774,1401,Active,,,https://www.redfin.com/HI/Honolulu/410-Atkinson-Dr-96814/unit-2122/home/63823508,HiCentral MLS,202515717,N,Y,21.2901551,-157.8395601
MLS Listing,,Condo/Co-op,225 Queen St Unit 14A,Honolulu,HI,96813,430000,2,2.0,DOWNTOWN,704,67910,1971,23,611,1356,Active,,,https://www.redfin.com/HI/Honolulu/225-Queen-St-96813/unit-14A/home/63819508,HiCentral MLS,202515783,N,Y,21.30666,-157.8621003
MLS Listing,,Condo/Co-op,909 Kapiolani Blvd #2002,Honolulu,HI,96814,739000,2,2.0,KAKAAKO,839,,2007,23,881,1234,Active,,,https://www.redfin.com/HI/Honolulu/909-Kapiolani-Blvd-96814/unit-2002/home/91471778,HiCentral MLS,202515747,N,Y,21.2981193,-157.8526006
MLS Listing,,Multi-Family (5+ Unit),2831 Winam Ave,Honolulu,HI,96816,1688000,,,KAPAHULU,3365,4929,1938,23,502,,Active,,,https://www.redfin.com/HI/Honolulu/2831-Winam-Ave-96816/home/64018785,HiCentral MLS,202515592,N,Y,21.2832259,-157.816297
