SALE TYPE,SOLD DATE,PROPERTY TYPE,ADDRESS,CITY,STATE OR PROVINCE,ZIP OR POSTAL CODE,PRICE,BEDS,BATHS,LOCATION,SQUARE FEET,LOT SIZE,YEAR BUILT,DAYS ON MARKET,$/SQUARE FEET,HOA/MONTH,STATUS,NEXT OPEN HOUSE START TIME,NEXT OPEN HOUSE END TIME,URL (SEE https://www.redfin.com/buy-a-home/comparative-market-analysis FOR INFO ON PRICING),SOURCE,MLS#,FAVORITE,INTERESTED,LATITUDE,LONGITUDE
"In accordance with local MLS rules, some MLS listings are not included in the download"
MLS Listing,,Condo/Co-op,2103 Snapdragon Cir SW,Cedar Rapids,IA,52404,299900,3,3.0,Cedar Rapids,1367,,2016,1,219,225,Active,,,https://www.redfin.com/IA/Cedar-Rapids/2103-Snapdragon-Cir-SW-52404/home/145569815,"CRAAR, CDRMLS",2506685,N,Y,41.9537233,-91.699497
MLS Listing,,Single Family Residential,3328 Riverside Dr NE,Cedar Rapids,IA,52411,334000,4,2.5,Cedar Rapids,2154,15159,1992,1,155,11,Active,,,https://www.redfin.com/IA/Cedar-Rapids/3328-Riverside-Dr-NE-52411/home/121107549,"CRAAR, CDRMLS",2506653,N,Y,42.0142407,-91.7105774
MLS Listing,,Condo/Co-op,905 3rd St SE #205,Cedar Rapids,IA,52401,290000,1,2.0,Cedar Rapids,1220,,1946,1,238,557,Active,August-3-2025 11:30 AM,August-3-2025 01:00 PM,https://www.redfin.com/IA/Cedar-Rapids/905-3rd-St-SE-52401/unit-205/home/121165734,"CRAAR, CDRMLS",2506591,N,Y,41.9722065,-91.6607584
MLS Listing,,Condo/Co-op,51 29th Ave Dr SW #9,Cedar Rapids,IA,52404,139500,3,2.0,Cedar Rapids,1340,,1973,1,104,263,Active,,,https://www.redfin.com/IA/Cedar-Rapids/51-29th-Avenue-Dr-SW-52404/unit-9/home/121843280,"CRAAR, CDRMLS",2506683,N,Y,41.9485147,-91.6556297
MLS Listing,,Single Family Residential,1137 18th Ave SW,Cedar Rapids,IA,52404,127700,3,1.0,Cedar Rapids,884,5600,1946,1,144,,Active,,,https://www.redfin.com/IA/Cedar-Rapids/1137-18th-Ave-SW-52404/home/121272761,"CRAAR, CDRMLS",2506680,N,Y,41.9606496,-91.6851095
MLS Listing,,Condo/Co-op,4113 Lark Ct NE,Cedar Rapids,IA,52402,259950,3,2.5,Cedar Rapids,2364,,1989,1,110,150,Active,,,https://www.redfin.com/IA/Cedar-Rapids/4113-Lark-Ct-NE-52402/home/121534894,"CRAAR, CDRMLS",2506681,N,Y,42.0208999,-91.6904904
MLS Listing,,Single Family Residential,233 26th Ave SW,Cedar Rapids,IA,52404,130000,2,1.0,Cedar Rapids,1363,7710,1915,1,95,,Active,,,https://www.redfin.com/IA/Cedar-Rapids/233-26th-Ave-SW-52404/home/121503780,"CRAAR, CDRMLS",2506645,N,Y,41.9521238,-91.6662165
MLS Listing,,Single Family Residential,630 21st Ave SW,Cedar Rapids,IA,52404,185000,3,1.0,Cedar Rapids,1465,5680,1955,1,126,,Active,,,https://www.redfin.com/IA/Cedar-Rapids/630-21st-Ave-SW-52404/home/121827971,"CRAAR, CDRMLS",2506676,N,Y,41.957848,-91.6783278
MLS Listing,,Single Family Residential,6812 Kelburn Ln NE,Cedar Rapids,IA,52402,222000,3,1.5,Cedar Rapids,1338,6360,1971,1,166,,Active,,,https://www.redfin.com/IA/Cedar-Rapids/6812-Kelburn-Ln-NE-52402/home/121098133,"CRAAR, CDRMLS",2506671,N,Y,42.0464969,-91.6599504
MLS Listing,,Single Family Residential,1342 Hinkley Ave NW,Cedar Rapids,IA,52405,125000,2,1.0,Cedar Rapids,887,5619,1913,1,141,,Active,,,https://www.redfin.com/IA/Cedar-Rapids/1342-Hinkley-Ave-NW-52405/home/120998087,"CRAAR, CDRMLS",2506669,N,Y,41.9741195,-91.6909905
MLS Listing,,Single Family Residential,3840 Holly Dr SW,Cedar Rapids,IA,52404,374900,3,3.0,TWIN LAKES ESTATE,2144,44431,1987,1,175,,Active,,,https://www.redfin.com/IA/Cedar-Rapids/3840-Holly-Dr-SW-52404/home/121980011,ICAARMLS,202504924,N,Y,41.924265,-91.6117471
MLS Listing,,Single Family Residential,6810 Idlebrook Ln NE,Cedar Rapids,IA,52402,209000,4,2.0,Cedar Rapids,1976,6839,1976,1,106,,Active,,,https://www.redfin.com/IA/Cedar-Rapids/6810-Idlebrook-Ln-NE-52402/home/120890072,"CRAAR, CDRMLS",2506635,N,Y,42.0464219,-91.6638404
MLS Listing,,Single Family Residential,511 18th St St SE,Cedar Rapids,IA,52403,24900,2,1.0,Cedar Rapids,1119,1742,1913,1,22,,Active,,,https://www.redfin.com/IA/Cedar-Rapids/511-18th-St-SE-52403/home/121045256,"CRAAR, CDRMLS",2506631,N,Y,41.9821267,-91.6449591
MLS Listing,,Single Family Residential,2855 Mary Green Rd,Hiawatha,IA,52233,339990,4,3.0,Hiawatha,2191,10890,2024,1,155,8,Active,,,https://www.redfin.com/IA/Hiawatha/2855-Mary-Green-Rd-52233/home/188678739,"CRAAR, CDRMLS",2506660,N,Y,42.0709414,-91.7090704
MLS Listing,,Condo/Co-op,160 Bethany Loop SW Unit D,Cedar Rapids,IA,52404,274000,3,2.5,FIRST ADDITION,1432,,2025,1,191,159,Active,,,https://www.redfin.com/IA/Cedar-Rapids/160-Bethany-Loop-SW-52404/unit-D/home/195024402,ICAARMLS,202504919,N,Y,41.8938093,-91.6597903
MLS Listing,,Condo/Co-op,160 Bethany Loop SW Unit C,Cedar Rapids,IA,52404,270000,3,2.5,FIRST ADDITION,1430,,2025,1,189,159,Active,,,https://www.redfin.com/IA/Cedar-Rapids/160-Bethany-Loop-SW-52404/unit-C/home/195024405,ICAARMLS,202504918,N,Y,41.8938093,-91.6597903
MLS Listing,,Condo/Co-op,160 Bethany Loop SW Unit B,Cedar Rapids,IA,52404,270000,3,2.5,FIRST ADDITION,1430,,2025,1,189,159,Active,,,https://www.redfin.com/IA/Cedar-Rapids/160-Bethany-Loop-SW-52404/unit-B/home/195024084,ICAARMLS,202504916,N,Y,41.8938093,-91.6597903
MLS Listing,,Condo/Co-op,160 Bethany Loop SW Unit A,Cedar Rapids,IA,52404,274000,3,2.5,FIRST ADDITION,1432,,2025,1,191,159,Active,,,https://www.redfin.com/IA/Cedar-Rapids/160-Bethany-Loop-SW-52404/unit-A/home/195024085,ICAARMLS,202504915,N,Y,41.8938093,-91.6597903
MLS Listing,,Single Family Residential,3322 Riverside Dr NE,Cedar Rapids,IA,52411,360000,4,3.5,Cedar Rapids,3059,16117,1992,1,118,12,Active,August-3-2025 12:00 PM,August-3-2025 02:00 PM,https://www.redfin.com/IA/Cedar-Rapids/3322-Riverside-Dr-NE-52411/home/121161902,"CRAAR, CDRMLS",2506632,N,Y,42.0140763,-91.7103799
MLS Listing,,Single Family Residential,615 34th St NE,Cedar Rapids,IA,52402,225000,3,1.5,Cedar Rapids,1625,7400,1920,1,138,,Active,,,https://www.redfin.com/IA/Cedar-Rapids/615-34th-St-NE-52402/home/121162574,"CRAAR, CDRMLS",2506654,N,Y,42.0121758,-91.6415958
MLS Listing,,Single Family Residential,6706 Lauder Ln NE,Cedar Rapids,IA,52411,709927,5,3.0,Wexford Heights,3236,23205,2025,1,219,21,Active,,,https://www.redfin.com/IA/Cedar-Rapids/6706-Lauder-Ln-NE-52411/home/182695917,ICAARMLS,202504912,N,Y,42.0450286,-91.7318252
MLS Listing,,Single Family Residential,6506 Rapids Ridge Rd NE,Cedar Rapids,IA,52411,765000,5,3.0,Cedar Rapids,3295,14985,2023,1,232,,Active,,,https://www.redfin.com/IA/Cedar-Rapids/6506-Rapids-Ridge-Rd-NE-52411/home/182695895,"CRAAR, CDRMLS",2506619,N,Y,42.0469686,-91.7318873
MLS Listing,,Single Family Residential,716 Ellis Blvd NW,Cedar Rapids,IA,52405,142500,3,1.0,Cedar Rapids,1052,2400,1908,1,135,,Active,,,https://www.redfin.com/IA/Cedar-Rapids/716-Ellis-Blvd-NW-52405/home/121747740,"CRAAR, CDRMLS",2506640,N,Y,41.9796241,-91.6822162
MLS Listing,,Condo/Co-op,5712 Golden Ct NE #60,Cedar Rapids,IA,52402,116000,2,2.0,Cedar Rapids,1136,,1977,2,102,220,Active,August-2-2025 11:00 AM,August-2-2025 12:30 PM,https://www.redfin.com/IA/Cedar-Rapids/5712-Golden-Ct-NE-52402/unit-60/home/121183592,"CRAAR, CDRMLS",2506634,N,Y,42.035849,-91.639875
MLS Listing,,Single Family Residential,1106 Elmhurst Dr,Cedar Rapids,IA,52402,69000,3,1.0,Cedar Rapids,1248,5706,1915,2,55,,Active,,,https://www.redfin.com/IA/Cedar-Rapids/1106-Elmhurst-Dr-NE-52402/home/120909669,"CRAAR, CDRMLS",2506633,N,Y,41.9996588,-91.6540243
MLS Listing,,Single Family Residential,2827 Wilson Ave SW,Cedar Rapids,IA,52404,120000,2,2.0,Cedar Rapids,1105,14636,1941,2,109,,Active,,,https://www.redfin.com/IA/Cedar-Rapids/2827-Wilson-Ave-SW-52404/home/122084705,"CRAAR, CDRMLS",2506630,N,Y,41.9561751,-91.7098489
MLS Listing,,Single Family Residential,3104 Woodland Dr Dr SW,Cedar Rapids,IA,52404,175000,3,2.0,SW Quadrant,1290,16117,1975,2,136,,Active,August-2-2025 12:00 PM,August-2-2025 01:30 PM,https://www.redfin.com/IA/Cedar-Rapids/3104-Woodland-Dr-SW-52404/home/121719382,ICAARMLS,202504897,N,Y,41.946363,-91.6660409
MLS Listing,,Single Family Residential,1116 Regent St St NE,Cedar Rapids,IA,52402,185000,3,1.5,Noelridge,1440,6534,1955,2,128,,Active,,,https://www.redfin.com/IA/Cedar-Rapids/1116-Regent-St-NE-52402/home/121580638,ICAARMLS,202504892,N,Y,42.0246081,-91.6517087
MLS Listing,,Condo/Co-op,3515 E Ave NW Unit D,Cedar Rapids,IA,52405,120000,2,2.0,Cedar Rapids,975,,1999,2,123,170,Active,,,https://www.redfin.com/IA/Cedar-Rapids/3515-E-Ave-NW-52405/unit-D/home/180807026,"CRAAR, CDRMLS",2506625,N,Y,41.9768394,-91.7176557
MLS Listing,,Single Family Residential,2845 Mary Dr,Hiawatha,IA,52233,359990,5,3.0,Hiawatha,2462,7841,2025,2,146,13,Active,,,https://www.redfin.com/IA/Hiawatha/2845-Mary-Dr-52233/home/188678904,"CRAAR, CDRMLS",2506624,N,Y,42.0724146,-91.7057073
MLS Listing,,Single Family Residential,2065 Rosewood Dr NW,Cedar Rapids,IA,52405,225000,2,1.0,Cedar Rapids,946,,2014,2,238,8,Active,,,https://www.redfin.com/IA/Cedar-Rapids/2065-Rosewood-Dr-NW-52405/home/122090150,"CRAAR, CDRMLS",2506616,N,Y,41.9980775,-91.7023415
MLS Listing,,Single Family Residential,8926 Norway Dr NE,Cedar Rapids,IA,52402,370000,3,2.0,Cedar Rapids,1360,6621,2025,2,272,,Active,,,https://www.redfin.com/IA/Cedar-Rapids/8926-Norway-Dr-NE-52402/home/168209574,"CRAAR, CDRMLS",2506613,N,Y,42.066028,-91.655942
MLS Listing,,Condo/Co-op,819 Tumble Grass Ct SE,Cedar Rapids,IA,52403,525000,3,3.0,Cedar Rapids,2414,,2025,2,217,415,Active,,,https://www.redfin.com/IA/Cedar-Rapids/819-Tumble-Grass-Ct-SE-52403/home/196693797,"CRAAR, CDRMLS",2506612,N,Y,41.979563,-91.580815
MLS Listing,,Single Family Residential,341 34th St SE,Cedar Rapids,IA,52403,434700,3,3.5,Cedar Rapids,2765,29621,1964,2,157,,Active,August-3-2025 01:00 PM,August-3-2025 02:00 PM,https://www.redfin.com/IA/Cedar-Rapids/341-34th-St-SE-52403/home/121359834,"CRAAR, CDRMLS",2506597,N,Y,41.9857824,-91.6191178
MLS Listing,,Condo/Co-op,827 Tumble Grass Ct SE,Cedar Rapids,IA,52403,485000,3,3.0,Cedar Rapids,2348,,2025,2,207,415,Active,,,https://www.redfin.com/IA/Cedar-Rapids/827-Tumble-Grass-Ct-SE-52403/home/196693763,"CRAAR, CDRMLS",2506611,N,Y,41.9794747,-91.5808407
MLS Listing,,Single Family Residential,5655 Deerwood St St SW,Cedar Rapids,IA,52404,296000,4,2.5,Cedar Rapids,2102,8712,1996,3,141,,Active,,,https://www.redfin.com/IA/Cedar-Rapids/5655-Deerwood-St-SW-52404/home/122130008,ICAARMLS,202504878,N,Y,41.917874,-91.6581491
MLS Listing,,Single Family Residential,2426 Deborah Dr SW,Cedar Rapids,IA,52404,220000,4,2.5,Cedar Rapids,1970,7187,1955,3,112,,Active,,,https://www.redfin.com/IA/Cedar-Rapids/2426-Deborah-Dr-SW-52404/home/122100835,"CRAAR, CDRMLS",2506604,N,Y,41.9543046,-91.6512503
MLS Listing,,Single Family Residential,200 Cherry Park Dr Dr NW,Cedar Rapids,IA,52405,525000,5,3.0,,3236,27007,2024,3,162,,Active,,,https://www.redfin.com/IA/Cedar-Rapids/200-Cherry-Park-Dr-NW-52405/home/121360912,ICAARMLS,202504873,N,Y,41.976837,-91.747791
MLS Listing,,Single Family Residential,2325 Grande Ave SE,Cedar Rapids,IA,52403,399950,4,4.0,Cedar Rapids,4335,20604,1919,3,92,,Active,August-3-2025 01:00 PM,August-3-2025 02:30 PM,https://www.redfin.com/IA/Cedar-Rapids/2325-Grande-Ave-SE-52403/home/122033080,"CRAAR, CDRMLS",2506595,N,Y,41.9861716,-91.6331753
MLS Listing,,Multi-Family (2-4 Unit),1211 2nd Ave Ave SE,Cedar Rapids,IA,52403,199000,,,Cedar Rapids,3667,6970,1880,3,54,,Active,,,https://www.redfin.com/IA/Cedar-Rapids/1211-2nd-Ave-SE-52403/home/178294963,"CRAAR, CDRMLS",2506593,N,Y,41.9841,-91.6562469
MLS Listing,,Single Family Residential,807 21st Ave Ave SW,Cedar Rapids,IA,52404,169900,3,1.0,Cedar Rapids,1131,5600,1940,3,150,,Active,,,https://www.redfin.com/IA/Cedar-Rapids/807-21st-Ave-SW-52404/home/122084493,ICAARMLS,202504862,N,Y,41.9575128,-91.6800741
MLS Listing,,Single Family Residential,2007 Franklin Ave NE,Cedar Rapids,IA,52402,239900,3,1.0,Cedar Rapids,1312,7710,1947,3,183,,Active,,,https://www.redfin.com/IA/Cedar-Rapids/2007-Franklin-Ave-NE-52402/home/121013842,"CRAAR, CDRMLS",2506589,N,Y,42.0015718,-91.6455541
MLS Listing,,Single Family Residential,414 22nd St NE,Cedar Rapids,IA,52402,142500,2,1.0,Cedar Rapids,904,5009,1924,3,158,,Active,,,https://www.redfin.com/IA/Cedar-Rapids/414-22nd-St-NE-52402/home/121678347,"CRAAR, CDRMLS",2506572,N,Y,41.9994735,-91.6415985
MLS Listing,,Condo/Co-op,4599 NE Summerset Ave,Cedar Rapids,IA,52402,254900,2,2.0,Cedar Rapids,1389,,2018,3,184,210,Active,,,https://www.redfin.com/IA/Cedar-Rapids/4599-Summerset-Ave-NE-52402/home/196682410,NEIRBR as distributed by MLS GRID,20253610,N,Y,42.051597,-91.6443479
MLS Listing,,Single Family Residential,2323 D Ave NE,Cedar Rapids,IA,52402,135000,2,1.0,Cedar Rapids,1286,5600,1927,3,105,,Active,,,https://www.redfin.com/IA/Cedar-Rapids/2323-D-Ave-NE-52402/home/120851706,"CRAAR, CDRMLS",2506582,N,Y,42.0009191,-91.641482
MLS Listing,,Single Family Residential,306 Linden Ter SE,Cedar Rapids,IA,52403,325000,3,2.5,Cedar Rapids,2772,15000,1981,3,117,,Active,,,https://www.redfin.com/IA/Cedar-Rapids/306-Linden-Ter-SE-52403/home/121084022,"CRAAR, CDRMLS",2506548,N,Y,41.9898524,-91.6322612
MLS Listing,,Single Family Residential,3035 12th Ave SE,Cedar Rapids,IA,52403,245000,3,2.5,Cedar Rapids,2320,35327,1946,4,106,,Active,,,https://www.redfin.com/IA/Cedar-Rapids/3035-12th-Ave-SE-52403/home/121780655,"CRAAR, CDRMLS",2506559,N,Y,41.9738312,-91.6218458
MLS Listing,,Single Family Residential,6201 Lakeside Rd,Marion,IA,52302,2750000,5,4.5,Marion,7934,1162616,1997,4,347,,Active,,,https://www.redfin.com/IA/Marion/6201-Lakeside-Rd-52302/home/170182902,"CRAAR, CDRMLS",2506566,N,Y,42.003551,-91.574017
MLS Listing,,Single Family Residential,2100 Carolina Dr NE,Cedar Rapids,IA,52402,210000,3,2.0,Cedar Rapids,1717,8407,1962,4,122,,Active,,,https://www.redfin.com/IA/Cedar-Rapids/2100-Carolina-Dr-NE-52402/home/120909122,"CRAAR, CDRMLS",2506551,N,Y,42.0169044,-91.6705462
MLS Listing,,Single Family Residential,1510 Washington Ave SE,Cedar Rapids,IA,52403,139950,4,1.0,Cedar Rapids,1429,3528,1895,4,98,,Active,August-3-2025 12:00 PM,August-3-2025 01:00 PM,https://www.redfin.com/IA/Cedar-Rapids/1510-Washington-Ave-SE-52403/home/121840833,"CRAAR, CDRMLS",2506549,N,Y,41.9859577,-91.6499222
MLS Listing,,Condo/Co-op,7599 NE Summerset Ave,Cedar Rapids,IA,52402,254900,2,2.0,Cedar Rapids,1389,,2018,4,184,210,Active,,,https://www.redfin.com/IA/Cedar-Rapids/7599-Summerset-Ave-NE-52402/home/147604516,ICAARMLS,202504851,N,Y,42.0534858,-91.6443393
MLS Listing,,Condo/Co-op,1724 Applewood Pl NE,Cedar Rapids,IA,52402,167500,2,1.5,Cedar Rapids,1220,,1974,4,137,206,Active,August-3-2025 12:00 PM,August-3-2025 01:30 PM,https://www.redfin.com/IA/Cedar-Rapids/1724-Applewood-Pl-NE-52402/home/121277371,"CRAAR, CDRMLS",2506544,N,Y,42.0064643,-91.6777951
MLS Listing,,Single Family Residential,3824 Dalewood Ave SE,Cedar Rapids,IA,52403,168500,3,1.5,Cedar Rapids,1240,9148,1956,6,136,,Active,,,https://www.redfin.com/IA/Cedar-Rapids/3824-Dalewood-Ave-SE-52403/home/122106125,"CRAAR, CDRMLS",2506534,N,Y,41.9786646,-91.6131775
MLS Listing,,Single Family Residential,1933 4th Ave Ave SE,Cedar Rapids,IA,52403,219900,5,2.5,Cedar Rapids,2332,8276,1908,6,94,,Active,,,https://www.redfin.com/IA/Cedar-Rapids/1933-4th-Ave-SE-52403/home/121547408,"CRAAR, CDRMLS",2506532,N,Y,41.9831738,-91.641566
MLS Listing,,Single Family Residential,4157 Lakeview Dr Dr SW,Cedar Rapids,IA,52404,250000,3,2.5,Cedar Rapids,1741,,2001,7,144,300,Active,,,https://www.redfin.com/IA/Cedar-Rapids/4157-Lakeview-Dr-SW-52404/home/121391684,ICAARMLS,202504802,N,Y,41.938714,-91.7617648
MLS Listing,,Single Family Residential,2207 Shady Grove Rd SW,Cedar Rapids,IA,52404,365000,3,3.5,Cedar Rapids,2074,8276,2018,7,176,,Active,August-3-2025 02:00 PM,August-3-2025 03:30 PM,https://www.redfin.com/IA/Cedar-Rapids/2207-Shady-Grove-Rd-SW-52404/home/141352946,ICAARMLS,202504834,N,Y,41.9602843,-91.7026424
MLS Listing,,Single Family Residential,4928 Mcgowan Dr,Cedar Rapids,IA,52403,355000,4,2.0,Cedar Rapids,2017,41426,1924,7,176,,Active,,,https://www.redfin.com/IA/Cedar-Rapids/4928-McGowan-Dr-52403/home/121034829,"CRAAR, CDRMLS",2506523,N,Y,41.9826605,-91.5893314
MLS Listing,,Single Family Residential,3101 C Ave NE,Cedar Rapids,IA,52402,164000,4,1.5,Cedar Rapids,1059,6926,1890,7,155,,Active,,,https://www.redfin.com/IA/Cedar-Rapids/3101-C-Ave-NE-52402/home/121132285,"CRAAR, CDRMLS",2506525,N,Y,42.0088644,-91.638607
MLS Listing,,Single Family Residential,334 32nd St St NW,Cedar Rapids,IA,52405,200000,3,1.5,HUSTONS 1ST,1540,8712,1960,7,130,,Active,,,https://www.redfin.com/IA/Cedar-Rapids/334-32nd-St-NW-52405/home/122025365,ICAARMLS,202504830,N,Y,41.9759704,-91.7137961
MLS Listing,,Single Family Residential,1813 Northbrook Dr,Cedar Rapids,IA,52402,250000,4,1.5,Cedar Rapids,1354,9583,1972,7,185,,Active,August-3-2025 12:30 PM,August-3-2025 02:00 PM,https://www.redfin.com/IA/Cedar-Rapids/1813-Northbrook-Dr-NE-52402/home/120791348,"CRAAR, CDRMLS",2506383,N,Y,42.0426508,-91.6639707
MLS Listing,,Single Family Residential,4000 Richland Dr Dr NW,Cedar Rapids,IA,52405,424900,4,3.5,Cedar Rapids,3075,11761,1994,7,138,,Active,,,https://www.redfin.com/IA/Cedar-Rapids/4000-Richland-Dr-NW-52405/home/122075133,ICAARMLS,202504822,N,Y,41.9927595,-91.7234554
MLS Listing,,Single Family Residential,408 4th Ave SW,Cedar Rapids,IA,52404,235000,3,2.5,Cedar Rapids,1534,4182,2024,7,153,,Active,August-3-2025 02:00 PM,August-3-2025 03:30 PM,https://www.redfin.com/IA/Cedar-Rapids/408-4th-Ave-SW-52404/home/121794369,"CRAAR, CDRMLS",2506503,N,Y,41.9722135,-91.6761484
MLS Listing,,Single Family Residential,2827 Belle St SW,Cedar Rapids,IA,52404,358000,3,3.5,Cedar Rapids,2818,8407,2020,7,127,,Active,August-3-2025 12:00 PM,August-3-2025 01:30 PM,https://www.redfin.com/IA/Cedar-Rapids/2827-Belle-St-SW-52404/home/177650309,"CRAAR, CDRMLS",2506448,N,Y,41.951046,-91.7518128
MLS Listing,,Single Family Residential,1051 35th St NE,Cedar Rapids,IA,52402,207900,3,1.5,Cedar Rapids,1451,11587,1939,7,143,,Active,,,https://www.redfin.com/IA/Cedar-Rapids/1051-35th-St-NE-52402/home/122002715,"CRAAR, CDRMLS",2506508,N,Y,42.0136269,-91.6502202
MLS Listing,,Condo/Co-op,8410 Woodstone Ct Ct SW,Cedar Rapids,IA,52404,265000,3,2.0,Cedar Rapids,2023,7841,2004,7,131,,Active,,,https://www.redfin.com/IA/Cedar-Rapids/8410-Woodstone-Ct-SW-52404/home/121327501,ICAARMLS,202504815,N,Y,41.8970759,-91.6578248
MLS Listing,,Condo/Co-op,3620 SE Mt Vernon Rd #11,Cedar Rapids,IA,52403,105000,2,2.0,Cedar Rapids,1385,1,1973,7,76,198,Active,,,https://www.redfin.com/IA/Cedar-Rapids/3620-Mount-Vernon-Rd-SE-52403/unit-11/home/121216966,NEIRBR as distributed by MLS GRID,20253561,N,Y,41.9772547,-91.6157437
MLS Listing,,Single Family Residential,2121 Rosewood Dr NW,Cedar Rapids,IA,52405,240000,2,2.0,Cedar Rapids,925,6098,2013,7,259,17,Active,August-3-2025 12:00 PM,August-3-2025 01:30 PM,https://www.redfin.com/IA/Cedar-Rapids/2121-Rosewood-Dr-NW-52405/home/121880203,"CRAAR, CDRMLS",2506335,N,Y,41.9986772,-91.7031334
MLS Listing,,Single Family Residential,1002 5th St St NW,Cedar Rapids,IA,52405,174900,3,2.0,Cedar Rapids,1444,6534,1895,7,121,,Active,,,https://www.redfin.com/IA/Cedar-Rapids/1002-5th-St-NW-52405/home/121819612,ICAARMLS,202504405,N,Y,41.9818548,-91.6798509
MLS Listing,,Single Family Residential,1515 Fox Trail Dr Dr NE,Cedar Rapids,IA,52402,335000,4,3.5,NE QUADRANT,2500,8712,1994,7,134,,Active,August-3-2025 12:00 PM,August-3-2025 01:30 PM,https://www.redfin.com/IA/Cedar-Rapids/1515-Fox-Trail-Dr-NE-52402/home/121303245,ICAARMLS,202504811,N,Y,42.0544401,-91.6590521
MLS Listing,,Single Family Residential,5304 Tower Terrace Rd,Cedar Rapids,IA,52411,670000,5,3.0,Cedar Rapids,2080,443876,1977,8,322,,Active,,,https://www.redfin.com/IA/Cedar-Rapids/5304-Tower-Terrace-Rd-52411/home/170178405,"CRAAR, CDRMLS",2506431,N,Y,42.0639676,-91.7119929
MLS Listing,,Condo/Co-op,725 E Post Ct SE,Cedar Rapids,IA,52403,229900,2,3.0,Oakwoods Condos,2059,,1987,8,112,323,Active,,,https://www.redfin.com/IA/Cedar-Rapids/725-E-Post-Ct-SE-52403/home/121666040,ICAARMLS,202504807,N,Y,41.9781632,-91.6060903
MLS Listing,,Single Family Residential,421 Dunreath Dr NE,Cedar Rapids,IA,52402,149500,2,1.0,Cedar Rapids,864,5924,1926,8,173,,Active,,,https://www.redfin.com/IA/Cedar-Rapids/421-Dunreath-Dr-NE-52402/home/121082024,"CRAAR, CDRMLS",2506356,N,Y,41.9967066,-91.6458778
MLS Listing,,Single Family Residential,826 Wellington St SE,Cedar Rapids,IA,52403,143000,2,1.0,Cedar Rapids,992,,1925,8,144,,Active,August-2-2025 01:00 PM,August-2-2025 03:00 PM,https://www.redfin.com/IA/Cedar-Rapids/826-Wellington-St-SE-52403/home/122137083,"CRAAR, CDRMLS",2506486,N,Y,41.9784941,-91.6450741
MLS Listing,,Single Family Residential,2200 Fruitland Blvd SW,Cedar Rapids,IA,52404,49900,2,1.0,Cedar Rapids,1536,,1946,8,32,,Active,,,https://www.redfin.com/IA/Cedar-Rapids/2200-Fruitland-Blvd-SW-52404/home/120854802,"CRAAR, CDRMLS",2506456,N,Y,41.9566105,-91.6494382
MLS Listing,,Single Family Residential,715 SW 9th Ave,Cedar Rapids,IA,52404,175000,3,1.0,Cedar Rapids,1248,,1910,8,140,,Active,,,https://www.redfin.com/IA/Cedar-Rapids/715-9th-Ave-SW-52404/home/121511919,ICAARMLS,202504792,N,Y,41.9673584,-91.6789909
MLS Listing,,Condo/Co-op,815 SE Edward Ct,Cedar Rapids,IA,52403,135000,2,2.0,BRODERICK'S 12TH LOT 2 EX,1126,,1989,8,120,200,Active,,,https://www.redfin.com/IA/Cedar-Rapids/815-Edward-Ct-SE-52403/home/121440598,ICAARMLS,202504790,N,Y,42.021759,-91.618173
MLS Listing,,Condo/Co-op,600 Colton Cir NE #6,Cedar Rapids,IA,52402,120000,2,1.0,Cedar Rapids,923,,2002,8,130,175,Active,,,https://www.redfin.com/IA/Cedar-Rapids/600-Colton-Cir-NE-52402/unit-6/home/122006484,"CRAAR, CDRMLS",2506449,N,Y,42.0487519,-91.6407423
MLS Listing,,Single Family Residential,211 26th St Dr SE,Cedar Rapids,IA,52403,319500,3,2.0,Cedar Rapids,2426,8843,1941,8,132,,Active,,,https://www.redfin.com/IA/Cedar-Rapids/211-26th-Street-Dr-SE-52403/home/121806055,"CRAAR, CDRMLS",2506351,N,Y,42.0019313,-91.6328727
MLS Listing,,Single Family Residential,207 Cherry Park Dr Dr NW,Cedar Rapids,IA,52405,375000,4,3.0,Cedar Rapids,2304,10890,2008,9,163,,Active,August-7-2025 05:00 PM,August-7-2025 06:30 PM,https://www.redfin.com/IA/Cedar-Rapids/207-Cherry-Park-Dr-NW-52405/home/120802617,ICAARMLS,202504783,N,Y,41.9760551,-91.7476022
MLS Listing,,Condo/Co-op,714 Stone Hedge Ct Ct NW,Cedar Rapids,IA,52405,340000,4,3.0,Stoney Point,2591,,2009,9,131,260,Active,,,https://www.redfin.com/IA/Cedar-Rapids/714-Stone-Hedge-Ct-NW-52405/home/121995663,ICAARMLS,202504774,N,Y,41.9779237,-91.7564949
MLS Listing,,Condo/Co-op,5708 Dostal Dr SW,Cedar Rapids,IA,52404,270000,3,3.0,Cedar Rapids,2106,6273,2011,9,128,,Active,,,https://www.redfin.com/IA/Cedar-Rapids/5708-Dostal-Dr-SW-52404/home/121472139,"CRAAR, CDRMLS",2506430,N,Y,41.9474208,-91.7444776
MLS Listing,,Single Family Residential,6612 Inwood Ln NE,Cedar Rapids,IA,52402,205000,3,1.5,Cedar Rapids,1268,8276,1971,10,162,,Active,,,https://www.redfin.com/IA/Cedar-Rapids/6612-Inwood-Ln-NE-52402/home/121905369,"CRAAR, CDRMLS",2506345,N,Y,42.045181,-91.6609517
MLS Listing,,Single Family Residential,1702 Timber Wolf Trl Trl SE,Cedar Rapids,IA,52403,1650000,3,2.5,Cedar Rapids,4672,137650,2008,10,353,250,Active,,,https://www.redfin.com/IA/Cedar-Rapids/1702-Timber-Wolf-Trl-SE-52403/home/121979259,"CRAAR, CDRMLS",2506324,N,Y,41.9960993,-91.5856916
MLS Listing,,Single Family Residential,4325 Orchard Dr NW,Cedar Rapids,IA,52405,249400,4,3.0,Cedar Rapids,1939,8320,1979,10,129,,Active,,,https://www.redfin.com/IA/Cedar-Rapids/4325-Orchard-Dr-NW-52405/home/121598950,"CRAAR, CDRMLS",2506400,N,Y,41.9796397,-91.7273761
MLS Listing,,Single Family Residential,1151 Plumwood Ct NE,Cedar Rapids,IA,52402,368000,3,2.5,Cedar Rapids,1978,18513,1976,10,186,,Active,,,https://www.redfin.com/IA/Cedar-Rapids/1151-Plumwood-Ct-NE-52402/home/121363881,"CRAAR, CDRMLS",2506386,N,Y,42.045339,-91.6237722
MLS Listing,,Condo/Co-op,1714 Pikes Peak Ct NE,Cedar Rapids,IA,52402,125900,2,2.0,Cedar Rapids,1232,,1979,10,102,200,Active,,,https://www.redfin.com/IA/Cedar-Rapids/1714-Pikes-Peak-Ct-NE-52402/home/120921242,"CRAAR, CDRMLS",2506363,N,Y,42.0057689,-91.6778296
MLS Listing,,Single Family Residential,3218 C Ave Ave NE,Cedar Rapids,IA,52402,195000,3,1.5,KENWOOD PARK,1100,6534,1940,10,177,,Active,August-2-2025 03:00 PM,August-2-2025 04:00 PM,https://www.redfin.com/IA/Cedar-Rapids/3218-C-Ave-NE-52402/home/120894903,ICAARMLS,202504744,N,Y,42.0105507,-91.6386419
MLS Listing,,Single Family Residential,3752 Oakland Rd NE,Cedar Rapids,IA,52402,199900,3,2.0,Cedar Rapids,960,8102,1956,10,208,,Active,,,https://www.redfin.com/IA/Cedar-Rapids/3752-Oakland-Rd-NE-52402/home/120868760,"CRAAR, CDRMLS",2506376,N,Y,42.0176917,-91.6541714
MLS Listing,,Single Family Residential,189 21st Ave Ave SW,Cedar Rapids,IA,52404,165000,2,1.0,Cedar Rapids,998,6042,1926,10,165,,Active,August-3-2025 12:00 PM,August-3-2025 01:30 PM,https://www.redfin.com/IA/Cedar-Rapids/189-21st-Ave-SW-52404/home/121910551,ICAARMLS,202504740,N,Y,41.9576014,-91.6633799
MLS Listing,,Condo/Co-op,3734 Stoneview Cir SW,Cedar Rapids,IA,52404,229000,2,2.5,Cedar Rapids,1684,,2005,10,136,150,Active,,,https://www.redfin.com/IA/Cedar-Rapids/3734-Stoneview-Cir-SW-52404/home/121189358,"CRAAR, CDRMLS",2506373,N,Y,41.943063,-91.750461
MLS Listing,,Single Family Residential,403 6th Ave SW,Cedar Rapids,IA,52404,174500,4,2.0,Cedar Rapids,1720,4966,1895,10,101,,Active,August-16-2025 01:00 PM,August-16-2025 02:30 PM,https://www.redfin.com/IA/Cedar-Rapids/403-6th-Ave-SW-52404/home/121445192,"CRAAR, CDRMLS",2506365,N,Y,41.9699775,-91.6749493
MLS Listing,,Ranch,2501 80th St SW,Cedar Rapids,IA,52404,15497332,,,Cedar Rapids,,7125980,,10,,,Active,,,https://www.redfin.com/IA/Cedar-Rapids/2501-80th-St-SW-52404/home/196531283,"CRAAR, CDRMLS",2506372,N,Y,41.9531139,-91.7744634
MLS Listing,,Single Family Residential,854 12th St NE,Cedar Rapids,IA,52402,109900,2,2.0,Cedar Rapids,662,5619,1915,10,166,,Active,,,https://www.redfin.com/IA/Cedar-Rapids/854-12th-St-NE-52402/home/121406677,"CRAAR, CDRMLS",2506371,N,Y,41.99441,-91.6636388
MLS Listing,,Single Family Residential,2525 SW Linwood St,Cedar Rapids,IA,52404,194500,3,1.0,Cedar Rapids,1086,9853,1954,10,179,,Active,August-3-2025 01:00 PM,August-3-2025 02:30 PM,https://www.redfin.com/IA/Cedar-Rapids/2525-Linwood-St-SW-52404/home/121085467,ICAARMLS,202504737,N,Y,41.9532323,-91.6756868
MLS Listing,,Single Family Residential,6614 Scarlet Rose Cir SW,Cedar Rapids,IA,52404,354900,3,2.0,Cedar Rapids,1427,10454,2021,11,249,,Active,,,https://www.redfin.com/IA/Cedar-Rapids/6614-Scarlet-Rose-Cir-SW-52404/home/177653688,"CRAAR, CDRMLS",2506364,N,Y,41.9132807,-91.630959
MLS Listing,,Single Family Residential,3618 Kegler Ct SE,Cedar Rapids,IA,52403,550000,4,3.5,Cedar Rapids,3694,38768,2006,11,149,,Active,,,https://www.redfin.com/IA/Cedar-Rapids/3618-Kegler-Ct-SE-52403/home/121061813,"CRAAR, CDRMLS",2506362,N,Y,41.9875191,-91.6149426
MLS Listing,,Single Family Residential,2857 Prairielight Dr,Hiawatha,IA,52233,409990,4,2.5,Hiawatha,2053,10019,2025,11,200,13,Active,,,https://www.redfin.com/IA/Hiawatha/2857-Prairielight-Dr-52233/home/188678772,"CRAAR, CDRMLS",2506360,N,Y,42.070086,-91.709866
MLS Listing,,Single Family Residential,2841 Mary Dr,Hiawatha,IA,52233,349990,4,2.5,Hiawatha,2053,7797,2025,11,170,13,Active,,,https://www.redfin.com/IA/Hiawatha/2841-Mary-Dr-52233/home/188678905,"CRAAR, CDRMLS",2506358,N,Y,42.0722251,-91.7057096
MLS Listing,,Condo/Co-op,402 Cimarron Dr Dr NE,Hiawatha,IA,52233,250000,3,2.5,FOREST GREENS CONDO,1936,,2007,11,129,,Active,,,https://www.redfin.com/IA/Hiawatha/402-Cimarron-Dr-52233/home/121370619,ICAARMLS,202504719,N,Y,42.041118,-91.667564
MLS Listing,,Single Family Residential,1507 10th Ave SW,Cedar Rapids,IA,52404,149999,2,1.0,Cedar Rapids,768,5227,1953,11,195,,Active,,,https://www.redfin.com/IA/Cedar-Rapids/1507-10th-Ave-SW-52404/home/121045503,"CRAAR, CDRMLS",2506338,N,Y,41.9669852,-91.6922164
MLS Listing,,Single Family Residential,651 40th St SE,Cedar Rapids,IA,52403,174000,4,1.5,Cedar Rapids,1350,7623,1959,11,129,,Active,,,https://www.redfin.com/IA/Cedar-Rapids/651-40th-St-SE-52403/home/121799130,"CRAAR, CDRMLS",2506336,N,Y,41.9788442,-91.6116146
MLS Listing,,Single Family Residential,2925 Adirondack Dr Dr NE,Cedar Rapids,IA,52402,340000,3,3.0,APPLEWOOD MESA 12TH,3557,22651,1989,13,96,,Active,,,https://www.redfin.com/IA/Cedar-Rapids/2925-Adirondack-Dr-NE-52402/home/121849420,ICAARMLS,202504683,N,Y,42.0067116,-91.6842972
MLS Listing,,Condo/Co-op,905 3rd St SE #305,Cedar Rapids,IA,52401,250000,2,2.0,Cedar Rapids,1220,,1946,13,205,557,Active,August-3-2025 02:30 PM,August-3-2025 04:00 PM,https://www.redfin.com/IA/Cedar-Rapids/905-3rd-St-SE-52401/unit-305/home/121556512,"CRAAR, CDRMLS",2506200,N,Y,41.9722065,-91.6607584
MLS Listing,,Single Family Residential,2219 Hamilton St St SW,Cedar Rapids,IA,52404,170000,4,2.0,Cedar Rapids,1530,6534,1949,14,111,,Active,,,https://www.redfin.com/IA/Cedar-Rapids/2219-Hamilton-St-SW-52404/home/120854764,ICAARMLS,202504704,N,Y,41.956405,-91.66215
MLS Listing,,Multi-Family (2-4 Unit),605 4th St SW,Cedar Rapids,IA,52404,135000,,,Cedar Rapids,1720,3223,1900,14,78,,Active,,,https://www.redfin.com/IA/Cedar-Rapids/605-4th-St-SW-52404/home/177434450,"CRAAR, CDRMLS",2506245,N,Y,41.9699227,-91.674486
MLS Listing,,Single Family Residential,1041 19th St St SE,Cedar Rapids,IA,52403,89000,2,1.0,Cedar Rapids,912,6970,1905,14,98,,Active,,,https://www.redfin.com/IA/Cedar-Rapids/1041-19th-St-SE-52403/home/121824440,ICAARMLS,202504690,N,Y,41.9747919,-91.6423864
MLS Listing,,Single Family Residential,56 Julia Anne Dr NW,Cedar Rapids,IA,52405,310000,4,3.0,Cedar Rapids,2039,20473,1974,14,152,,Active,August-3-2025 12:00 PM,August-3-2025 01:30 PM,https://www.redfin.com/IA/Cedar-Rapids/56-Julia-Ann-Dr-NW-52405/home/121811131,"CRAAR, CDRMLS",2506314,N,Y,41.9697924,-91.7210231
MLS Listing,,Single Family Residential,1402 Beringer Ct NE,Cedar Rapids,IA,52402,354999,3,2.5,Cedar Rapids,1550,8276,2021,14,229,,Active,,,https://www.redfin.com/IA/Cedar-Rapids/1402-Beringer-Ct-NE-52402/home/182008792,"CRAAR, CDRMLS",2506306,N,Y,42.0583259,-91.6566627
MLS Listing,,Condo/Co-op,2222 1st Ave NE #507,Cedar Rapids,IA,52402,145000,2,2.0,Cedar Rapids,1263,,1965,14,115,750,Active,,,https://www.redfin.com/IA/Cedar-Rapids/2222-1st-Ave-NE-52402/unit-507/home/121065809,"CRAAR, CDRMLS",2506299,N,Y,41.9984108,-91.6377508
MLS Listing,,Condo/Co-op,143 Woodstone Ln,Cedar Rapids,IA,52404,209900,3,2.5,Cedar Rapids,1392,,2013,14,151,,Active,,,https://www.redfin.com/IA/Cedar-Rapids/143-Woodstone-Ln-SW-52404/home/120785469,"CRAAR, CDRMLS",2506302,N,Y,41.8945757,-91.6586783
MLS Listing,,Condo/Co-op,1556 Matterhorn Dr NE,Cedar Rapids,IA,52402,232500,2,2.0,Cedar Rapids,1568,,1978,14,148,250,Active,August-3-2025 01:30 PM,August-3-2025 03:00 PM,https://www.redfin.com/IA/Cedar-Rapids/1556-Matterhorn-Dr-NE-52402/home/121422427,"CRAAR, CDRMLS",2506275,N,Y,42.0055411,-91.6802191
MLS Listing,,Condo/Co-op,2135 1st Ave SE #215 Ave,Cedar Rapids,IA,52402,174900,2,2.0,Cedar Rapids,1652,,1979,14,106,381,Active,,,https://www.redfin.com/IA/Cedar-Rapids/2135-1st-Ave-SE-52402/unit-215/home/121449590,ICAARMLS,202504686,N,Y,41.996715,-91.635381
MLS Listing,,Single Family Residential,202 Rockhurst Dr SW,Cedar Rapids,IA,52404,369900,4,3.5,Cedar Rapids,2784,13852,1999,14,133,,Active,,,https://www.redfin.com/IA/Cedar-Rapids/202-Rockhurst-Dr-SW-52404/home/121460717,"CRAAR, CDRMLS",2506297,N,Y,41.9705781,-91.7642334
MLS Listing,,Condo/Co-op,4735 Westchester Dr NE Unit C,Cedar Rapids,IA,52402,183900,2,2.0,Cedar Rapids,1550,,1992,14,119,275,Active,August-3-2025 12:00 PM,August-3-2025 02:00 PM,https://www.redfin.com/IA/Cedar-Rapids/4735-Westchester-Dr-NE-52402/unit-C/home/190256051,"CRAAR, CDRMLS",2506293,N,Y,42.0270048,-91.6847629
MLS Listing,,Single Family Residential,203 C Ave,Hiawatha,IA,52233,232500,2,2.0,Hiawatha,1765,8451,1966,14,132,,Active,,,https://www.redfin.com/IA/Hiawatha/203-C-Ave-52233/home/121664610,"CRAAR, CDRMLS",2506295,N,Y,42.0368624,-91.6666832
MLS Listing,,Condo/Co-op,809 Kerry Ln SE #66,Cedar Rapids,IA,52403,119500,2,2.0,Cedar Rapids,1136,,1978,14,105,175,Active,August-3-2025 01:00 PM,August-3-2025 02:30 PM,https://www.redfin.com/IA/Cedar-Rapids/809-Kerry-Ln-SE-52403/unit-66/home/121868948,"CRAAR, CDRMLS",2506030,N,Y,42.0227032,-91.6185319
MLS Listing,,Vacant Land,S of River Bluffs Dr NW,Cedar Rapids,IA,52405,1273500,,,Cedar Rapids,,1220987,,14,,,Active,,,https://www.redfin.com/IA/Cedar-Rapids/River-Bluffs-Dr-52405/home/180804296,"CRAAR, CDRMLS",2506290,N,Y,42.00084899,-91.71230384
MLS Listing,,Single Family Residential,4701 Midway Dr NW,Cedar Rapids,IA,52405,169000,3,1.0,Cedar Rapids,1506,6186,1960,14,112,,Active,,,https://www.redfin.com/IA/Cedar-Rapids/4701-Midway-Dr-NW-52405/home/120802393,"CRAAR, CDRMLS",2506288,N,Y,41.9749772,-91.7321539
MLS Listing,,Single Family Residential,38/3 SE 21st St,Cedar Rapids,IA,52403,174900,3,2.0,Cedar Rapids,1598,,1909,15,109,,Active,,,https://www.redfin.com/IA/Cedar-Rapids/383-21st-St-SE-52403/home/121464333,ICAARMLS,202504677,N,Y,41.9839421,-91.638242
MLS Listing,,Single Family Residential,1637 Elaine Dr NW,Cedar Rapids,IA,52405,224900,3,1.0,Cedar Rapids,1040,8712,1974,15,216,,Active,August-2-2025 01:00 PM,August-2-2025 02:00 PM,https://www.redfin.com/IA/Cedar-Rapids/1637-Elaine-Dr-NW-52405/home/121840764,"CRAAR, CDRMLS",2506271,N,Y,41.9911312,-91.7143881
MLS Listing,,Single Family Residential,3140 Stratford Lane Ln SW,Cedar Rapids,IA,52404,237500,4,1.5,Rolling Green Unit 03,1254,7841,1970,15,189,,Active,,,https://www.redfin.com/IA/Cedar-Rapids/3140-Stratford-Ln-SW-52404/home/121780156,ICAARMLS,202504672,N,Y,41.9467115,-91.7091084
MLS Listing,,Single Family Residential,6823 1st Ave SW,Cedar Rapids,IA,52404,319950,4,3.5,Cedar Rapids,2784,17816,1987,15,115,,Active,August-3-2025 01:00 PM,August-3-2025 02:30 PM,https://www.redfin.com/IA/Cedar-Rapids/6823-1st-Ave-SW-52405/home/121426449,"CRAAR, CDRMLS",2506265,N,Y,41.9718043,-91.7596187
MLS Listing,,Condo/Co-op,190 Cottage Grove Ave SE #108,Cedar Rapids,IA,52403,129900,2,2.0,Cedar Rapids,1248,,1980,15,104,336,Active,,,https://www.redfin.com/IA/Cedar-Rapids/190-Cottage-Grove-Ave-SE-52403/unit-108/home/121135209,"CRAAR, CDRMLS",2506159,N,Y,41.9958377,-91.6338914
MLS Listing,,Multi-Family (2-4 Unit),1213 Bowler St,Hiawatha,IA,52233,255000,,2.0,FOURTH,912,,1967,16,280,,Active,,,https://www.redfin.com/IA/Hiawatha/1213-Bowler-St-52233/home/121923372,ICAARMLS,202504637,N,Y,42.0353159,-91.689978
MLS Listing,,Single Family Residential,3400 Sue Ln Ln NW,Cedar Rapids,IA,52405,225000,4,3.0,Cedar Rapids,1552,6944,1973,16,145,,Active,August-3-2025 12:30 PM,August-3-2025 02:00 PM,https://www.redfin.com/IA/Cedar-Rapids/3400-Sue-Ln-NW-52405/home/121739265,"CRAAR, CDRMLS",2506241,N,Y,41.970924,-91.7163149
MLS Listing,,Ranch,5601 Seminole Valley Trl NE,Cedar Rapids,IA,52411,315000,,,Cedar Rapids,,240233,,16,,17,Active,,,https://www.redfin.com/IA/Cedar-Rapids/5601-Seminole-Valley-Trl-NE-52411/home/182698433,"CRAAR, CDRMLS",2506237,N,Y,42.010141,-91.71345
MLS Listing,,Condo/Co-op,1704 Pikes Peak Ct Ct NE Unit B,Cedar Rapids,IA,52402,145000,2,2.0,Cedar Rapids,1232,,1979,16,118,250,Active,,,https://www.redfin.com/IA/Cedar-Rapids/1704-Pikes-Peak-Ct-NE-52402/unit-B/home/120783902,ICAARMLS,202504626,N,Y,42.0057689,-91.6778296
MLS Listing,,Condo/Co-op,1704 Pikes Peak Ct NE,Cedar Rapids,IA,52402,145000,2,2.0,Cedar Rapids,1232,,1979,16,118,200,Active,,,https://www.redfin.com/IA/Cedar-Rapids/1704-Pikes-Peak-Ct-NE-52402/home/180803283,"CRAAR, CDRMLS",2506081,N,Y,42.0057917,-91.6778305
MLS Listing,,Condo/Co-op,6715 Creekside Dr NE #5,Cedar Rapids,IA,52402,120000,2,1.0,Cedar Rapids,975,,2002,16,123,220,Active,,,https://www.redfin.com/IA/Cedar-Rapids/6715-Creekside-Dr-NE-52402/unit-5/home/121712694,"CRAAR, CDRMLS",2506230,N,Y,42.0451545,-91.6543991
MLS Listing,,Condo/Co-op,1167 74th St St NE,Cedar Rapids,IA,52402,215000,2,2.5,,1862,,1999,17,115,220,Active,,,https://www.redfin.com/IA/Cedar-Rapids/1167-74th-St-NE-52402/home/120909414,ICAARMLS,202504620,N,Y,42.0506878,-91.6517666
MLS Listing,,Single Family Residential,7604 Princeton Dr Dr NE,Cedar Rapids,IA,52402,374900,4,2.5,As per Abstract,2642,14810,1995,17,142,,Active,,,https://www.redfin.com/IA/Cedar-Rapids/7604-Princeton-Dr-NE-52402/home/121851945,ICAARMLS,202504609,N,Y,42.0543623,-91.6319497
MLS Listing,,Single Family Residential,3140 Carroll Dr Dr SE,Cedar Rapids,IA,52403,875000,4,3.0,,4323,89298,1900,17,202,,Active,,,https://www.redfin.com/IA/Cedar-Rapids/3140-Carroll-Dr-SE-52403/home/121652912,ICAARMLS,202504607,N,Y,42.0093849,-91.6232819
MLS Listing,,Single Family Residential,1638 47th St NE,Cedar Rapids,IA,52402,248500,5,3.5,Cedar Rapids,2139,7797,1963,17,116,,Active,,,https://www.redfin.com/IA/Cedar-Rapids/1638-47th-St-NE-52402/home/121302396,"CRAAR, CDRMLS",2506205,N,Y,42.0257583,-91.6625563
MLS Listing,,Single Family Residential,9521 Brighton Way SW,Cedar Rapids,IA,52404,379990,4,3.0,Cedar Rapids,2191,14113,2025,17,173,,Active,,,https://www.redfin.com/IA/Cedar-Rapids/9521-Brighton-Way-SW-52404/home/196284968,"CRAAR, CDRMLS",2505997,N,Y,41.8860987,-91.6559622
MLS Listing,,Single Family Residential,1039 27th St St NE,Cedar Rapids,IA,52214,215000,3,2.0,Cedar Rapids,1643,15682,1947,17,131,,Active,,,https://www.redfin.com/IA/Cedar-Rapids/1039-27th-St-NE-52402/home/121216329,"CRAAR, CDRMLS",2506191,N,Y,42.0053424,-91.6487272
MLS Listing,,Single Family Residential,219 Mccarran Ave NE,Cedar Rapids,IA,52402,549000,4,3.0,Cedar Rapids,2696,11761,2025,17,204,8,Active,,,https://www.redfin.com/IA/Cedar-Rapids/219-McCarran-Ave-NE-52302/home/196418953,"CRAAR, CDRMLS",2506190,N,Y,42.0629598,-91.6325403
MLS Listing,,Single Family Residential,4185 Richland Dr Dr,Cedar Rapids,IA,52405,272500,3,2.5,Cedar Rapids,1728,10454,1984,17,158,,Active,,,https://www.redfin.com/IA/Cedar-Rapids/4185-Richland-Dr-NW-52405/home/121040683,"CRAAR, CDRMLS",2506186,N,Y,41.9921333,-91.725204
MLS Listing,,Single Family Residential,2852 Mary Green Rd,Hiawatha,IA,52233,359990,4,3.0,Hiawatha,2191,9583,2024,17,164,8,Active,August-2-2025 10:00 AM,August-2-2025 06:00 PM,https://www.redfin.com/IA/Hiawatha/2852-Mary-Green-Rd-52233/home/188678757,"CRAAR, CDRMLS",2506185,N,Y,42.070756,-91.7095891
MLS Listing,,Single Family Residential,8903 Norway Dr NE,Cedar Rapids,IA,52402,410000,3,3.0,Cedar Rapids,2154,10890,2016,18,190,,Active,August-3-2025 12:00 PM,August-3-2025 02:00 PM,https://www.redfin.com/IA/Cedar-Rapids/8903-Norway-Dr-NE-52402/home/121899847,"CRAAR, CDRMLS",2506169,N,Y,42.0655259,-91.65666
MLS Listing,,Condo/Co-op,1458 Tower Ln #12,Cedar Rapids,IA,52402,210000,2,2.0,FIELDSTONE II CONDOMINIUM,1167,,2009,18,180,,Active,,,https://www.redfin.com/IA/Cedar-Rapids/1458-Tower-Ln-NE-52402/unit-12/home/190256456,ICAARMLS,202504575,N,Y,42.0457865,-91.6577295
MLS Listing,,Single Family Residential,2021 Bever Ave SE,Cedar Rapids,IA,52403,289900,3,1.5,Cedar Rapids,1611,8276,1920,18,180,,Active,,,https://www.redfin.com/IA/Cedar-Rapids/2021-Bever-Ave-SE-52403/home/121106870,"CRAAR, CDRMLS",2506165,N,Y,41.9841579,-91.6395392
MLS Listing,,Single Family Residential,2029 Knollshire Rd Rd NE,Cedar Rapids,IA,52402,230000,4,2.5,Cedar Rapids,2094,9583,1965,18,110,,Active,,,https://www.redfin.com/IA/Cedar-Rapids/2029-Knollshire-Rd-NE-52402/home/121132071,"CRAAR, CDRMLS",2506127,N,Y,42.0154565,-91.669028
MLS Listing,,Single Family Residential,2408 SW J St,Cedar Rapids,IA,52404,124950,2,1.0,Cedar Rapids,779,6970,1954,18,160,,Active,,,https://www.redfin.com/IA/Cedar-Rapids/2408-J-St-SW-52404/home/121871888,ICAARMLS,202504564,N,Y,41.9544243,-91.6676489
MLS Listing,,Single Family Residential,1860 E Ave Ave NW,Cedar Rapids,IA,52405,199000,3,1.0,Cedar Rapids,1600,22651,1856,18,124,,Active,,,https://www.redfin.com/IA/Cedar-Rapids/1860-E-Ave-NW-52405/home/121288357,"CRAAR, CDRMLS",2506093,N,Y,41.9782812,-91.6987374
MLS Listing,,Condo/Co-op,4555 Westchester Dr NE Unit B,Cedar Rapids,IA,52402,159990,2,2.0,Cedar Rapids,1340,,1990,18,119,222,Active,August-3-2025 12:00 PM,August-3-2025 01:30 PM,https://www.redfin.com/IA/Cedar-Rapids/4555-Westchester-Dr-NE-52402/unit-B/home/121765846,"CRAAR, CDRMLS",2506151,N,Y,42.0252205,-91.683757
MLS Listing,,Vacant Land,1310 K Ave Ave NE,Cedar Rapids,IA,52402,15000,,,Cedar Rapids,,5663,,19,,,Active,,,https://www.redfin.com/IA/Cedar-Rapids/1310-K-Ave-NE-52402/home/121406508,ICAARMLS,202504558,N,Y,42.0012315,-91.6621833
MLS Listing,,Ranch,3320 Towne Ct,Robins,IA,52328,85000,,,Robins,,15682,,19,,100,Active,,,https://www.redfin.com/IA/Robins/3320-Towne-Ct-52328/home/193894674,"CRAAR, CDRMLS",2506136,N,Y,42.090565,-91.67803
MLS Listing,,Ranch,3329 Towne Ct,Robins,IA,52328,79500,,,Robins,,13504,,19,,100,Active,,,https://www.redfin.com/IA/Robins/3329-Towne-Ct-52328/home/193894677,"CRAAR, CDRMLS",2506135,N,Y,42.090707,-91.678798
MLS Listing,,Ranch,3319 Towne Ct,Robins,IA,52328,79500,,,Robins,,13939,,19,,100,Active,,,https://www.redfin.com/IA/Robins/3319-Towne-Ct-52328/home/193894679,"CRAAR, CDRMLS",2506134,N,Y,42.090454,-91.678801
MLS Listing,,Single Family Residential,2539 Vernon Ct SE,Cedar Rapids,IA,52403,240000,4,2.5,Cedar Rapids,2040,6926,1954,20,118,,Active,,,https://www.redfin.com/IA/Cedar-Rapids/2539-Vernon-Ct-SE-52403/home/121334910,"CRAAR, CDRMLS",2506142,N,Y,41.9807775,-91.6319438
MLS Listing,,Single Family Residential,221 NE Brentwood Dr Dr,Cedar Rapids,IA,52402,279500,4,2.0,Cedar Rapids,2866,15675,1968,21,98,,Active,,,https://www.redfin.com/IA/Cedar-Rapids/221-Brentwood-Dr-NE-52402/home/121002420,NEIRBR as distributed by MLS GRID,20253320,N,Y,42.0406003,-91.6303543
MLS Listing,,Single Family Residential,5112 Scenic View Ct Ct SW,Cedar Rapids,IA,52404,599000,5,3.0,College Farms,3007,18731,2024,21,199,34,Active,August-3-2025 12:00 PM,August-3-2025 02:00 PM,https://www.redfin.com/IA/Cedar-Rapids/5112-Scenic-View-Ct-SW-52404/home/147604943,ICAARMLS,202504554,N,Y,41.9287585,-91.612492
MLS Listing,,Condo/Co-op,5616 Dostal Dr SW,Cedar Rapids,IA,52404,249900,2,2.0,Cedar Rapids,1884,5180,2011,21,133,,Active,August-3-2025 02:00 PM,August-3-2025 03:30 PM,https://www.redfin.com/IA/Cedar-Rapids/5616-Dostal-Dr-SW-52404/home/121115222,"CRAAR, CDRMLS",2506130,N,Y,41.9475014,-91.7438125
MLS Listing,,Single Family Residential,2469 1st St SW,Cedar Rapids,IA,52404,199900,3,2.0,Cedar Rapids,1675,6970,1963,21,119,,Active,,,https://www.redfin.com/IA/Cedar-Rapids/2469-1st-St-SW-52404/home/121794314,"CRAAR, CDRMLS",2506126,N,Y,41.9527536,-91.6631353
MLS Listing,,Single Family Residential,214 15th St St NW,Cedar Rapids,IA,52405,160000,3,2.0,Cedar Rapids,1353,3354,1920,21,118,,Active,,,https://www.redfin.com/IA/Cedar-Rapids/214-15th-St-NW-52405/home/122025180,"CRAAR, CDRMLS",2506124,N,Y,41.9722824,-91.6920724
MLS Listing,,Single Family Residential,1685 Mackenzie Dr,Robins,IA,52328,619000,6,4.5,Robins,4273,40075,1997,21,145,92,Active,,,https://www.redfin.com/IA/Cedar-Rapids/1685-Mackenzie-Dr-52411/home/121676093,"CRAAR, CDRMLS",2506123,N,Y,42.0771278,-91.6883153
MLS Listing,,Condo/Co-op,2222 1st Ave NE #508 Ave,Cedar Rapids,IA,52402,148900,2,2.0,Cedar Rapids,1194,,1965,21,125,710,Active,,,https://www.redfin.com/IA/Cedar-Rapids/2222-1st-Ave-NE-52402/unit-508/home/121046388,ICAARMLS,202504542,N,Y,41.9984108,-91.6377508
MLS Listing,,Single Family Residential,4812 Montclair Dr Dr NW,Cedar Rapids,IA,52405,285000,4,3.0,APPLE RIDGE UNIT 1,2130,6970,1972,21,134,,Active,,,https://www.redfin.com/IA/Cedar-Rapids/4812-Montclair-Dr-NW-52405/home/121096913,ICAARMLS,202504540,N,Y,41.9811967,-91.7332325
MLS Listing,,Condo/Co-op,2222 1st Ave #508 Ave,Cedar Rapids,IA,52402,148900,2,2.0,Cedar Rapids,1194,,1965,21,125,710,Active,,,https://www.redfin.com/IA/Cedar-Rapids/2222-1st-Ave-NE-52402/home/180806670,"CRAAR, CDRMLS",2506065,N,Y,41.9985441,-91.6385043
MLS Listing,,Single Family Residential,2518 1st Ave Ave NE,Cedar Rapids,IA,52402,210000,4,1.5,--,1785,7841,1940,21,118,,Active,,,https://www.redfin.com/IA/Cedar-Rapids/2518-1st-Ave-NE-52402/home/121293363,ICAARMLS,202504529,N,Y,42.0019558,-91.6358539
MLS Listing,,Condo/Co-op,935 74th St NE #5,Cedar Rapids,IA,52402,167500,2,1.5,Cedar Rapids,1204,,1998,21,139,235,Active,August-3-2025 01:00 PM,August-3-2025 02:30 PM,https://www.redfin.com/IA/Cedar-Rapids/935-74th-St-NE-52402/unit-5/home/122072388,"CRAAR, CDRMLS",2506089,N,Y,42.0512178,-91.6474369
MLS Listing,,Condo/Co-op,2908 Riviera St SW Unit B,Cedar Rapids,IA,52404,225000,3,2.5,Cedar Rapids,1700,,2015,21,132,200,Active,,,https://www.redfin.com/IA/Cedar-Rapids/2908-Riviera-St-SW-52404/unit-B/home/141351184,"CRAAR, CDRMLS",2505911,N,Y,41.9482515,-91.7290636
MLS Listing,,Condo/Co-op,2131 1st Ave #108,Cedar Rapids,IA,52402,139900,2,2.0,Cedar Rapids,1248,,1979,21,112,329,Active,,,https://www.redfin.com/IA/Cedar-Rapids/2131-1st-Ave-SE-52402/unit-108/home/122069855,"CRAAR, CDRMLS",2506104,N,Y,41.9967255,-91.6363656
MLS Listing,,Single Family Residential,164 Cherry Hill Rd Rd NW,Cedar Rapids,IA,52405,300000,2,1.0,Unk,950,6970,2025,22,316,,Active,,,https://www.redfin.com/IA/Cedar-Rapids/164-Cherry-Hill-Rd-NW-52405/home/120947186,ICAARMLS,202504495,N,Y,41.973022,-91.7450152
MLS Listing,,Single Family Residential,395 18th St St SE,Cedar Rapids,IA,52403,120000,3,1.0,Cedar Rapids,1344,2004,1910,22,89,,Active,,,https://www.redfin.com/IA/Cedar-Rapids/395-18th-St-SE-52403/home/121841582,"CRAAR, CDRMLS",2506083,N,Y,41.9839641,-91.6449528
MLS Listing,,Single Family Residential,446 19th St NW,Cedar Rapids,IA,52405,234900,3,2.0,Cedar Rapids,1316,6970,1950,22,178,,Active,,,https://www.redfin.com/IA/Cedar-Rapids/446-19th-St-NW-52405/home/121798384,"CRAAR, CDRMLS",2506080,N,Y,41.9775074,-91.6987905
MLS Listing,,Condo/Co-op,121 Woodstone Ln SW,Cedar Rapids,IA,52404,214000,3,2.5,Cedar Rapids,1352,,2013,22,158,200,Active,,,https://www.redfin.com/IA/Cedar-Rapids/121-Woodstone-Ln-SW-52404/home/121163757,"CRAAR, CDRMLS",2505956,N,Y,41.8945404,-91.6582495
MLS Listing,,Condo/Co-op,3028 Center Point Rd NE #201,Cedar Rapids,IA,52402,110000,2,1.0,Cedar Rapids,900,,2002,22,122,,Active,,,https://www.redfin.com/IA/Cedar-Rapids/3028-Center-Point-Rd-NE-52402/unit-201/home/121334348,"CRAAR, CDRMLS",2506075,N,Y,42.0094408,-91.6622248
MLS Listing,,Multi-Family (5+ Unit),3710 and 3720 12th Ave SW,Cedar Rapids,IA,52404,950000,,,Cedar Rapids,13749,31102,1968,22,69,,Active,,,https://www.redfin.com/IA/Cedar-Rapids/3710-12th-Ave-SW-52404/home/180806937,"CRAAR, CDRMLS",2506074,N,Y,41.9658715,-91.7202884
MLS Listing,,Single Family Residential,2610 Diamondwood Dr,Cedar Rapids,IA,52403,1490000,6,7.0,.,13011,63598,2000,23,115,58,Active,,,https://www.redfin.com/IA/Cedar-Rapids/2610-Diamondwood-Dr-52403/home/121053500,ICAARMLS,202504462,N,Y,42.0068687,-91.6084711
MLS Listing,,Single Family Residential,226 Mccarran Ave NE,Cedar Rapids,IA,52402,529000,5,3.0,Cedar Rapids,2591,11369,2025,23,204,4,Active,,,https://www.redfin.com/IA/Cedar-Rapids/226-McCarran-Ave-NE-52302/home/196322512,"CRAAR, CDRMLS",2506064,N,Y,42.0628661,-91.633259
MLS Listing,,Single Family Residential,1022 19th St SE,Cedar Rapids,IA,52403,129000,3,1.0,Cedar Rapids,1495,21127,1915,23,86,,Active,,,https://www.redfin.com/IA/Cedar-Rapids/1022-19th-St-SE-52403/home/120808554,"CRAAR, CDRMLS",2506023,N,Y,41.97535,-91.6418606
MLS Listing,,Ranch,Lot 23 Feather Ridge Pass,Cedar Rapids,IA,52411,75000,,,Cedar Rapids,,43124,,23,,,Active,,,https://www.redfin.com/IA/Cedar-Rapids/Lot-23-Feather-Ridge-Pass-52411/home/185153237,"CRAAR, CDRMLS",2506054,N,Y,42.067099,-91.743824
MLS Listing,,Single Family Residential,210 16th St SE,Cedar Rapids,IA,52403,119000,3,2.0,Cedar Rapids,1344,2396,1910,23,89,,Active,,,https://www.redfin.com/IA/Cedar-Rapids/210-16th-St-SE-52403/home/121987927,"CRAAR, CDRMLS",2506044,N,Y,41.9885833,-91.6481262
MLS Listing,,Single Family Residential,1727 Grande Ave Ave SE,Cedar Rapids,IA,52403,208000,4,2.5,Cedar Rapids,2240,3049,1915,23,93,,Active,August-3-2025 11:30 AM,August-3-2025 01:00 PM,https://www.redfin.com/IA/Cedar-Rapids/1727-Grande-Ave-SE-52403/home/121789672,ICAARMLS,202504443,N,Y,41.9874757,-91.6448542
MLS Listing,,Single Family Residential,1047 27th St NE,Cedar Rapids,IA,52402,180000,3,1.0,Cedar Rapids,1330,7667,1945,23,135,,Active,,,https://www.redfin.com/IA/Cedar-Rapids/1047-27th-St-NE-52402/home/120802827,"CRAAR, CDRMLS",2506038,N,Y,42.0053434,-91.6492374
MLS Listing,,Ranch,2143 Sugar Creek Dr NW,Cedar Rapids,IA,52405,36000,,,Cedar Rapids,,6360,,23,,8,Active,,,https://www.redfin.com/IA/Cedar-Rapids/2143-Sugar-Creek-Dr-NW-52405/home/122080522,"CRAAR, CDRMLS",2506025,N,Y,41.9991424,-91.7032741
MLS Listing,,Ranch,2147 Sugar Creek Dr NW,Cedar Rapids,IA,52405,36000,,,Cedar Rapids,,6621,,23,,8,Active,,,https://www.redfin.com/IA/Cedar-Rapids/2147-Sugar-Creek-Dr-NW-52405/home/122088325,"CRAAR, CDRMLS",2506024,N,Y,41.9992156,-91.7029261
MLS Listing,,Condo/Co-op,3810 Waterview Ct SW,Cedar Rapids,IA,52404,194950,3,1.5,Cedar Rapids,1417,,2000,23,138,225,Active,,,https://www.redfin.com/IA/Cedar-Rapids/3810-Waterview-Ct-SW-52404/home/196118146,"CRAAR, CDRMLS",2504482,N,Y,41.9416297,-91.7606806
MLS Listing,,Single Family Residential,1623 Colony Ct SE,Cedar Rapids,IA,52403,455000,5,4.5,Cedar Rapids,3242,21780,2004,24,140,,Active,August-2-2025 12:00 PM,August-2-2025 01:30 PM,https://www.redfin.com/IA/Cedar-Rapids/1623-Colony-Ct-SE-52403/home/121780230,"CRAAR, CDRMLS",2506022,N,Y,41.968232,-91.6127784
MLS Listing,,Single Family Residential,6664 Sand Ct SW,Cedar Rapids,IA,52404,309900,4,2.5,Cedar Rapids,2538,16988,1979,24,122,,Active,August-3-2025 12:00 PM,August-3-2025 01:30 PM,https://www.redfin.com/IA/Cedar-Rapids/6664-Sand-Ct-SW-52404/home/122041627,"CRAAR, CDRMLS",2506019,N,Y,41.9712446,-91.7581082
MLS Listing,,Condo/Co-op,4611 1st Ave SW #2,Cedar Rapids,IA,52404,99000,2,1.0,Cedar Rapids,900,,1996,24,110,165,Active,,,https://www.redfin.com/IA/Cedar-Rapids/4611-1st-Ave-SW-52405/unit-2/home/121571637,"CRAAR, CDRMLS",2506001,N,Y,41.9662785,-91.729936
MLS Listing,,Ranch,425 Colton Cir NE,Cedar Rapids,IA,52402,211000,,,Cedar Rapids,,58370,,24,,,Active,,,https://www.redfin.com/IA/Cedar-Rapids/425-Colton-Cir-NE-52402/home/180802927,"CRAAR, CDRMLS",2506003,N,Y,42.047795,-91.639802
MLS Listing,,Single Family Residential,9603 Brighton Way SW,Cedar Rapids,IA,52404,351990,3,2.0,Cedar Rapids,1498,14113,2025,24,235,,Active,,,https://www.redfin.com/IA/Cedar-Rapids/9603-Brighton-Way-SW-52404/home/196284973,"CRAAR, CDRMLS",2505996,N,Y,41.8859312,-91.6556648
MLS Listing,,Condo/Co-op,3107 Johnson Ave NW #4,Cedar Rapids,IA,52405,96000,2,1.0,Cedar Rapids,866,,1973,24,111,175,Active,August-3-2025 12:30 PM,August-3-2025 01:30 PM,https://www.redfin.com/IA/Cedar-Rapids/3107-Johnson-Ave-NW-52405/unit-4/home/121915606,"CRAAR, CDRMLS",2505990,N,Y,41.9742932,-91.7128133
MLS Listing,,Single Family Residential,2225 26th St SW,Cedar Rapids,IA,52404,240000,2,3.0,Cedar Rapids,1220,8276,1973,24,197,,Active,,,https://www.redfin.com/IA/Cedar-Rapids/2225-26th-St-SW-52404/home/122107813,"CRAAR, CDRMLS",2505984,N,Y,41.9565862,-91.7066091
MLS Listing,,Single Family Residential,1946 Higley Ave Ave SE,Cedar Rapids,IA,52403,246500,4,2.0,Bevers 4th,2559,9148,1918,24,96,,Active,,,https://www.redfin.com/IA/Cedar-Rapids/1946-Higley-Ave-SE-52403/home/121078082,ICAARMLS,202504406,N,Y,41.9782396,-91.6409809
MLS Listing,,Condo/Co-op,3720 Timberline Dr NE #3,Cedar Rapids,IA,52402,170000,2,2.0,Cedar Rapids,1356,,1987,24,125,245,Active,,,https://www.redfin.com/IA/Cedar-Rapids/3720-Timberline-Dr-NE-52402/unit-3/home/196286856,"CRAAR, CDRMLS",2505967,N,Y,42.0179478,-91.6951699
MLS Listing,,Condo/Co-op,5703 Golden Ct NE #34,Cedar Rapids,IA,52402,126500,2,2.0,Cedar Rapids,1136,,1975,24,111,250,Active,,,https://www.redfin.com/IA/Cedar-Rapids/5703-Golden-Ct-NE-52402/unit-34/home/121229056,"CRAAR, CDRMLS",2505973,N,Y,42.035932,-91.641552
MLS Listing,,Single Family Residential,3508 Badger Dr SW,Cedar Rapids,IA,52404,330000,3,3.0,Cedar Rapids,2399,10672,2008,24,138,,Active,,,https://www.redfin.com/IA/Cedar-Rapids/3508-Badger-Dr-SW-52404/home/121336793,"CRAAR, CDRMLS",2505972,N,Y,41.9438366,-91.7241485
MLS Listing,,Single Family Residential,108 Atwood Dr SW,Cedar Rapids,IA,52404,229500,5,2.5,Cedar Rapids,1834,7841,1967,25,125,,Active,,,https://www.redfin.com/IA/Cedar-Rapids/108-Atwood-Dr-SW-52404/home/122110698,"CRAAR, CDRMLS",2505970,N,Y,41.9709044,-91.7540717
MLS Listing,,Single Family Residential,3849 Vine Ave SE,Cedar Rapids,IA,52403,189000,3,3.0,Cedar Rapids,1699,10890,1955,25,111,,Active,,,https://www.redfin.com/IA/Cedar-Rapids/3849-Vine-Ave-SE-52403/home/121791609,"CRAAR, CDRMLS",2504324,N,Y,41.9774895,-91.611671
MLS Listing,,Single Family Residential,1705 NE Texas Ave,Cedar Rapids,IA,52402,185600,3,1.0,Cedar Rapids,1040,7187,1957,25,178,,Active,,,https://www.redfin.com/IA/Cedar-Rapids/1705-Texas-Ave-NE-52402/home/121277660,"CRAAR, CDRMLS",2505920,N,Y,42.0174463,-91.6625004
MLS Listing,,Single Family Residential,1502 SW 1st St,Cedar Rapids,IA,52404,164500,3,1.0,Cedar Rapids,1193,6621,1900,25,138,,Active,,,https://www.redfin.com/IA/Cedar-Rapids/1502-1st-St-SW-52404/home/121231870,"CRAAR, CDRMLS",2505921,N,Y,41.9633262,-91.6649488
MLS Listing,,Single Family Residential,1427 Pawnee Dr,Cedar Rapids,IA,52405,235000,3,2.0,FAIR OAKS SEVENTH ADDITIO,1896,7405,1962,25,124,,Active,,,https://www.redfin.com/IA/Cedar-Rapids/1427-Pawnee-Dr-NW-52405/home/121409668,ICAARMLS,202504393,N,Y,41.9832005,-91.6915926
MLS Listing,,Condo/Co-op,2135 1st Ave SE #217,Cedar Rapids,IA,52402,174950,2,2.0,Cedar Rapids,1652,,1979,25,106,339,Active,,,https://www.redfin.com/IA/Cedar-Rapids/2135-1st-Ave-SE-52402/unit-217/home/121395542,"CRAAR, CDRMLS",2505892,N,Y,41.996715,-91.635381
MLS Listing,,Single Family Residential,8313 Monterey Dr Dr NE,Cedar Rapids,IA,52402,475000,5,3.0,Cedar Rapids,2555,11761,2014,25,186,,Active,,,https://www.redfin.com/IA/Cedar-Rapids/8313-Monterey-Dr-NE-52402/home/120793619,"CRAAR, CDRMLS",2505943,N,Y,42.0606196,-91.6517061
MLS Listing,,Single Family Residential,4440 M Ave NW,Cedar Rapids,IA,52405,240000,4,1.5,Cedar Rapids,2482,38768,1979,25,97,,Active,,,https://www.redfin.com/IA/Cedar-Rapids/4440-M-Ave-NW-52405/home/121767806,"CRAAR, CDRMLS",2505824,N,Y,41.9881246,-91.7304055
MLS Listing,,Single Family Residential,4118 Paradise Ct NW,Cedar Rapids,IA,52405,415000,3,3.0,Cedar Rapids,3387,17424,2003,25,123,,Active,August-3-2025 02:00 PM,August-3-2025 03:30 PM,https://www.redfin.com/IA/Cedar-Rapids/4118-Paradise-Ct-NW-52405/home/121161630,"CRAAR, CDRMLS",2505942,N,Y,41.9890364,-91.725356
MLS Listing,,Single Family Residential,1413 Beringer Ct NE,Cedar Rapids,IA,52402,385000,3,2.0,Cedar Rapids,2142,8763,2022,25,180,,Active,August-3-2025 12:00 PM,August-3-2025 01:30 PM,https://www.redfin.com/IA/Cedar-Rapids/1413-Beringer-Ct-NE-52402/home/182695287,"CRAAR, CDRMLS",2505941,N,Y,42.0578709,-91.6570777
MLS Listing,,Single Family Residential,2225 J St SW,Cedar Rapids,IA,52404,117000,3,1.0,Cedar Rapids,1095,7405,1915,26,107,,Active,,,https://www.redfin.com/IA/Cedar-Rapids/2225-J-St-SW-52404/home/121125325,"CRAAR, CDRMLS",2505937,N,Y,41.9561593,-91.6670457
MLS Listing,,Single Family Residential,5705 Beverly Rd SW,Cedar Rapids,IA,52404,539500,3,2.5,Cedar Rapids,3574,104544,1893,26,151,,Active,August-3-2025 01:00 PM,August-3-2025 03:00 PM,https://www.redfin.com/IA/Cedar-Rapids/5705-Beverly-Rd-SW-52404/home/121793398,"CRAAR, CDRMLS",2505930,N,Y,41.9373141,-91.7456567
MLS Listing,,Single Family Residential,68 Julia Ann Dr NW,Cedar Rapids,IA,52405,240000,3,2.0,Cedar Rapids,1637,7100,1974,27,147,,Active,,,https://www.redfin.com/IA/Cedar-Rapids/68-Julia-Ann-Dr-NW-52405/home/121428313,"CRAAR, CDRMLS",2503350,N,Y,41.9701845,-91.7210342
MLS Listing,,Condo/Co-op,819 Winterberry Pl NE,Cedar Rapids,IA,52402,216000,3,2.5,Cedar Rapids,1630,,2001,27,133,242,Active,August-3-2025 01:30 PM,August-3-2025 02:30 PM,https://www.redfin.com/IA/Cedar-Rapids/819-Winterberry-Pl-NE-52402/home/122011910,"CRAAR, CDRMLS",2505857,N,Y,42.0559449,-91.6465357
MLS Listing,,Single Family Residential,1265 40th St Ct Ct NW,Cedar Rapids,IA,52405,284000,3,3.0,Cedar Rapids,2327,10803,1988,28,122,,Active,,,https://www.redfin.com/IA/Cedar-Rapids/1265-40th-Street-Ct-NW-52405/home/121187732,"CRAAR, CDRMLS",2504500,N,Y,41.9852327,-91.7235128
MLS Listing,,Single Family Residential,6827 42nd St St NE,Cedar Rapids,IA,52411,689900,5,3.0,Cedar Bluff,3901,40946,2014,28,177,,Active,,,https://www.redfin.com/IA/Cedar-Rapids/6827-42nd-St-NE-52411/home/121838082,ICAARMLS,202504360,N,Y,42.0212853,-91.7300225
MLS Listing,,Single Family Residential,3149 Windsor Dr,Robins,IA,52328,614000,5,3.5,Robins,3153,28053,2023,28,195,,Active,,,https://www.redfin.com/IA/Robins/3149-Windsor-Dr-52328/home/168209276,"CRAAR, CDRMLS",2505922,N,Y,42.087544,-91.691474
MLS Listing,,Single Family Residential,1554 4th Ave SE,Cedar Rapids,IA,52403,140000,6,2.5,Cedar Rapids,2152,8886,1900,29,65,,Active,,,https://www.redfin.com/IA/Cedar-Rapids/1554-4th-Ave-SE-52403/home/121043158,"CRAAR, CDRMLS",2505919,N,Y,41.9838529,-91.648337
MLS Listing,,Single Family Residential,3642 Redbud Rd NE,Cedar Rapids,IA,52402,249000,4,2.0,Cedar Rapids,2381,10454,1961,29,105,,Active,August-3-2025 12:00 PM,August-3-2025 01:30 PM,https://www.redfin.com/IA/Cedar-Rapids/3642-Redbud-Rd-NE-52402/home/121832163,"CRAAR, CDRMLS",2505918,N,Y,42.0165096,-91.6681006
MLS Listing,,Vacant Land,3990 Blairs Ferry Rd,Hiawatha,IA,52233,2206620,,,Pecks Landing,,246550,,29,,,Active,,,https://www.redfin.com/IA/Hiawatha/3990-Blairs-Ferry-RD-52233/home/180800490,ICAARMLS,202504333,N,Y,42.03638599,-91.70008503
MLS Listing,,Single Family Residential,6514 Fox Run Dr Dr SW,Cedar Rapids,IA,52404,310000,3,2.5,Cedar Rapids,1562,8843,1998,29,198,,Active,,,https://www.redfin.com/IA/Cedar-Rapids/6514-Fox-Run-Dr-SW-52404/home/121946199,"CRAAR, CDRMLS",2505821,N,Y,41.9427688,-91.7576993
MLS Listing,,Condo/Co-op,4405 Westchester Dr Unit B,Cedar Rapids,IA,52402,179500,2,2.0,Cedar Rapids,1520,,1989,30,118,222,Active,August-3-2025 12:00 PM,August-3-2025 01:30 PM,https://www.redfin.com/IA/Cedar-Rapids/4405-Westchester-Dr-NE-52402/unit-B/home/121992589,"CRAAR, CDRMLS",2505900,N,Y,42.0241524,-91.6847436
MLS Listing,,Single Family Residential,142 SW 14th Ave,Cedar Rapids,IA,52404,75000,3,1.0,Cedar Rapids,802,7405,1890,30,94,,Active,,,https://www.redfin.com/IA/Cedar-Rapids/142-14th-Ave-SW-52404/home/121074882,ICAARMLS,202504320,N,Y,41.9650034,-91.6644942
MLS Listing,,Ranch,3990 Blairs Ferry Rd Lot 8,Hiawatha,IA,52233,799000,,,Hiawatha,,50094,,30,,,Active,,,https://www.redfin.com/IA/Hiawatha/3990-Blairs-Ferry-RD-52233/unit-8/home/196256253,"CRAAR, CDRMLS",2505890,N,Y,42.03658,-91.700172
MLS Listing,,Ranch,3990 Blairs Ferry Rd Lot 7,Hiawatha,IA,52233,764260,,,Hiawatha,,47916,,30,,,Active,,,https://www.redfin.com/IA/Hiawatha/3990-Blairs-Ferry-RD-52233/unit-7/home/196256168,"CRAAR, CDRMLS",2505889,N,Y,42.03658,-91.700172
MLS Listing,,Ranch,3990 Blairs Ferry Rd Lot 6,Hiawatha,IA,52233,2206620,,,Hiawatha,,246550,,30,,,Active,,,https://www.redfin.com/IA/Hiawatha/3990-Blairs-Ferry-RD-52233/unit-6/home/196256079,"CRAAR, CDRMLS",2505888,N,Y,42.03658,-91.700172
MLS Listing,,Multi-Family (5+ Unit),6620-6670 Preston Terrace Ct SW,Cedar Rapids,IA,52404,6500000,,,Cedar Rapids,,126324,2004,30,,,Active,,,https://www.redfin.com/IA/Cedar-Rapids/6620-Preston-Terrace-Ct-SW-52404/home/180805629,"CRAAR, CDRMLS",2505880,N,Y,41.91419,-91.6581934
MLS Listing,,Condo/Co-op,1641 Greens Way Ct Ct,Cedar Rapids,IA,52402,275000,3,3.0,Cedar Rapids,2488,,1996,30,111,250,Active,August-3-2025 12:00 PM,August-3-2025 01:30 PM,https://www.redfin.com/IA/Cedar-Rapids/1641-Greens-Way-Ct-NE-52402/home/122052352,"CRAAR, CDRMLS",2505842,N,Y,42.041492,-91.659588
MLS Listing,,Condo/Co-op,1580 NE Matterhorn Dr,Cedar Rapids,IA,52402,225000,2,2.0,Cedar Rapids,1568,,1978,30,143,250,Active,August-3-2025 01:30 PM,August-3-2025 03:00 PM,https://www.redfin.com/IA/Cedar-Rapids/1580-Matterhorn-Dr-NE-52402/home/121046202,ICAARMLS,202504305,N,Y,42.005403,-91.6802895
MLS Listing,,Single Family Residential,2144 Grande Ave SE,Cedar Rapids,IA,52403,469900,4,4.5,Cedar Rapids,4123,13112,1920,31,114,,Active,,,https://www.redfin.com/IA/Cedar-Rapids/2144-Grande-Ave-SE-52403/home/121414615,"CRAAR, CDRMLS",2505858,N,Y,41.9876303,-91.6366033
MLS Listing,,Single Family Residential,2817 Old Orchard Rd Rd NE,Cedar Rapids,IA,52402,540000,4,2.5,Bluffs 4th Street,3658,34848,2000,31,148,,Active,,,https://www.redfin.com/IA/Cedar-Rapids/2817-Old-Orchard-Rd-NE-52402/home/122011232,ICAARMLS,202504299,N,Y,42.0109071,-91.6933029
MLS Listing,,Condo/Co-op,1019 Acacia Dr NE,Cedar Rapids,IA,52402,237000,2,2.5,Cedar Rapids,1704,,2011,31,139,210,Active,,,https://www.redfin.com/IA/Cedar-Rapids/1019-Acacia-Dr-NE-52402/home/122075119,"CRAAR, CDRMLS",2505828,N,Y,42.0534699,-91.6516336
MLS Listing,,Single Family Residential,1121 15th Ave SW,Cedar Rapids,IA,52404,90000,2,1.0,Cedar Rapids,890,8407,1955,31,101,,Active,,,https://www.redfin.com/IA/Cedar-Rapids/1121-15th-Ave-SW-52404/home/122082919,"CRAAR, CDRMLS",2505825,N,Y,41.9627528,-91.6845161
MLS Listing,,Single Family Residential,4420 Spring Meadow Pl NE,Cedar Rapids,IA,52411,405000,5,3.5,Cedar Rapids,2961,9583,2005,31,137,,Active,,,https://www.redfin.com/IA/Cedar-Rapids/4420-Spring-Meadow-Pl-NE-52411/home/121350862,"CRAAR, CDRMLS",2505827,N,Y,42.0421112,-91.7153669
MLS Listing,,Condo/Co-op,550 Meadow Oak Cir,,IA,52228,299900,3,3.0,,2138,,2014,31,140,,Active,,,https://www.redfin.com/IA/Fairfax/550-Meadow-Oak-Cir-52228/home/141353497,ICAARMLS,202504283,N,Y,41.9371442,-91.7561436
MLS Listing,,Single Family Residential,2021 Andrew Charles Dr Dr NW,Cedar Rapids,IA,52405,475000,5,3.0,Applewood Estates,2931,11761,2013,31,162,,Active,,,https://www.redfin.com/IA/Cedar-Rapids/2021-Andrew-Charles-Dr-NW-52405/home/121605963,ICAARMLS,202504279,N,Y,41.9943162,-91.725402
MLS Listing,,Single Family Residential,927 NW O Ave,Cedar Rapids,IA,52405,155000,2,1.0,Cedar Rapids,836,4950,1941,31,185,,Active,,,https://www.redfin.com/IA/Cedar-Rapids/927-O-Ave-NW-52405/home/121290587,ICAARMLS,202504276,N,Y,41.9887786,-91.6855953
MLS Listing,,Single Family Residential,2515 Woodhill Dr SW,Cedar Rapids,IA,52404,349950,4,3.0,Cedar Rapids,2568,10977,2006,31,136,,Active,,,https://www.redfin.com/IA/Cedar-Rapids/2515-Woodhill-Dr-SW-52404/home/121553240,"CRAAR, CDRMLS",2505830,N,Y,41.9471333,-91.7066398
MLS Listing,,Condo/Co-op,1579 Matterhorn Dr. Dr NE,Cedar Rapids,IA,52402,325000,3,3.0,Cedar Rapids,2662,,1984,31,122,280,Active,,,https://www.redfin.com/IA/Cedar-Rapids/1579-Matterhorn-Dr-NE-52402/home/121433537,"CRAAR, CDRMLS",2505793,N,Y,42.00577,-91.6807596
MLS Listing,,Condo/Co-op,914 Deer Run Dr Dr NE,Cedar Rapids,IA,52402,295000,3,3.0,Crescent View,2268,,2020,32,130,210,Active,August-2-2025 12:30 PM,August-2-2025 02:00 PM,https://www.redfin.com/IA/Cedar-Rapids/914-Deer-Run-Dr-NE-52402/home/173197677,ICAARMLS,202504267,N,Y,42.0547644,-91.6468344
MLS Listing,,Single Family Residential,1308 A Ave Ave NW,Cedar Rapids,IA,52405,209000,4,2.0,Cedar Rapids,2126,6970,1909,35,98,,Active,,,https://www.redfin.com/IA/Cedar-Rapids/1308-A-Ave-NW-52405/home/120817250,"CRAAR, CDRMLS",2505783,N,Y,41.9722047,-91.6894522
MLS Listing,,Single Family Residential,1706 Woodcrest St NE,Cedar Rapids,IA,52402,412000,4,2.5,Cedar Rapids,2477,13504,1998,35,166,,Active,,,https://www.redfin.com/IA/Cedar-Rapids/1706-Woodcrest-St-NE-52402/home/120914381,"CRAAR, CDRMLS",2505782,N,Y,42.05663,-91.6617871
MLS Listing,,Single Family Residential,6404 Parkview Ave,Cedar Rapids,IA,52403,170000,2,1.0,Cedar Rapids,768,6098,1952,35,221,,Active,,,https://www.redfin.com/IA/Cedar-Rapids/6404-Parkview-Ave-52403/home/121970765,"CRAAR, CDRMLS",2505768,N,Y,41.9757794,-91.5737812
MLS Listing,,Single Family Residential,7705 Westbury Dr NE,Cedar Rapids,IA,52402,385000,5,3.5,Cedar Rapids,3900,11761,1992,35,99,,Active,,,https://www.redfin.com/IA/Cedar-Rapids/7705-Westbury-Dr-NE-52402/home/121528519,"CRAAR, CDRMLS",2504708,N,Y,42.0552273,-91.6311705
MLS Listing,,Single Family Residential,5929 Underwood Ave SW,Cedar Rapids,IA,52404,199950,3,1.5,Cedar Rapids,1264,6621,1971,35,158,,Active,,,https://www.redfin.com/IA/Cedar-Rapids/5929-Underwood-Ave-SW-52404/home/121130426,"CRAAR, CDRMLS",2505764,N,Y,41.9669656,-91.7482611
MLS Listing,,Single Family Residential,420 16th St NE,Cedar Rapids,IA,52402,94900,2,1.0,Cedar Rapids,692,1742,1916,35,137,,Active,,,https://www.redfin.com/IA/Cedar-Rapids/420-16th-St-NE-52402/home/121098315,"CRAAR, CDRMLS",2505763,N,Y,41.9925337,-91.6533124
MLS Listing,,Single Family Residential,6416 Windy Meadow Ln NE,Cedar Rapids,IA,52411,514900,5,3.5,Cedar Rapids,3940,11935,2006,35,131,,Active,,,https://www.redfin.com/IA/Cedar-Rapids/6416-Windy-Meadow-Ln-NE-52411/home/120792721,"CRAAR, CDRMLS",2505762,N,Y,42.0421556,-91.7164986
MLS Listing,,Single Family Residential,1535 SE 6th Ave,Cedar Rapids,IA,52403,136000,3,2.0,Cedar Rapids,1540,5576,1923,36,88,,Active,,,https://www.redfin.com/IA/Cedar-Rapids/1535-6th-Ave-SE-52403/home/121211895,"CRAAR, CDRMLS",2504724,N,Y,41.9813672,-91.6489879
MLS Listing,,Single Family Residential,3122 Timber Ridge Ct,Hiawatha,IA,52233,599000,5,3.0,Hiawatha,2957,14375,2022,36,203,10,Active,,,https://www.redfin.com/IA/Hiawatha/3122-Timber-Ridge-Ct-52233/home/180804464,"CRAAR, CDRMLS",2504750,N,Y,42.0838438,-91.7036028
MLS Listing,,Single Family Residential,2623 Iris Ave NW,Cedar Rapids,IA,52405,299950,4,2.5,Cedar Rapids,4245,8320,1981,36,71,,Active,,,https://www.redfin.com/IA/Cedar-Rapids/2623-Iris-Ave-NW-52405/home/121853689,"CRAAR, CDRMLS",2503925,N,Y,41.9820408,-91.707696
MLS Listing,,Single Family Residential,3524 Swallow Ct NE,Cedar Rapids,IA,52402,260000,3,2.0,Cedar Rapids,1952,7013,1987,36,133,,Active,,,https://www.redfin.com/IA/Cedar-Rapids/3524-Swallow-Ct-NE-52402/home/121328486,"CRAAR, CDRMLS",2504743,N,Y,42.0199529,-91.6922612
MLS Listing,,Condo/Co-op,2135 1st Ave SE #125,Cedar Rapids,IA,52402,199900,2,2.0,Cedar Rapids,1652,,1979,36,121,424,Active,,,https://www.redfin.com/IA/Cedar-Rapids/2135-1st-Ave-SE-52402/unit-125/home/121022041,"CRAAR, CDRMLS",2504734,N,Y,41.996715,-91.635381
MLS Listing,,Single Family Residential,835 10th St SW,Cedar Rapids,IA,52404,127777,3,1.0,Cedar Rapids,1036,4400,1905,38,123,,Active,,,https://www.redfin.com/IA/Cedar-Rapids/835-10th-St-SW-52404/home/121719744,"CRAAR, CDRMLS",2504617,N,Y,41.9674306,-91.682352
MLS Listing,,Single Family Residential,4017 Harwood Dr NE,Cedar Rapids,IA,52411,295777,3,2.5,Cedar Rapids,2146,8451,1993,38,138,12,Active,,,https://www.redfin.com/IA/Cedar-Rapids/4017-Harwood-Dr-NE-52411/home/121188309,"CRAAR, CDRMLS",2504502,N,Y,42.0202969,-91.7081583
MLS Listing,,Single Family Residential,3329 Center Ct,Robins,IA,52328,494990,4,3.0,Robins,2671,13500,2025,38,185,8,Active,,,https://www.redfin.com/IA/Robins/3329-Center-CT-52328/home/196178438,"CRAAR, CDRMLS",2504686,N,Y,42.090717,-91.68012
MLS Listing,,Single Family Residential,3339 Center Ct,Robins,IA,52328,454990,3,2.0,Robins,1612,13500,2025,38,282,8,Active,,,https://www.redfin.com/IA/Robins/3339-Center-CT-52328/home/196178437,"CRAAR, CDRMLS",2504688,N,Y,42.090964,-91.680116
MLS Listing,,Single Family Residential,1301 Scarlet Sage Dr SW,Cedar Rapids,IA,52404,337500,4,3.0,Cedar Rapids,2167,7841,2011,38,156,,Active,,,https://www.redfin.com/IA/Cedar-Rapids/1301-Scarlet-Sage-Dr-SW-52404/home/121473326,"CRAAR, CDRMLS",2504679,N,Y,41.9165136,-91.6344356
MLS Listing,,Single Family Residential,509 Grey Slate Dr SW,Cedar Rapids,IA,52404,397500,3,2.5,Cedar Rapids,1776,10062,2021,38,224,,Active,,,https://www.redfin.com/IA/Cedar-Rapids/509-Grey-Slate-Dr-SW-52404/home/170180574,"CRAAR, CDRMLS",2504671,N,Y,41.9667772,-91.7613264
MLS Listing,,Condo/Co-op,4725 Westchester Dr Dr NE Unit C,Cedar Rapids,IA,52402,180000,3,2.0,Cedar Rapids,1550,,1992,38,116,275,Active,August-3-2025 12:00 PM,August-3-2025 01:30 PM,https://www.redfin.com/IA/Cedar-Rapids/4725-Westchester-Dr-NE-52402/unit-C/home/121973476,"CRAAR, CDRMLS",2504650,N,Y,42.0265407,-91.6847629
MLS Listing,,Single Family Residential,7812 Wieneke Cir,Cedar Rapids,IA,52404,415000,3,1.5,Cedar Rapids,2044,54014,1965,38,203,,Active,,,https://www.redfin.com/IA/Cedar-Rapids/7812-Wieneke-Cir-52404/home/121634735,"CRAAR, CDRMLS",2504641,N,Y,41.9609463,-91.7713973
MLS Listing,,Single Family Residential,143 21st St SW,Cedar Rapids,IA,52404,152500,2,1.5,Cedar Rapids,930,8625,1948,39,164,,Active,,,https://www.redfin.com/IA/Cedar-Rapids/143-21st-St-SW-52404/home/121540882,"CRAAR, CDRMLS",2504664,N,Y,41.9695837,-91.7012838
MLS Listing,,Ranch,6451 16th Ave SW,Cedar Rapids,IA,52404,625000,,,Cedar Rapids,,132684,,39,,,Active,,,https://www.redfin.com/IA/Cedar-Rapids/6451-16th-Ave-SW-52404/home/121508877,"CRAAR, CDRMLS",2504656,N,Y,41.9632671,-91.7538571
MLS Listing,,Single Family Residential,1551 C Ave Ave NE,Cedar Rapids,IA,52402,157000,3,2.0,Cedar Rapids,1650,5619,1900,39,95,,Active,,,https://www.redfin.com/IA/Cedar-Rapids/1551-C-Ave-NE-52402/home/121316277,"CRAAR, CDRMLS",2504122,N,Y,41.9914467,-91.6531467
MLS Listing,,Condo/Co-op,620 Colton Circle Cir NE #11,Cedar Rapids,IA,52402,117900,2,1.0,Bowman Square,922,,2004,42,128,175,Active,,,https://www.redfin.com/IA/Cedar-Rapids/620-Colton-Cir-NE-52402/unit-11/home/121969808,ICAARMLS,202504127,N,Y,42.0493601,-91.640709
MLS Listing,,Single Family Residential,705 Grant Wood Dr SE,Cedar Rapids,IA,52403,270000,4,2.5,Cedar Rapids,1535,7449,1958,42,176,,Active,,,https://www.redfin.com/IA/Cedar-Rapids/705-Grant-Wood-Dr-SE-52403/home/121248409,"CRAAR, CDRMLS",2504623,N,Y,41.9780338,-91.6298326
MLS Listing,,Single Family Residential,3519 NE Timber Ridge Trl,Cedar Rapids,IA,52411,600000,5,3.0,Timber Ridge,3838,76230,1991,42,156,,Active,August-3-2025 02:00 PM,August-3-2025 04:00 PM,https://www.redfin.com/IA/Cedar-Rapids/3519-Timber-Ridge-Trl-52411/home/121485877,ICAARMLS,202504104,N,Y,42.0838574,-91.7080866
MLS Listing,,Condo/Co-op,664 J Ave Ave NE,Cedar Rapids,IA,52402,250000,3,3.0,501-APPLEWOOD EST 17,2025,,2004,42,123,370,Active,,,https://www.redfin.com/IA/Cedar-Rapids/664-J-Ave-NE-52402/home/196143837,ICAARMLS,202504098,N,Y,42.0023321,-91.6777201
MLS Listing,,Condo/Co-op,664 J Ave Ave NE Unit A,Cedar Rapids,IA,52402,250000,3,3.0,Cedar Rapids,2025,,2004,42,123,370,Active,,,https://www.redfin.com/IA/Cedar-Rapids/664-J-Ave-NE-52402/unit-A/home/121269080,"CRAAR, CDRMLS",2504555,N,Y,42.0023321,-91.6777201
MLS Listing,,Single Family Residential,614 Grey Slate Dr SW,Cedar Rapids,IA,52404,400000,3,2.0,Cedar Rapids,1433,9042,2025,42,279,,Active,,,https://www.redfin.com/IA/Cedar-Rapids/614-Grey-Slate-Dr-SW-52404/home/182697007,"CRAAR, CDRMLS",2504605,N,Y,41.965642,-91.762019
MLS Listing,,Single Family Residential,620 Grey Slate Dr SW,Cedar Rapids,IA,52404,510000,5,3.0,Cedar Rapids,2591,10336,2025,42,197,,Active,,,https://www.redfin.com/IA/Cedar-Rapids/620-Grey-Slate-Dr-SW-52404/home/182697006,"CRAAR, CDRMLS",2504604,N,Y,41.965448,-91.762019
MLS Listing,,Single Family Residential,2540 Lori Dr SW,Cedar Rapids,IA,52404,230000,3,2.0,Cedar Rapids,2096,8296,1979,42,110,,Active,,,https://www.redfin.com/IA/Cedar-Rapids/2540-Lori-Dr-SW-52404/home/121056818,"CRAAR, CDRMLS",2504601,N,Y,41.9531208,-91.704851
MLS Listing,,Single Family Residential,5515 W Mustang Rd NE,Cedar Rapids,IA,52411,565000,4,3.5,Cedar Rapids,3456,43560,1998,42,163,,Active,,,https://www.redfin.com/IA/Cedar-Rapids/5515-W-Mustang-Rd-52411/home/121587214,"CRAAR, CDRMLS",2504592,N,Y,42.0539558,-91.7151955
MLS Listing,,Single Family Residential,2260 Country Club Pkwy SE,Cedar Rapids,IA,52403,495000,4,3.5,Cedar Rapids,3745,15856,1953,43,132,,Active,,,https://www.redfin.com/IA/Cedar-Rapids/2260-Country-Club-Pkwy-SE-52403/home/122073634,"CRAAR, CDRMLS",2504563,N,Y,41.9990057,-91.628812
MLS Listing,,Single Family Residential,3310 Timber Ridge Ct,Marion,IA,52302,719900,5,3.0,Marion,3519,16074,2024,44,205,,Active,,,https://www.redfin.com/IA/Marion/3310-Timber-Ridge-Ct-52302/home/196128681,"CRAAR, CDRMLS",2504550,N,Y,42.056585,-91.630878
MLS Listing,,Single Family Residential,2416 Kestrel Dr SE,Cedar Rapids,IA,52403,570000,5,3.0,.,3262,11326,2025,44,175,,Active,August-3-2025 04:00 PM,August-3-2025 05:00 PM,https://www.redfin.com/IA/Cedar-Rapids/2416-Kestrel-Dr-SE-52403/home/190392026,ICAARMLS,202504047,N,Y,41.9517063,-91.6217946
MLS Listing,,Single Family Residential,446 Bezdek Dr NW,Cedar Rapids,IA,52405,245000,3,2.5,Cedar Rapids,1389,13199,1991,44,176,,Active,August-3-2025 02:00 PM,August-3-2025 03:30 PM,https://www.redfin.com/IA/Cedar-Rapids/446-Bezdek-Dr-NW-52405/home/121250314,"CRAAR, CDRMLS",2504519,N,Y,41.9768132,-91.7309239
MLS Listing,,Single Family Residential,259 25th Ave SW,Cedar Rapids,IA,52404,125000,2,1.0,Cedar Rapids,640,8276,1924,44,195,,Active,,,https://www.redfin.com/IA/Cedar-Rapids/259-25th-Ave-SW-52404/home/121530128,"CRAAR, CDRMLS",2503752,N,Y,41.9535157,-91.6681407
MLS Listing,,Single Family Residential,1402 N St SW,Cedar Rapids,IA,52404,127700,4,2.0,Cedar Rapids,1082,4704,1906,45,118,,Active,,,https://www.redfin.com/IA/Cedar-Rapids/1402-N-St-SW-52404/home/121408562,"CRAAR, CDRMLS",2504463,N,Y,41.9641113,-91.6736587
MLS Listing,,Single Family Residential,2851 Mary Green Rd,Hiawatha,IA,52233,371990,4,3.0,Hiawatha,2191,12415,2025,45,170,8,Active,,,https://www.redfin.com/IA/Hiawatha/2851-Mary-Green-Rd-52233/home/188678741,"CRAAR, CDRMLS",2504511,N,Y,42.0705452,-91.7090832
MLS Listing,,Vacant Land,2335 SW Wiley Blvd,Cedar Rapids,IA,52404,200000,,,Southwest,,55757,,46,,,Active,,,https://www.redfin.com/IA/Cedar-Rapids/2335-Wiley-Rd-52404/home/180801789,ICAARMLS,202503997,N,Y,41.955516,-91.725398
MLS Listing,,Single Family Residential,362 Garden Dr Dr SE,Cedar Rapids,IA,52403,425000,4,2.5,Cedar Rapids,3436,9583,1923,46,124,,Active,August-3-2025 02:00 PM,August-3-2025 03:30 PM,https://www.redfin.com/IA/Cedar-Rapids/362-Garden-Dr-SE-52403/home/121825075,"CRAAR, CDRMLS",2504448,N,Y,41.9855949,-91.6367683
MLS Listing,,Single Family Residential,5007 Dostal Dr,Cedar Rapids,IA,52404,329900,3,3.0,Cedar Rapids,2500,8712,2025,46,132,,Active,,,https://www.redfin.com/IA/Cedar-Rapids/5007-Dostal-Ct-SW-52404/home/177653821,"CRAAR, CDRMLS",2504456,N,Y,41.9486555,-91.7373635
MLS Listing,,Ranch,237 34th St St SE,Cedar Rapids,IA,52403,90000,,,Cedar Rapids,,27007,,46,,,Active,,,https://www.redfin.com/IA/Cedar-Rapids/237-34th-St-SE-52403/home/121520271,"CRAAR, CDRMLS",2504424,N,Y,41.990284,-91.619105
MLS Listing,,Single Family Residential,6234 Eastview Ave Ave SW,Cedar Rapids,IA,52404,249900,4,2.0,Cedar Rapids,1588,5663,1972,48,157,,Active,,,https://www.redfin.com/IA/Cedar-Rapids/6234-Eastview-Ave-SW-52404/home/122053075,ICAARMLS,202503980,N,Y,41.9689234,-91.7524266
MLS Listing,,Condo/Co-op,250 Cimarron Dr NE,Hiawatha,IA,52233,149900,2,2.0,Hiawatha,1043,,2001,49,144,230,Active,,,https://www.redfin.com/IA/Hiawatha/250-Cimarron-Dr-NE-52233/home/180806072,"CRAAR, CDRMLS",2504433,N,Y,42.041792,-91.667693
MLS Listing,,Single Family Residential,218 Teakwood Ln NE,Cedar Rapids,IA,52402,499000,7,3.5,Cedar Rapids,3996,11195,2002,49,125,,Active,,,https://www.redfin.com/IA/Cedar-Rapids/218-Teakwood-Ln-NE-52402/home/121036065,"CRAAR, CDRMLS",2504376,N,Y,42.038906,-91.6357549
MLS Listing,,Single Family Residential,1557 7th Ave Ave SE,Cedar Rapids,IA,52403,109900,3,1.0,SE QUADRANT,1344,3049,1915,49,82,,Active,August-3-2025 10:00 AM,August-3-2025 11:30 AM,https://www.redfin.com/IA/Cedar-Rapids/1557-7th-Ave-SE-52403/home/121954702,ICAARMLS,202503950,N,Y,41.9803123,-91.6479927
MLS Listing,,Single Family Residential,2145 Coldstream Ave,Cedar Rapids,IA,52402,345000,3,2.0,FIRST ADDITION,1974,35719,1989,49,175,,Active,August-3-2025 11:00 AM,August-3-2025 12:00 PM,https://www.redfin.com/IA/Cedar-Rapids/2145-Coldstream-Ave-NE-52402/home/121268911,ICAARMLS,202503936,N,Y,42.0075099,-91.6715213
MLS Listing,,Single Family Residential,2175 Chandler St St SW,Cedar Rapids,IA,52404,219000,4,2.0,Westland Heights 2nd STR/,1988,3197,1954,49,110,,Active,,,https://www.redfin.com/IA/Cedar-Rapids/2175-Chandler-St-SW-52404/home/121737050,ICAARMLS,202503917,N,Y,41.9655569,-91.7031219
MLS Listing,,Condo/Co-op,400 1st St SE #410,Cedar Rapids,IA,52401,98900,2,1.5,Cedar Rapids,1189,,1990,50,83,150,Active,,,https://www.redfin.com/IA/Cedar-Rapids/400-1st-St-SE-52401/unit-410/home/121084812,"CRAAR, CDRMLS",2504388,N,Y,41.9753242,-91.6663788
MLS Listing,,Single Family Residential,1424 N Ave,Cedar Rapids,IA,52405,222000,3,2.0,INDIAN OAKS 1ST,2030,7841,1976,50,109,,Active,,,https://www.redfin.com/IA/Cedar-Rapids/1424-N-Ave-NW-52405/home/121812584,ICAARMLS,202503894,N,Y,41.9879339,-91.6920208
MLS Listing,,Single Family Residential,4402 Oak Leaf Ct NE,Cedar Rapids,IA,52411,749000,6,5.0,Cedar Rapids,5465,21344,2000,50,137,,Active,,,https://www.redfin.com/IA/Cedar-Rapids/4402-Oak-Leaf-Ct-NE-52411/home/121844326,"CRAAR, CDRMLS",2504367,N,Y,42.0248021,-91.7165336
MLS Listing,,Single Family Residential,5515 Seminole Valley Trl NE,Cedar Rapids,IA,52411,738451,5,3.0,Cedar Rapids,3403,24394,2025,50,217,17,Active,,,https://www.redfin.com/IA/Cedar-Rapids/5515-Seminole-Valley-Trl-NE-52411/home/182698429,"CRAAR, CDRMLS",2504361,N,Y,42.0105915,-91.7160103
MLS Listing,,Single Family Residential,6820 Boxwood Ln NE,Cedar Rapids,IA,52402,205000,3,1.5,Cedar Rapids,1459,7405,1977,50,141,,Active,,,https://www.redfin.com/IA/Cedar-Rapids/6820-Boxwood-Ln-NE-52402/home/122022361,"CRAAR, CDRMLS",2504357,N,Y,42.0469658,-91.6628601
MLS Listing,,Condo/Co-op,100 4th Ave SW #204,Cedar Rapids,IA,52404,399900,2,2.0,Cedar Rapids,1644,,2013,50,243,590,Active,,,https://www.redfin.com/IA/Cedar-Rapids/100-4th-Ave-SW-52404/unit-204/home/122151294,"CRAAR, CDRMLS",2504358,N,Y,41.9738541,-91.6718099
MLS Listing,,Single Family Residential,5527 Seminole Valley Trl NE,Cedar Rapids,IA,52411,876836,5,3.0,Cedar Rapids,3932,102802,2025,50,223,17,Active,,,https://www.redfin.com/IA/Cedar-Rapids/5527-Seminole-Valley-Trl-NE-52411/home/182698432,"CRAAR, CDRMLS",2504356,N,Y,42.0102065,-91.7152179
MLS Listing,,Single Family Residential,5503 Seminole Valley Trl NE,Cedar Rapids,IA,52411,659900,5,3.0,Cedar Rapids,3134,17860,2025,50,211,17,Active,,,https://www.redfin.com/IA/Cedar-Rapids/5503-Seminole-Valley-Trl-NE-52411/home/182695982,"CRAAR, CDRMLS",2504355,N,Y,42.011212,-91.71625
MLS Listing,,Single Family Residential,5509 Seminole Valley Trl NE,Cedar Rapids,IA,52411,599760,5,3.0,Cedar Rapids,2856,19079,2025,50,210,17,Active,,,https://www.redfin.com/IA/Cedar-Rapids/5509-Seminole-Valley-Trl-NE-52411/home/182698427,"CRAAR, CDRMLS",2504353,N,Y,42.0108771,-91.7161906
MLS Listing,,Single Family Residential,2511 SW Indiana St,Cedar Rapids,IA,52404,169900,3,1.0,WILSON HEIGHTS 3RD STR/LB,845,7841,1953,51,201,,Active,,,https://www.redfin.com/IA/Cedar-Rapids/2511-Indiana-St-SW-52404/home/121145638,ICAARMLS,202503859,N,Y,41.954306,-91.6754105
MLS Listing,,Single Family Residential,129 13th St NW,Cedar Rapids,IA,52405,109900,3,1.0,Cedar Rapids,1225,2788,1926,51,90,,Active,,,https://www.redfin.com/IA/Cedar-Rapids/129-13th-St-NW-52405/home/121212925,"CRAAR, CDRMLS",2504337,N,Y,41.9721175,-91.6886132
MLS Listing,,Condo/Co-op,130 Thompson Dr SE #320,Cedar Rapids,IA,52403,112900,1,1.0,Cedar Rapids,980,,1972,51,115,320,Active,,,https://www.redfin.com/IA/Cedar-Rapids/130-Thompson-Dr-SE-52403/unit-320/home/122133982,"CRAAR, CDRMLS",2504322,N,Y,41.9987961,-91.6358834
MLS Listing,,Condo/Co-op,3516 Stoneview Cir,Cedar Rapids,IA,52404,210000,2,1.5,Cedar Rapids,1759,,2005,51,119,150,Active,August-3-2025 12:00 PM,August-3-2025 01:30 PM,https://www.redfin.com/IA/Cedar-Rapids/3516-Stoneview-Cir-SW-52404/home/122137859,"CRAAR, CDRMLS",2504308,N,Y,41.943063,-91.750461
MLS Listing,,Single Family Residential,114 Tomahawk Trl Trl SE,Cedar Rapids,IA,52403,409900,4,3.0,ARBOR OAKS 2ND,3329,18295,1980,51,123,,Active,,,https://www.redfin.com/IA/Cedar-Rapids/114-Tomahawk-Trl-SE-52403/home/121404484,ICAARMLS,202503837,N,Y,41.9923792,-91.6125596
MLS Listing,,Single Family Residential,1900 Linden Dr SE,Cedar Rapids,IA,52403,589900,5,3.5,Cedar Rapids,4217,35284,1911,52,140,,Active,,,https://www.redfin.com/IA/Cedar-Rapids/1900-Linden-Dr-SE-52403/home/121547351,"CRAAR, CDRMLS",2504286,N,Y,41.9913988,-91.6423425
MLS Listing,,Single Family Residential,1915 Higley Ave SE,Cedar Rapids,IA,52403,110000,2,1.0,Cedar Rapids,748,3833,1924,52,147,,Active,,,https://www.redfin.com/IA/Cedar-Rapids/1915-Higley-Ave-SE-52403/home/121844691,"CRAAR, CDRMLS",2504263,N,Y,41.9779414,-91.6421476
MLS Listing,,Single Family Residential,7001 Surrey Dr Dr NE,Cedar Rapids,IA,52402,299900,4,3.0,Cedar Rapids,2877,10542,1977,52,104,,Active,,,https://www.redfin.com/IA/Cedar-Rapids/7001-Surrey-Dr-NE-52402/home/121670494,"CRAAR, CDRMLS",2503982,N,Y,42.047959,-91.6324415
MLS Listing,,Condo/Co-op,1953 1st Ave #301 Ave #301,Cedar Rapids,IA,52403,629900,2,2.0,Douglas on First,1763,,2022,52,357,479,Active,,,https://www.redfin.com/IA/Cedar-Rapids/1953-1st-Ave-E-52402/unit-301/home/190397662,ICAARMLS,202503812,N,Y,41.9939147,-91.6422507
MLS Listing,,Condo/Co-op,1953 1st Ave #306 Ave #306,Cedar Rapids,IA,52403,589900,2,2.0,Douglas on First,1763,,2022,52,335,479,Active,,,https://www.redfin.com/IA/Cedar-Rapids/1953-1st-Ave-E-52402/unit-306/home/190397685,ICAARMLS,202503809,N,Y,41.9939147,-91.6422507
MLS Listing,,Condo/Co-op,1953 1st Ave #205 Ave #205,Cedar Rapids,IA,52403,469900,2,2.0,Douglas on First,1473,,2022,52,319,400,Active,,,https://www.redfin.com/IA/Cedar-Rapids/1953-1st-Ave-E-52402/unit-205/home/190398004,ICAARMLS,202503811,N,Y,41.9939147,-91.6422507
MLS Listing,,Condo/Co-op,1953 1st Ave #205,Cedar Rapids,IA,52403,469900,2,2.0,Cedar Rapids,1473,,2022,52,319,4798,Active,,,https://www.redfin.com/IA/Cedar-Rapids/1953-1st-Ave-SE-52402/unit-205/home/180800476,"CRAAR, CDRMLS",2504287,N,Y,41.9935472,-91.6418312
MLS Listing,,Condo/Co-op,2596 Anne Ln,Hiawatha,IA,52233,224990,3,2.5,Hiawatha,1511,3441,2024,52,149,175,Active,,,https://www.redfin.com/IA/Hiawatha/2596-Anne-Ln-52233/home/184809262,"CRAAR, CDRMLS",2504280,N,Y,42.07269,-91.702258
MLS Listing,,Condo/Co-op,2598 Anne Ln,Hiawatha,IA,52233,234990,3,2.5,Hiawatha,1511,3441,2024,52,156,175,Active,,,https://www.redfin.com/IA/Hiawatha/2598-Anne-Ln-52233/home/184809191,"CRAAR, CDRMLS",2504278,N,Y,42.072643,-91.702375
MLS Listing,,Condo/Co-op,2583 Carolyn Dr,Hiawatha,IA,52233,224990,3,2.5,Hiawatha,1511,3441,2024,52,149,175,Active,,,https://www.redfin.com/IA/Hiawatha/2583-Carolyn-Dr-52233/home/188678850,"CRAAR, CDRMLS",2504276,N,Y,42.072225,-91.702334
MLS Listing,,Condo/Co-op,2585 Carolyn Dr,Hiawatha,IA,52233,224990,3,2.5,Hiawatha,1511,3441,2024,52,149,175,Active,,,https://www.redfin.com/IA/Hiawatha/2585-Carolyn-Dr-52233/home/188678847,"CRAAR, CDRMLS",2504275,N,Y,42.072296,-91.702333
MLS Listing,,Condo/Co-op,2581 Carolyn Dr,Hiawatha,IA,52233,234990,3,2.5,Hiawatha,1511,3441,2024,52,156,175,Active,,,https://www.redfin.com/IA/Hiawatha/2581-Carolyn-Dr-52233/home/188678852,"CRAAR, CDRMLS",2504274,N,Y,42.072137,-91.702334
MLS Listing,,Single Family Residential,1808 SW Scarlet Sage Dr,Cedar Rapids,IA,52404,389000,3,2.0,Teck Place,1427,,2022,53,273,,Active,August-3-2025 02:00 PM,August-3-2025 04:00 PM,https://www.redfin.com/IA/Cedar-Rapids/1808-Scarlet-Sage-Dr-SW-52404/home/177653693,ICAARMLS,202503795,N,Y,41.912901,-91.6295522
MLS Listing,,Condo/Co-op,4320 Maureen Ct SE #176,Cedar Rapids,IA,52403,139900,2,2.0,Cedar Rapids,1185,,1994,53,118,175,Active,,,https://www.redfin.com/IA/Cedar-Rapids/4320-Maureen-Ct-SE-52403/unit-176/home/120782993,"CRAAR, CDRMLS",2504255,N,Y,42.0206837,-91.6171545
MLS Listing,,Condo/Co-op,1450 Tower Ln Ln NE,Cedar Rapids,IA,52402,210000,2,1.5,Fieldstone,1405,,2006,53,149,160,Active,,,https://www.redfin.com/IA/Cedar-Rapids/1450-Tower-Ln-NE-52402/home/196026389,ICAARMLS,202503794,N,Y,42.0456615,-91.6574401
MLS Listing,,Single Family Residential,1649 Memorial Dr SE,Cedar Rapids,IA,52403,332900,5,2.0,Cedar Rapids,2479,91912,1972,55,134,,Active,August-2-2025 02:30 PM,August-2-2025 04:00 PM,https://www.redfin.com/IA/Cedar-Rapids/1649-Memorial-Dr-SE-52403/home/121605270,"CRAAR, CDRMLS",2504235,N,Y,41.9680927,-91.6295731
MLS Listing,,Condo/Co-op,5794 Oakwood Ave Ave NE #2,Cedar Rapids,IA,52402,242000,3,2.5,501-TOWERING OK TNHM,2559,,2004,55,95,300,Active,,,https://www.redfin.com/IA/Cedar-Rapids/5794-Oakwood-Ave-NE-52402/unit-2/home/122149748,ICAARMLS,202503773,N,Y,42.0364934,-91.6436251
MLS Listing,,Condo/Co-op,2131 1st Ave SE #116,Cedar Rapids,IA,52403,114500,2,2.0,Cedar Rapids,1248,,1979,56,92,329,Active,,,https://www.redfin.com/IA/Cedar-Rapids/2131-1st-Ave-SE-52402/unit-116/home/121937198,"CRAAR, CDRMLS",2502823,N,Y,41.9967255,-91.6363656
MLS Listing,,Single Family Residential,2430 Victoria Dr Dr SW,Cedar Rapids,IA,52404,190000,2,2.0,SW QUADRANT,910,7405,1970,57,209,,Active,,,https://www.redfin.com/IA/Cedar-Rapids/2430-Victoria-Dr-SW-52404/home/121232441,ICAARMLS,202503708,N,Y,41.9540435,-91.6570976
MLS Listing,,Single Family Residential,2890 Meadow Ct,Hiawatha,IA,52233,390000,4,3.0,Hiawatha,2511,9932,2022,57,155,8,Active,,,https://www.redfin.com/IA/Hiawatha/2890-Meadow-Ct-52233/home/184706907,"CRAAR, CDRMLS",2504159,N,Y,42.071369,-91.712196
MLS Listing,,Condo/Co-op,3511 E Ave NW Unit D,Cedar Rapids,IA,52405,113450,2,2.0,Cedar Rapids,975,,1999,57,116,170,Active,,,https://www.redfin.com/IA/Cedar-Rapids/3511-E-Ave-NW-52405/unit-D/home/190254425,"CRAAR, CDRMLS",2504153,N,Y,41.9773478,-91.7176251
MLS Listing,,Ranch,3063 Dell Ridge Ln,Hiawatha,IA,52233,105000,,,Hiawatha,,23958,,57,,10,Active,,,https://www.redfin.com/IA/Hiawatha/3063-Dell-Ridge-Ln-52233/home/147604367,"CRAAR, CDRMLS",2504128,N,Y,42.0823156,-91.7046941
MLS Listing,,Ranch,929 Messina Dr NE,Cedar Rapids,IA,52402,65000,,,Cedar Rapids,,8843,,58,,,Active,,,https://www.redfin.com/IA/Cedar-Rapids/929-Messina-Dr-NE-52402/home/194669974,"CRAAR, CDRMLS",2504115,N,Y,42.057576,-91.648778
MLS Listing,,Ranch,1006 Messina Dr NE,Cedar Rapids,IA,52402,67000,,,Cedar Rapids,,10454,,58,,,Active,,,https://www.redfin.com/IA/Cedar-Rapids/1006-Messina-Dr-NE-52402/home/186424547,"CRAAR, CDRMLS",2504116,N,Y,42.058285,-91.649551
MLS Listing,,Ranch,1138 Messina Dr NE,Cedar Rapids,IA,52402,69000,,,Cedar Rapids,,16117,,58,,,Active,,,https://www.redfin.com/IA/Cedar-Rapids/1138-Messina-Dr-NE-52402/home/187379923,"CRAAR, CDRMLS",2504117,N,Y,42.058315,-91.652429
MLS Listing,,Ranch,1839-1841 MT Vernon Rd SE,Cedar Rapids,IA,52403,50000,,,Cedar Rapids,,12284,,58,,,Active,,,https://www.redfin.com/IA/Cedar-Rapids/1839-Mount-Vernon-Rd-SE-52403/home/195259142,"CRAAR, CDRMLS",2504114,N,Y,41.9768816,-91.6425085
MLS Listing,,Single Family Residential,6421 Ascot Ln NE,Cedar Rapids,IA,52411,680000,5,3.0,Cedar Rapids,3325,19602,2025,58,205,,Active,,,https://www.redfin.com/IA/Cedar-Rapids/6421-Ascot-Ln-52411/home/195489679,"CRAAR, CDRMLS",2504109,N,Y,42.043786,-91.732417
MLS Listing,,Single Family Residential,944 L St St SW,Cedar Rapids,IA,52404,122500,2,1.0,Cedar Rapids,636,4050,1885,58,193,,Active,August-3-2025 02:30 PM,August-3-2025 04:00 PM,https://www.redfin.com/IA/Cedar-Rapids/944-L-St-SW-52404/home/120996669,"CRAAR, CDRMLS",2504099,N,Y,41.966371,-91.6717614
MLS Listing,,Single Family Residential,281 NW Jacolyn Dr,Cedar Rapids,IA,52405,195000,3,2.0,Cedar Rapids,1168,9322,1956,58,167,,Active,,,https://www.redfin.com/IA/Cedar-Rapids/281-Jacolyn-Dr-NW-52405/home/121146711,"CRAAR, CDRMLS",2504087,N,Y,41.9742033,-91.7352613
MLS Listing,,Ranch,3056 Forrest Hill Ct,Hiawatha,IA,52233,49900,,,Hiawatha,,57499,,59,,13,Active,,,https://www.redfin.com/IA/Hiawatha/3056-Forrest-Hill-Ct-52233/home/147604371,"CRAAR, CDRMLS",2504039,N,Y,42.0817339,-91.7030187
MLS Listing,,Single Family Residential,6405 Hillcrest Rd,Cedar Rapids,IA,52404,399000,4,3.5,Cedar Rapids,3908,43560,1981,59,102,73,Active,,,https://www.redfin.com/IA/Cedar-Rapids/6405-Hillcrest-Rd-52404/home/121972596,"CRAAR, CDRMLS",2504022,N,Y,41.9297713,-91.7541643
MLS Listing,,Vacant Land,327 NW Edgewood Rd,Cedar Rapids,IA,52405,320000,,,Hagan's 1st,,82328,,59,,,Active,,,https://www.redfin.com/IA/Cedar-Rapids/327-Edgewood-Rd-NW-52405/home/181170886,ICAARMLS,202503605,N,Y,41.9758535,-91.714977
MLS Listing,,Single Family Residential,2251 Bever Ave SE,Cedar Rapids,IA,52403,190000,3,2.0,Cedar Rapids,1485,7275,1925,59,128,,Active,,,https://www.redfin.com/IA/Cedar-Rapids/2251-Bever-Ave-SE-52403/home/122139285,"CRAAR, CDRMLS",2504037,N,Y,41.984084,-91.6347499
MLS Listing,,Single Family Residential,2098 Litchfield Dr,Hiawatha,IA,52233,422000,5,3.5,Hiawatha,3632,25265,1993,60,116,,Active,,,https://www.redfin.com/IA/Hiawatha/2098-Litchfield-Dr-52233/home/121587111,"CRAAR, CDRMLS",2503981,N,Y,42.0428976,-91.7018329
MLS Listing,,Single Family Residential,409 Carter St St NW,Cedar Rapids,IA,52405,212500,3,1.5,Cedar Rapids,1494,6403,1960,60,142,,Active,,,https://www.redfin.com/IA/Cedar-Rapids/409-Carter-St-NW-52405/home/121093819,"CRAAR, CDRMLS",2504008,N,Y,41.9763972,-91.7409903
MLS Listing,,Single Family Residential,307 Crescent St SE,Cedar Rapids,IA,52403,545000,4,4.0,Cedar Rapids,4531,28793,1926,60,120,,Active,,,https://www.redfin.com/IA/Cedar-Rapids/307-Crescent-St-SE-52403/home/121776220,"CRAAR, CDRMLS",2503402,N,Y,41.9902043,-91.6391749
MLS Listing,,Condo/Co-op,250 Cimarron Dr #122,Hiawatha,IA,52233,142500,2,2.0,Hiawatha,1032,,2000,60,138,230,Active,,,https://www.redfin.com/IA/Hiawatha/250-Cimarron-Dr-52233/unit-122/home/121501248,"CRAAR, CDRMLS",2503995,N,Y,42.0421433,-91.6675087
MLS Listing,,Single Family Residential,1727 Northbrook Dr NE,Cedar Rapids,IA,52402,199000,3,1.5,Cedar Rapids,1317,9583,1972,60,151,,Active,,,https://www.redfin.com/IA/Cedar-Rapids/1727-Northbrook-Dr-NE-52402/home/121842798,"CRAAR, CDRMLS",2503993,N,Y,42.0426809,-91.6630714
MLS Listing,,Single Family Residential,2520 Falbrook Dr NE,Cedar Rapids,IA,52402,255000,3,1.5,Cedar Rapids,1092,8400,1967,60,234,,Active,,,https://www.redfin.com/IA/Cedar-Rapids/2520-Falbrook-Dr-NE-52402/home/121060354,"CRAAR, CDRMLS",2503991,N,Y,42.021061,-91.6805237
MLS Listing,,Single Family Residential,5817 Underwood Ave SW,Cedar Rapids,IA,52404,205000,4,1.5,Cedar Rapids,1356,6534,1971,61,151,,Active,,,https://www.redfin.com/IA/Cedar-Rapids/5817-Underwood-Ave-SW-52404/home/121437405,"CRAAR, CDRMLS",2503962,N,Y,41.9669463,-91.7469474
MLS Listing,,Single Family Residential,3506 Olde Hickory Ln NW,Cedar Rapids,IA,52405,315000,4,2.5,Cedar Rapids,2582,16988,1978,62,122,29,Active,,,https://www.redfin.com/IA/Cedar-Rapids/3506-Old-Hickory-Ln-NW-52405/home/121464147,"CRAAR, CDRMLS",2503873,N,Y,41.9887345,-91.7174675
MLS Listing,,Single Family Residential,1333 Harold Dr Dr SE,Cedar Rapids,IA,52403,165000,3,1.0,Cedar Rapids,1012,6480,1958,62,163,,Active,,,https://www.redfin.com/IA/Cedar-Rapids/1333-Harold-Dr-SE-52403/home/121839022,"CRAAR, CDRMLS",2503967,N,Y,41.9724259,-91.61569
MLS Listing,,Single Family Residential,662 19th Ave SW,Cedar Rapids,IA,52404,162500,3,1.0,Cedar Rapids,1302,5600,1916,63,125,,Active,,,https://www.redfin.com/IA/Cedar-Rapids/662-19th-Ave-SW-52404/home/121842023,"CRAAR, CDRMLS",2503863,N,Y,41.9600049,-91.6794605
MLS Listing,,Single Family Residential,3340 Village Way,Robins,IA,52328,475000,3,2.0,Robins,1508,21344,2025,63,315,8,Active,,,https://www.redfin.com/IA/Robins/3340-Village-WAY-52328/home/195956021,"CRAAR, CDRMLS",2503958,N,Y,42.091093,-91.681934
MLS Listing,,Single Family Residential,1813 3rd Ave. Ave SE,Cedar Rapids,IA,52403,187500,3,2.0,Cedar Rapids,1613,2508,1910,63,116,,Active,,,https://www.redfin.com/IA/Cedar-Rapids/1813-3rd-Ave-SE-52403/home/120788386,"CRAAR, CDRMLS",2503887,N,Y,41.9900964,-91.643683
MLS Listing,,Single Family Residential,3355 Wild Rose Road Rd,Cedar Rapids,IA,52411,497950,5,3.5,Cedar Rapids,3142,17860,2005,64,158,35,Active,,,https://www.redfin.com/IA/Cedar-Rapids/3355-Wild-Rose-Rd-52411/home/121971075,"CRAAR, CDRMLS",2503767,N,Y,42.0694048,-91.6893528
MLS Listing,,Vacant Land,Lot 1A Buffalo Ridge Dr NE,Cedar Rapids,IA,52411,594828,,,Edgewood Town Centre,,60984,,64,,,Active,,,https://www.redfin.com/IA/Cedar-Rapids/Lot-1A-Buffalo-Ridge-Dr-52411/home/196476945,ICAARMLS,202104268,N,Y,42.03416153,-91.70311769
MLS Listing,,Vacant Land,4620 Prairie Stone Dr NE,Cedar Rapids,IA,52411,924391,,,Edgewood Town Centre,,142006,,64,,,Active,,,https://www.redfin.com/IA/Cedar-Rapids/4620-Prairie-Stone-Dr-NE-52411/home/190299740,ICAARMLS,202104290,N,Y,42.03294404,-91.70612345
MLS Listing,,Vacant Land,8905 6th Street St SW,Cedar Rapids,IA,52404,135000,,,0,,71874,,64,,,Active,,,https://www.redfin.com/IA/Cedar-Rapids/8905-6th-St-SW-52404/home/182102112,ICAARMLS,202306438,N,Y,41.889936,-91.674685
MLS Listing,,Vacant Land,Lot 5 Joco 50 Subdivision,Swisher,IA,52338,572900,,,JoCo 50 Subdivision,,87991,,64,,42,Active,,,https://www.redfin.com/IA/Swisher/Lot-5-Joco-50-Subdivision-52338/home/195948318,ICAARMLS,202501577,N,Y,41.85459105,-91.67461145
MLS Listing,,Vacant Land,Lot 9 Joco 50 Subdivision,Swisher,IA,52338,589900,,,JoCo 50 Subdivision,,118919,,64,,56,Active,,,https://www.redfin.com/IA/Swisher/Lot-9-Joco-50-Subdivision-52338/home/195948317,ICAARMLS,202501579,N,Y,41.85290087,-91.67309869
MLS Listing,,Vacant Land,5230 Edgewood Rd NE,Cedar Rapids,IA,52411,1251378,,,Edgewood Town Centre,,65776,,64,,,Active,,,https://www.redfin.com/IA/Cedar-Rapids/5230-Edgewood-Rd-NE-52411/home/190309751,ICAARMLS,202104273,N,Y,42.0312274,-91.7008147
MLS Listing,,Vacant Land,3355 Stone Creek Cir Cir SW,Cedar Rapids,IA,52404,478000,,,Stone Creek Comm 4th,,121097,,64,,,Active,,,https://www.redfin.com/IA/Cedar-Rapids/3355-Stone-Creek-Cir-SW-52404/home/180800320,ICAARMLS,202500074,N,Y,41.944735,-91.744517
MLS Listing,,Vacant Land,4408 Prairie Stone Dr NE,Cedar Rapids,IA,52411,526904,,,Edgewood Town Centre,,65776,,64,,,Active,,,https://www.redfin.com/IA/Cedar-Rapids/4408-Prairie-Stone-Dr-NE-52411/home/180802253,ICAARMLS,202104287,N,Y,42.03268278,-91.70421811
MLS Listing,,Vacant Land,2835 64th Ave SW,Cedar Rapids,IA,52404,1416353,,,0,,404672,,64,,,Active,,,https://www.redfin.com/IA/Cedar-Rapids/2835-64th-Ave-SW-52404/home/194075053,ICAARMLS,202301678,N,Y,41.913896,-91.708123
MLS Listing,,Vacant Land,Lot 11 Cross Point Blvd NE,Cedar Rapids,IA,52411,1321456,,,Edgewood Town Centre,,77972,,64,,,Active,,,https://www.redfin.com/IA/Cedar-Rapids/Lot-11-Cross-Pointe-Blvd-NE-52411/home/190294759,ICAARMLS,202104284,N,Y,42.03028237,-91.70339236
MLS Listing,,Vacant Land,1590 Stoney Pt Rd & 6600 16th Ave Rd SW,Cedar Rapids,IA,52404,675000,,,Cedar Rapids,,162479,,64,,,Active,,,https://www.redfin.com/IA/Cedar-Rapids/1590-Stoney-Point-Rd-SW-52404/home/121786115,ICAARMLS,202501439,N,Y,41.9644125,-91.7554156
