SALE TYPE,SOLD DATE,PROPERTY TYPE,ADDRESS,CITY,STATE OR PROVINCE,ZIP OR POSTAL CODE,PRICE,BEDS,BATHS,LOCATION,SQUARE FEET,LOT SIZE,YEAR BUILT,DAYS ON MARKET,$/SQUARE FEET,HOA/MONTH,STATUS,NEXT OPEN HOUSE START TIME,NEXT OPEN HOUSE END TIME,URL (SEE https://www.redfin.com/buy-a-home/comparative-market-analysis FOR INFO ON PRICING),SOURCE,MLS#,FAVORITE,INTERESTED,LATITUDE,LONGITUDE
"In accordance with local MLS rules, some MLS listings are not included in the download"
MLS Listing,,Single Family Residential,3420 Humphrey St,St Louis,MO,63118,489000,3,2.5,Tower Grove Heights Amd,2236,39639,1906,8,219,,Active,,,https://www.redfin.com/MO/Saint-Louis/3420-Humphrey-St-63118/home/93671832,MARIS as Distributed by MLS Grid,25049822,N,Y,38.597594,-90.2394386
MLS Listing,,Single Family Residential,4938 Lansdowne Ave,St Louis,MO,63109,297500,3,2.0,Southampton Add,1517,3998,1921,9,196,,Active,,,https://www.redfin.com/MO/Saint-Louis/4938-Lansdowne-Ave-63109/home/93752989,MARIS as Distributed by MLS Grid,25045910,N,Y,38.5877958,-90.2774473
MLS Listing,,Single Family Residential,3335 Pennsylvania Ave,St Louis,MO,63118,285000,4,2.5,South Compton Heights,1920,3118,1898,15,148,,Active,,,https://www.redfin.com/MO/Saint-Louis/3335-Pennsylvania-Ave-63118/home/93693565,MARIS as Distributed by MLS Grid,25047120,N,Y,38.5950258,-90.2335406
MLS Listing,,Single Family Residential,211 Weiss Ave,St Louis,MO,63125,90000,2,1.0,Longwood Add,800,5880,1890,63,113,,Active,,,https://www.redfin.com/MO/Saint-Louis/211-Weiss-Ave-63125/home/93579514,MARIS as Distributed by MLS Grid,25034666,N,Y,38.5360709,-90.2746401
MLS Listing,,Single Family Residential,6211 Idaho Ave,St Louis,MO,63111,159000,3,1.0,Carondelet Commons Fields Add,865,2592,1924,64,184,,Active,,,https://www.redfin.com/MO/Saint-Louis/6211-Idaho-Ave-63111/home/93709448,MARIS as Distributed by MLS Grid,25022896,N,Y,38.5614497,-90.2538113
MLS Listing,,Condo/Co-op,2201 Locust St #312,St Louis,MO,63103,121500,1,1.0,Packard Lofts,985,,1914,79,123,370,Active,,,https://www.redfin.com/MO/Saint-Louis/411-N-22nd-St-63103/unit-312/home/93677722,MARIS as Distributed by MLS Grid,25032018,N,Y,38.6337106,-90.2110476
MLS Listing,,Single Family Residential,1003 Allen Ave,St Louis,MO,63104,300000,2,1.5,Allens Add,1260,4060,1885,93,238,,Active,,,https://www.redfin.com/MO/Saint-Louis/1003-Allen-Ave-63104/home/93685680,MARIS as Distributed by MLS Grid,25027220,N,Y,38.6082352,-90.2061915
MLS Listing,,Single Family Residential,6451 Odell St,St Louis,MO,63139,264000,3,2.0,McKees,1180,7535,1920,1,224,,Active,,,https://www.redfin.com/MO/Saint-Louis/6451-Odell-St-63139/home/93744977,MARIS as Distributed by MLS Grid,25053013,N,Y,38.6098474,-90.2979993
MLS Listing,,Single Family Residential,10081 Green Valley Dr,Ferguson,MO,63136,60000,2,1.0,Atwater Terrace,696,7701,1947,1,86,,Active,,,https://www.redfin.com/MO/Saint-Louis/10081-Green-Valley-Dr-63136/home/93388094,MARIS as Distributed by MLS Grid,25048191,N,Y,38.7527414,-90.2633796
MLS Listing,,Condo/Co-op,1915 Senate St Unit C,St Louis,MO,63118,205000,3,1.5,Senate Place Condominiums,1062,,1887,1,193,250,Active,,,https://www.redfin.com/MO/Saint-Louis/1915-Senate-St-63118/unit-C/home/93672834,MARIS as Distributed by MLS Grid,25052578,N,Y,38.6026243,-90.216221
MLS Listing,,Single Family Residential,12845 Meadowdale Dr,Unincorporated,MO,63138,295000,4,2.5,New Jamestown Place,2432,10890,1989,1,121,21,Active,,,https://www.redfin.com/MO/Saint-Louis/12845-Meadowdale-Dr-63138/home/93343066,MARIS as Distributed by MLS Grid,25052921,N,Y,38.8102669,-90.2203077
MLS Listing,,Single Family Residential,6269 Kinsey Pl,St Louis,MO,63109,315000,2,1.0,St. Louis Hills Estates,2004,6969,1955,1,157,,Active,August-3-2025 01:00 PM,August-3-2025 03:00 PM,https://www.redfin.com/MO/Saint-Louis/6269-Kinsey-Pl-63109/home/93783592,MARIS as Distributed by MLS Grid,25050948,N,Y,38.5814123,-90.300276
MLS Listing,,Single Family Residential,3521 Arsenal St,St Louis,MO,63118,400000,4,2.5,Tower Grove Heights,2416,4007,1908,1,166,,Active,August-3-2025 01:00 PM,August-3-2025 03:00 PM,https://www.redfin.com/MO/Saint-Louis/3521-Arsenal-St-63118/home/93692712,MARIS as Distributed by MLS Grid,25050256,N,Y,38.6027084,-90.2407719
MLS Listing,,Single Family Residential,307 Goetz Ave,Unincorporated,MO,63125,189000,2,1.0,Longwood Place,1195,7601,1896,1,158,,Active,,,https://www.redfin.com/MO/Saint-Louis/307-Goetz-Ave-63125/home/93579353,MARIS as Distributed by MLS Grid,25052213,N,Y,38.5336196,-90.2770386
MLS Listing,,Single Family Residential,3511 Hidden Stone Ct,St Louis,MO,63129,309900,3,2.0,Brookstone 2,1433,10742,1977,1,216,,Active,August-3-2025 01:00 PM,August-3-2025 03:00 PM,https://www.redfin.com/MO/Saint-Louis/3511-Hidden-Stone-Ct-63129/home/62751789,MARIS as Distributed by MLS Grid,25027991,N,Y,38.4677944,-90.3367112
MLS Listing,,Single Family Residential,1207 Bakewell Dr,Bellefontaine Nghbrs,MO,63137,79900,2,1.0,Bissell Hills 7,776,6490,1953,1,103,,Active,,,https://www.redfin.com/MO/Saint-Louis/1207-Bakewell-Dr-63137/home/62753642,MARIS as Distributed by MLS Grid,25052854,N,Y,38.7588917,-90.2282572
MLS Listing,,Single Family Residential,5021 Davison,St Louis,MO,63120,70000,2,1.0,ELLENWOOD PARK ADDITION,874,3005,1948,1,80,,Active,,,https://www.redfin.com/MO/Saint-Louis/5021-Davison-Ave-63120/home/93755100,MARIS as Distributed by MLS Grid,25052680,N,Y,38.6940976,-90.2510864
MLS Listing,,Single Family Residential,700 Kaywood Ln,St Louis,MO,63129,300000,3,1.5,Kaywood,1472,20473,1959,1,204,,Active,August-2-2025 10:00 AM,August-2-2025 12:00 PM,https://www.redfin.com/MO/Saint-Louis/700-Kaywood-Ln-63129/home/93607047,MARIS as Distributed by MLS Grid,25051446,N,Y,38.4959049,-90.3067562
MLS Listing,,Single Family Residential,12074 Craig View Dr,St Louis,MO,63146,200000,3,2.0,Pembrooke,1272,7649,1976,1,157,,Active,,,https://www.redfin.com/MO/Saint-Louis/12074-Craig-View-Dr-63146/home/93452835,MARIS as Distributed by MLS Grid,25052308,N,Y,38.6782623,-90.441338
MLS Listing,,Single Family Residential,5660 Pernod Ave,St Louis,MO,63139,270000,2,1.0,Northampton Add,983,5706,1951,1,275,,Active,August-2-2025 11:00 AM,August-2-2025 01:00 PM,https://www.redfin.com/MO/Saint-Louis/5660-Pernod-Ave-63139/home/93781941,MARIS as Distributed by MLS Grid,25051892,N,Y,38.5959525,-90.2874378
MLS Listing,,Condo/Co-op,12812 Portulaca Dr Unit K,,MO,63146,125000,2,1.0,Fern Ridge Condo 4 Bldg 6,784,2308,1984,1,159,360,Active,,,https://www.redfin.com/MO/Saint-Louis/12812-Portulaca-Dr-63146/unit-K/home/93454636,MARIS as Distributed by MLS Grid,25051649,N,Y,38.683202,-90.4748979
MLS Listing,,Condo/Co-op,4454 Lindell Blvd #32,St Louis,MO,63108,375000,4,2.5,Lindell Place,1780,,1984,1,211,707,Active,,,https://www.redfin.com/MO/Saint-Louis/4454-Lindell-Blvd-63108/unit-32/home/93724951,MARIS as Distributed by MLS Grid,25049803,N,Y,38.6414613,-90.2565034
MLS Listing,,Single Family Residential,5853 Clemens Ave,St Louis,MO,63112,299900,3,3.0,West End Twnhse,1948,6024,2008,1,154,,Active,,,https://www.redfin.com/MO/Saint-Louis/5853-Clemens-Ave-63112/home/103203246,MARIS as Distributed by MLS Grid,25029524,N,Y,38.6570612,-90.2884136
MLS Listing,,Single Family Residential,5626 Greenton Way,St Louis,MO,63128,375000,4,2.5,Towne South Estates 3,1866,10798,1971,1,201,13,Active,August-1-2025 05:30 PM,August-1-2025 07:00 PM,https://www.redfin.com/MO/Saint-Louis/5626-Greenton-Way-63128/home/93615921,MARIS as Distributed by MLS Grid,25049809,N,Y,38.4791441,-90.3794518
MLS Listing,,Single Family Residential,8120 S Laclede Station Rd,Unincorporated,MO,63123,239900,4,1.0,Marlborough Gardens,1416,10079,1953,1,169,,Active,,,https://www.redfin.com/MO/Saint-Louis/8120-S-Laclede-Station-Rd-63123/home/62736952,MARIS as Distributed by MLS Grid,25050235,N,Y,38.5650788,-90.3401228
MLS Listing,,Single Family Residential,6316 Tholozan Ave,St Louis,MO,63109,399000,3,2.0,wenzlick park add,2403,4094,1931,1,166,,Active,August-3-2025 12:00 PM,August-3-2025 02:00 PM,https://www.redfin.com/MO/Saint-Louis/6316-Tholozan-Ave-63109/home/93780516,MARIS as Distributed by MLS Grid,25052494,N,Y,38.5961053,-90.2971749
MLS Listing,,Single Family Residential,2323 Macklind Ave,St Louis,MO,63110,359900,2,2.0,Columbia Macklind Heights Add,1238,4373,1925,1,291,,Active,,,https://www.redfin.com/MO/Saint-Louis/2323-Macklind-Ave-63110/home/93771688,MARIS as Distributed by MLS Grid,25052477,N,Y,38.6130636,-90.2781565
MLS Listing,,Single Family Residential,6365 Lansdowne Ave,St Louis,MO,63109,325000,3,2.0,St. Louis Hills Add,1179,5000,1950,1,276,,Active,August-3-2025 01:00 PM,August-3-2025 03:00 PM,https://www.redfin.com/MO/Saint-Louis/6365-Lansdowne-Ave-63109/home/93780101,MARIS as Distributed by MLS Grid,25051884,N,Y,38.5905169,-90.2994683
MLS Listing,,Single Family Residential,5644 Bartmer Ave,St Louis,MO,63146,299000,5,2.5,St Louis,3566,,1903,1,84,,Active,,,https://www.redfin.com/MO/Saint-Louis/5644-Bartmer-Ave-63112/home/93722467,MARIS as Distributed by MLS Grid,25052898,N,Y,38.6624685,-90.282542
MLS Listing,,Single Family Residential,8026 Genesta St,Unincorporated,MO,63123,197000,2,1.0,Genesta Place,783,4477,1941,1,252,,Active,August-2-2025 12:00 PM,August-2-2025 02:00 PM,https://www.redfin.com/MO/Saint-Louis/8026-Genesta-St-63123/home/93559916,MARIS as Distributed by MLS Grid,25039343,N,Y,38.5634464,-90.3105786
MLS Listing,,Single Family Residential,5036 Devonshire Ave,St Louis,MO,63109,399900,3,2.5,Southhampton Add,1820,6250,1916,1,220,,Active,August-1-2025 12:00 PM,August-1-2025 03:00 PM,https://www.redfin.com/MO/Saint-Louis/5036-Devonshire-Ave-63109/home/93753351,MARIS as Distributed by MLS Grid,25052662,N,Y,38.5871351,-90.2796118
MLS Listing,,Single Family Residential,2024 Blendon Pl,St Louis,MO,63143,440000,4,2.5,St Louis,2922,8450,,1,151,,Active,August-3-2025 01:00 PM,August-3-2025 03:00 PM,https://www.redfin.com/MO/Saint-Louis/2024-Blendon-Pl-63143/home/93744126,MARIS as Distributed by MLS Grid,25049369,N,Y,38.6210198,-90.3098075
MLS Listing,,Multi-Family (2-4 Unit),2008 Ann Ave,St Louis,MO,63104,300000,3,3.0,Allens Lafayette Park Add,2352,3241,1914,1,128,,Active,,,https://www.redfin.com/MO/Saint-Louis/2008-Ann-Ave-63104/home/93691278,MARIS as Distributed by MLS Grid,25012313,N,Y,38.608137,-90.2158171
MLS Listing,,Single Family Residential,6200 Deer Hollow Ct,St Louis,MO,63129,600000,4,3.5,Twin Hollows Lt 1 & Clifton Heights Lt Pts,3425,29185,2017,1,175,,Active,August-3-2025 01:00 PM,August-3-2025 03:00 PM,https://www.redfin.com/MO/Saint-Louis/6200-Deer-Hollow-Ct-63129/home/146516288,MARIS as Distributed by MLS Grid,25034987,N,Y,38.4527889,-90.2949164
MLS Listing,,Single Family Residential,6425 Myrlette Ct,St Louis,MO,63116,299000,2,1.5,Holly Hills Gardens Add,1700,9060,1953,1,176,,Active,August-3-2025 01:00 PM,August-3-2025 03:00 PM,https://www.redfin.com/MO/Saint-Louis/6425-Myrlette-Ct-63116/home/66604230,MARIS as Distributed by MLS Grid,25049900,N,Y,38.5713204,-90.279364
MLS Listing,,Single Family Residential,10814 Galena Ct,St Louis,MO,63123,295000,3,1.0,Tara 2,1444,9478,1956,1,204,,Active,August-3-2025 01:00 PM,August-3-2025 03:00 PM,https://www.redfin.com/MO/Saint-Louis/10814-Galena-Ct-63123/home/93584520,MARIS as Distributed by MLS Grid,25049296,N,Y,38.532052,-90.3560628
MLS Listing,,Single Family Residential,7141 Sharp Ave,St Louis,MO,63116,180000,2,2.0,Marwinette Place Addition,864,5292,1950,1,208,,Active,,,https://www.redfin.com/MO/Saint-Louis/7141-Sharp-Ave-63116/home/93784050,MARIS as Distributed by MLS Grid,25051946,N,Y,38.5610599,-90.2741521
MLS Listing,,Single Family Residential,4637 Littlebury Dr,St Louis,MO,63128,420000,4,3.0,Heather Heights Estates,4176,13521,1968,1,101,13,Active,August-2-2025 12:00 PM,August-2-2025 03:00 PM,https://www.redfin.com/MO/Saint-Louis/4637-Littlebury-Dr-63128/home/93602992,MARIS as Distributed by MLS Grid,25033019,N,Y,38.5029551,-90.3614124
MLS Listing,,Single Family Residential,5416 S 37th St,St Louis,MO,63116,229900,2,3.0,FJ Fendlers,1798,4965,1928,1,128,,Active,,,https://www.redfin.com/MO/Saint-Louis/5416-S-37th-St-63116/home/62718807,MARIS as Distributed by MLS Grid,25052614,N,Y,38.5711192,-90.2550059
MLS Listing,,Single Family Residential,5024 Louisiana St,St Louis,MO,63111,150000,2,1.0,St Louis,1653,5314,1914,1,91,,Active,August-30-2025 12:00 PM,August-30-2025 02:00 PM,https://www.redfin.com/MO/Saint-Louis/5024-Louisiana-Ave-63111/home/93707838,MARIS as Distributed by MLS Grid,25051653,N,Y,38.5711315,-90.248864
MLS Listing,,Single Family Residential,9118 Radiom Dr,Unincorporated,MO,63123,255000,3,2.0,Teakwood Place 5,1702,5980,1971,1,150,,Active,,,https://www.redfin.com/MO/Saint-Louis/9118-Radiom-Dr-63123/home/93572080,MARIS as Distributed by MLS Grid,25051825,N,Y,38.5399191,-90.3142994
MLS Listing,,Single Family Residential,3445 Utah St,St Louis,MO,63118,275000,3,1.0,Tower Grove East,2046,3789,1910,1,134,,Active,August-3-2025 01:00 PM,August-3-2025 03:00 PM,https://www.redfin.com/MO/Saint-Louis/3445-Utah-St-63118/home/93693053,MARIS as Distributed by MLS Grid,25052681,N,Y,38.5971894,-90.2404474
MLS Listing,,Single Family Residential,4661 Markton Dr,St Louis,MO,63128,399900,5,3.0,Karamar 1,2030,10402,1973,1,197,,Active,,,https://www.redfin.com/MO/Saint-Louis/4661-Markton-Dr-63128/home/93615176,MARIS as Distributed by MLS Grid,25052376,N,Y,38.4731187,-90.3756152
MLS Listing,,Condo/Co-op,2541 Brush Ct Unit B,Unincorporated,MO,63125,105000,2,1.0,Rustic View Condo Bldg E Unit,840,4486,1973,1,125,230,Active,,,https://www.redfin.com/MO/Saint-Louis/2541-Brush-Ct-63125/unit-B/home/93590861,MARIS as Distributed by MLS Grid,25052939,N,Y,38.5190506,-90.3008859
MLS Listing,,Single Family Residential,7743 Genesta St,St Louis,MO,63123,235000,3,2.0,Lakewood,1076,13499,1936,1,218,,Active,,,https://www.redfin.com/MO/Saint-Louis/7743-Genesta-St-63123/home/93539895,MARIS as Distributed by MLS Grid,25052934,N,Y,38.5691037,-90.3103914
MLS Listing,,Single Family Residential,62 Capitol Hill Dr,Unincorporated,MO,63136,130000,3,2.0,Capitol Hill 3,1239,26998,1954,1,105,,Active,,,https://www.redfin.com/MO/Saint-Louis/62-Capitol-Hill-Dr-63136/home/93376970,MARIS as Distributed by MLS Grid,25052925,N,Y,38.7601847,-90.2632696
MLS Listing,,Multi-Family (5+ Unit),3738 Gravois Ave,St Louis,MO,63116,320000,0,,South End Park Add,4505,2840,1914,1,71,,Active,,,https://www.redfin.com/MO/Saint-Louis/3738-Gravois-Ave-63116/home/93766332,MARIS as Distributed by MLS Grid,25044835,N,Y,38.5914597,-90.2481769
MLS Listing,,Single Family Residential,135 E Holden Ave,St Louis,MO,63125,114900,3,2.0,Hancock Place,1071,5998,1895,1,107,,Active,,,https://www.redfin.com/MO/Saint-Louis/135-E-Holden-Ave-63125/home/79099931,MARIS as Distributed by MLS Grid,25051973,N,Y,38.5290575,-90.2753841
MLS Listing,,Single Family Residential,1507 Golden Dr,St Louis,MO,63137,109900,3,1.0,Bissell Hills,912,6242,1955,1,121,,Active,,,https://www.redfin.com/MO/Saint-Louis/1507-Golden-Dr-63137/home/93386163,MARIS as Distributed by MLS Grid,25052596,N,Y,38.7525528,-90.2367244
MLS Listing,,Single Family Residential,10112 Newbold Dr,St Louis,MO,63137,129900,2,1.0,Bissell Hills 1,986,5998,1952,1,132,,Active,,,https://www.redfin.com/MO/Saint-Louis/10112-Newbold-Dr-63137/home/93383235,MARIS as Distributed by MLS Grid,25052786,N,Y,38.7522079,-90.2249608
MLS Listing,,Single Family Residential,1163 Crested View Dr,St Louis,MO,63146,449900,4,3.5,Crested View 1,2405,10210,1981,1,187,17,Active,,,https://www.redfin.com/MO/Saint-Louis/1163-Crested-View-Dr-63146/home/93451291,MARIS as Distributed by MLS Grid,25052158,N,Y,38.6823909,-90.420858
MLS Listing,,Townhouse,13111 Tesson Hollow Dr,St Louis,MO,63128,299900,3,3.0,Tesson Gardens,2344,2744,2016,1,128,350,Active,,,https://www.redfin.com/MO/Saint-Louis/13111-Tesson-Hollow-Dr-63128/home/143038476,MARIS as Distributed by MLS Grid,25052842,N,Y,38.4903874,-90.3849945
MLS Listing,,Single Family Residential,4436 Itaska,St Louis,MO,63116,190000,3,1.5,Ellenwood Add,1031,,1911,1,184,,Active,August-2-2025 11:00 AM,August-2-2025 01:00 PM,https://www.redfin.com/MO/Saint-Louis/4436-Itaska-St-63116/home/93764088,MARIS as Distributed by MLS Grid,25052817,N,Y,38.584034,-90.2706837
MLS Listing,,Single Family Residential,10145 Earl Dr,St Louis,MO,63136,79900,3,1.0,Castle Point Unit 2,827,6499,1953,1,97,,Active,,,https://www.redfin.com/MO/Saint-Louis/10145-Earl-Dr-63136/home/93385653,MARIS as Distributed by MLS Grid,25051556,N,Y,38.7548325,-90.2468142
MLS Listing,,Single Family Residential,5335 Shaw Ave,St Louis,MO,63110,209900,2,1.0,The Hill,1012,3088,1890,1,207,,Active,,,https://www.redfin.com/MO/Saint-Louis/5335-Shaw-Ave-63110/home/93726864,MARIS as Distributed by MLS Grid,25052303,N,Y,38.6184883,-90.2758941
MLS Listing,,Single Family Residential,4315 Lafayette Ave,St Louis,MO,63110,114900,3,1.5,Barnett Add,2000,4051,1920,1,57,,Active,,,https://www.redfin.com/MO/Saint-Louis/4315-Lafayette-Ave-63110/home/93753965,MARIS as Distributed by MLS Grid,25052705,N,Y,38.618979,-90.2565915
MLS Listing,,Multi-Family (5+ Unit),1337 Vandeventer Ave,St Louis,MO,63110,875000,6,5.0,The Grove,4314,,1889,1,203,,Active,,,https://www.redfin.com/MO/Saint-Louis/1337-S-Vandeventer-Ave-63110/home/93726606,MARIS as Distributed by MLS Grid,25052782,N,Y,38.6256605,-90.2520313
MLS Listing,,Single Family Residential,10533 Roscommon Dr,St Louis,MO,63123,160000,3,1.0,Tara Vi,960,7840,1958,1,167,,Active,,,https://www.redfin.com/MO/Saint-Louis/10533-Roscommon-Dr-63123/home/93585129,MARIS as Distributed by MLS Grid,25052778,N,Y,38.5379769,-90.3507403
MLS Listing,,Single Family Residential,6170 Mcpherson Ave,St Louis,MO,63112,489000,3,1.5,Washington Heights Add,1920,,1908,1,255,,Active,August-3-2025 01:00 PM,August-3-2025 03:00 PM,https://www.redfin.com/MO/Saint-Louis/6170-McPherson-Ave-63112/home/77510184,MARIS as Distributed by MLS Grid,25052378,N,Y,38.6515582,-90.2993031
MLS Listing,,Townhouse,4242 Mcree Ave,St Louis,MO,63110,319900,3,2.5,Botanical Heights,1666,,1916,1,192,,Active,August-3-2025 01:00 PM,August-3-2025 03:00 PM,https://www.redfin.com/MO/Saint-Louis/4242-McRee-Ave-63110/home/93684613,MARIS as Distributed by MLS Grid,25050848,N,Y,38.6193161,-90.2547064
MLS Listing,,Single Family Residential,4077 Holly Hills Blvd,St Louis,MO,63116,315000,3,1.5,West Holly Hills,2176,7392,1956,1,145,,Active,,,https://www.redfin.com/MO/Saint-Louis/4077-Holly-Hills-Blvd-63116/home/93782076,MARIS as Distributed by MLS Grid,25047690,N,Y,38.5687181,-90.270747
MLS Listing,,Single Family Residential,8636 Belhaven Dr,St Louis,MO,63114,175000,4,2.0,Belridge,1382,5993,1951,1,127,,Active,August-3-2025 01:00 PM,August-3-2025 03:00 PM,https://www.redfin.com/MO/Saint-Louis/8636-Belhaven-Dr-63114/home/93426113,MARIS as Distributed by MLS Grid,25047666,N,Y,38.7136254,-90.3420076
MLS Listing,,Single Family Residential,4548 S Compton Ave,St Louis,MO,63111,150000,2,1.0,Grunds Mauntel Place Add,1066,2975,1910,1,141,,Active,,,https://www.redfin.com/MO/St-Louis/4548-S-Compton-Ave-63111/home/196742708,MARIS as Distributed by MLS Grid,25052651,N,Y,38.5737306,-90.2409497
MLS Listing,,Single Family Residential,4633 Adkins Ave,St Louis,MO,63116,145000,2,1.0,Newport Heights Add 01,964,3310,1907,1,150,,Active,,,https://www.redfin.com/MO/Saint-Louis/4633-Adkins-Ave-63116/home/93757019,MARIS as Distributed by MLS Grid,25052724,N,Y,38.5821787,-90.2627561
MLS Listing,,Condo/Co-op,6911 Colonial Woods Dr #7,Unincorporated,MO,63129,85000,2,1.0,Colonial Woods Condo,868,2047,1967,1,98,555,Active,,,https://www.redfin.com/MO/Saint-Louis/6911-Colonial-Woods-Dr-63129/unit-7/home/93601715,MARIS as Distributed by MLS Grid,25052132,N,Y,38.506781,-90.335437
MLS Listing,,Multi-Family (2-4 Unit),520 Ruthland Dr,Mehlville,MO,63125,195000,2,1.0,Kingston Park Sec B,972,5671,1937,1,201,,Active,,,https://www.redfin.com/MO/Saint-Louis/520-Ruthland-Dr-63125/home/93590384,MARIS as Distributed by MLS Grid,25052690,N,Y,38.5141083,-90.2883004
MLS Listing,,Single Family Residential,11862 E Concord Rd,St Louis,MO,63128,599000,3,2.5,Valley Crest Sec 1,2543,23958,1950,1,236,,Active,August-3-2025 01:00 PM,August-3-2025 03:00 PM,https://www.redfin.com/MO/Saint-Louis/11862-E-Concord-Rd-63128/home/93593175,MARIS as Distributed by MLS Grid,25049877,N,Y,38.5154461,-90.3575885
MLS Listing,,Single Family Residential,2235 Cuggiono Ct,St Louis,MO,63110,410000,3,2.5,The Hill,1488,,1992,1,276,4,Active,,,https://www.redfin.com/MO/Saint-Louis/2235-Cuggiono-Ct-63110/home/93769430,MARIS as Distributed by MLS Grid,25046305,N,Y,38.6132311,-90.2721089
MLS Listing,,Single Family Residential,1506 Creve Coeur Mill Rd,Unincorporated,MO,63146,425000,4,3.0,William Schrader Estate,2536,87120,1910,1,168,,Active,,,https://www.redfin.com/MO/Saint-Louis/1506-Creve-Coeur-Mill-Rd-63146/home/93455733,MARIS as Distributed by MLS Grid,25048232,N,Y,38.6871516,-90.4916251
MLS Listing,,Single Family Residential,1281 Bardot Ln,St Louis,MO,63146,345000,3,2.0,Quiet Village 12,1508,10319,1964,1,229,16,Active,August-2-2025 11:00 AM,August-2-2025 01:00 PM,https://www.redfin.com/MO/Saint-Louis/1281-Bardot-Ln-63146/home/88360218,MARIS as Distributed by MLS Grid,25052366,N,Y,38.6796429,-90.4321038
MLS Listing,,Single Family Residential,3007 Minnesota Ave,St Louis,MO,63118,300000,3,2.0,Arsenal Heights Add,2002,3175,1907,1,150,,Active,August-3-2025 01:00 PM,August-3-2025 03:00 PM,https://www.redfin.com/MO/Saint-Louis/3007-Minnesota-Ave-63118/home/90361645,MARIS as Distributed by MLS Grid,25052532,N,Y,38.6023204,-90.2331418
MLS Listing,,Single Family Residential,11947 Lombardy Ln,St Louis,MO,63128,389900,4,2.0,Tyrie Sappington Estate,2016,13547,1939,2,193,,Active,August-3-2025 01:00 PM,August-3-2025 03:00 PM,https://www.redfin.com/MO/Saint-Louis/11947-Lombardy-Ln-63128/home/87394447,MARIS as Distributed by MLS Grid,25051554,N,Y,38.5268133,-90.3903788
MLS Listing,,Single Family Residential,4316 Arco Ave,St Louis,MO,63110,415000,3,2.5,Mcree Place Add,1862,3650,1903,2,223,,Active,,,https://www.redfin.com/MO/Saint-Louis/4316-Arco-Ave-63110/home/93751008,MARIS as Distributed by MLS Grid,25052279,N,Y,38.627672,-90.2573453
MLS Listing,,Single Family Residential,4047-4049 Cottage Ave,St Louis,MO,63113,200000,3,2.0,St Louis,1363,,2016,2,147,,Active,,,https://www.redfin.com/MO/Saint-Louis/4049-Cottage-Ave-63113/home/143286700,MARIS as Distributed by MLS Grid,25050001,N,Y,38.6570603,-90.232593
MLS Listing,,Single Family Residential,8208 Ketmore Dr,St Louis,MO,63123,235000,3,2.0,Weber Gardens Add,1736,5222,1956,2,135,,Active,August-2-2025 11:00 AM,August-2-2025 01:00 PM,https://www.redfin.com/MO/Saint-Louis/8208-Ketmore-Dr-63123/home/93785008,MARIS as Distributed by MLS Grid,25038381,N,Y,38.5548375,-90.2847997
MLS Listing,,Single Family Residential,4697 Bridlewood Ter,St Louis,MO,63128,369000,4,2.5,Surrey Hill Estates 1,1878,15751,1968,2,196,6,Active,,,https://www.redfin.com/MO/Saint-Louis/4697-Bridlewood-Ter-63128/home/93603136,MARIS as Distributed by MLS Grid,25051000,N,Y,38.5061976,-90.3682704
MLS Listing,,Condo/Co-op,5318 N Kenrick Parke Dr,Shrewsbury,MO,63119,365000,3,2.5,Kenrick Parke Condo Ph Eleven,2035,5270,1985,2,179,564,Active,August-2-2025 01:00 PM,August-2-2025 03:00 PM,https://www.redfin.com/MO/Saint-Louis/5318-N-Kenrick-Parke-Dr-63119/home/93523461,MARIS as Distributed by MLS Grid,25050949,N,Y,38.583271,-90.332767
MLS Listing,,Single Family Residential,838 Hi Crest Dr,St Louis,MO,63125,315000,3,2.5,Hi Crest Court,2278,9496,1964,2,138,,Active,,,https://www.redfin.com/MO/Saint-Louis/838-Hi-Crest-Dr-63125/home/93600946,MARIS as Distributed by MLS Grid,25047742,N,Y,38.5103281,-90.3096019
MLS Listing,,Single Family Residential,4871 Oldenburg Ave Ave,St Louis,MO,63123,185000,2,1.0,MCDERMOTT & HAYDEN'S HANNOVER HEIGHTS ADDN,1560,3615,1913,2,119,,Active,,,https://www.redfin.com/MO/Saint-Louis/4871-Oldenburg-Ave-63123/home/93557947,MARIS as Distributed by MLS Grid,25050991,N,Y,38.5611036,-90.2971438
MLS Listing,,Single Family Residential,11682 Holly Springs Dr,St Louis,MO,63146,349000,3,2.0,Brookdale 2,1802,8751,1965,2,194,13,Active,August-3-2025 01:00 PM,August-3-2025 03:00 PM,https://www.redfin.com/MO/Saint-Louis/11682-Holly-Springs-Dr-63146/home/93451727,MARIS as Distributed by MLS Grid,25050585,N,Y,38.685079,-90.434862
MLS Listing,,Single Family Residential,12646 Alswell Ln,Sunset Hills,MO,63128,549000,4,3.0,Lemp Estates,2237,41730,1967,2,245,,Active,,,https://www.redfin.com/MO/Saint-Louis/12646-Alswell-Ln-63128/home/93603461,MARIS as Distributed by MLS Grid,25052054,N,Y,38.5071559,-90.4015665
MLS Listing,,Single Family Residential,2905 Gladwood Dr,Oakville,MO,63129,250000,3,1.0,Oakville Acres Amd,1202,20799,1952,2,208,,Active,,,https://www.redfin.com/MO/Saint-Louis/2905-Gladwood-Dr-63129/home/93613835,MARIS as Distributed by MLS Grid,25052109,N,Y,38.4810404,-90.3204218
MLS Listing,,Single Family Residential,4224 Westminster Pl,St Louis,MO,63108,450000,2,3.5,McPherson Homes,2493,5349,1994,2,181,8,Active,August-3-2025 01:00 PM,August-3-2025 03:00 PM,https://www.redfin.com/MO/Saint-Louis/4224-Westminster-Pl-63108/home/93673894,MARIS as Distributed by MLS Grid,25049934,N,Y,38.6436302,-90.2478803
MLS Listing,,Single Family Residential,7319 Devonshire Ave,St Louis,MO,63119,289000,3,1.0,Shrewsbury Park 3rd,1628,7200,1949,2,178,,Active,August-3-2025 12:00 PM,August-3-2025 03:00 PM,https://www.redfin.com/MO/Saint-Louis/7319-Devonshire-Ave-63119/home/79727556,MARIS as Distributed by MLS Grid,25052103,N,Y,38.5918016,-90.3231448
MLS Listing,,Single Family Residential,2435 England Town Rd,St Louis,MO,63129,270000,3,2.5,New England Town 1,1820,7775,1976,2,148,45,Active,,,https://www.redfin.com/MO/Saint-Louis/2435-England-Town-Rd-63129/home/93617587,MARIS as Distributed by MLS Grid,25051716,N,Y,38.4655764,-90.3040324
MLS Listing,,Single Family Residential,11191 Whispering Oaks Dr,,MO,63136,95000,3,1.5,Sugartree 7,1082,2160,1972,2,88,150,Active,,,https://www.redfin.com/MO/Saint-Louis/11191-Whispering-Oaks-Dr-63136/home/93365344,MARIS as Distributed by MLS Grid,25050673,N,Y,38.7753068,-90.2500936
MLS Listing,,Single Family Residential,1120 Gilbert Ave,St Louis,MO,63119,350000,3,1.0,Oday Place,1296,11325,1959,2,270,,Active,,,https://www.redfin.com/MO/Saint-Louis/1120-Gilbert-Ave-63119/home/93499846,MARIS as Distributed by MLS Grid,25051980,N,Y,38.6098103,-90.3759021
MLS Listing,,Single Family Residential,1826 Lasalle St,St Louis,MO,63104,625000,3,1.5,Lafayette Square,2304,,1885,2,271,,Active,,,https://www.redfin.com/MO/Saint-Louis/1826-Lasalle-St-63104/home/93701185,MARIS as Distributed by MLS Grid,25048493,N,Y,38.6195361,-90.211363
MLS Listing,,Single Family Residential,5618 Pernod Ave,St Louis,MO,63139,349900,4,2.0,North Hampton Park,1658,4186,1940,2,211,,Active,,,https://www.redfin.com/MO/Saint-Louis/5618-Pernod-Ave-63139/home/93781983,MARIS as Distributed by MLS Grid,25049022,N,Y,38.5957946,-90.2860741
MLS Listing,,Single Family Residential,3500 Glen Arbor Dr,St Louis,MO,63125,269900,3,1.5,Glen Arbor Estates 1,1734,7622,1965,2,156,,Active,August-3-2025 01:00 PM,August-3-2025 03:00 PM,https://www.redfin.com/MO/Saint-Louis/3500-Glen-Arbor-Dr-63125/home/93600918,MARIS as Distributed by MLS Grid,25048079,N,Y,38.5081576,-90.3128287
MLS Listing,,Single Family Residential,3215 Hawthorne Blvd,St Louis,MO,63104,600000,7,3.5,Compton Heights Add,5900,15028,1902,2,102,5,Active,,,https://www.redfin.com/MO/Saint-Louis/3215-Hawthorne-Blvd-63104/home/93748588,MARIS as Distributed by MLS Grid,25045115,N,Y,38.6103573,-90.2342937
MLS Listing,,Multi-Family (2-4 Unit),3217 Cherokee St,St Louis,MO,63118,275000,2,2.0,Heims Add,1890,2744,1898,2,146,,Active,,,https://www.redfin.com/MO/Saint-Louis/3217-Cherokee-St-63118/home/93693096,MARIS as Distributed by MLS Grid,25052568,N,Y,38.5949838,-90.2375307
MLS Listing,,Single Family Residential,987 Dwyer Ave,Glendale,MO,63122,599888,3,2.5,Chelsea,1332,12301,1950,2,450,,Active,,,https://www.redfin.com/MO/Kirkwood/987-Dwyer-Ave-63122/home/93526776,MARIS as Distributed by MLS Grid,25052647,N,Y,38.5928313,-90.3820457
MLS Listing,,Single Family Residential,929 Bellerive,Unincorporated,MO,63111,289900,3,1.5,Southeast Kingshighway Park Add,1612,4103,1915,2,180,,Active,,,https://www.redfin.com/MO/Saint-Louis/929-Bellerive-Blvd-63111/home/93708396,MARIS as Distributed by MLS Grid,25049328,N,Y,38.5665347,-90.2519995
MLS Listing,,Single Family Residential,4333 Schirmer St,St Louis,MO,63116,162500,2,1.5,Morganford Park,864,,1950,2,188,,Active,,,https://www.redfin.com/MO/Saint-Louis/4333-Schirmer-St-63116/home/93783775,MARIS as Distributed by MLS Grid,25052050,N,Y,38.5617991,-90.2832017
MLS Listing,,Single Family Residential,7251 Murdoch Ave,Shrewsbury,MO,63119,199999,1,2.0,Shrewsbury Park Fourth,1120,7501,1928,2,179,,Active,,,https://www.redfin.com/MO/Saint-Louis/7251-Murdoch-Ave-63119/home/62753004,MARIS as Distributed by MLS Grid,25052645,N,Y,38.5906137,-90.3207853
MLS Listing,,Single Family Residential,5121 Michael Ave,Shrewsbury,MO,63119,265000,2,2.0,Hill Top View 3,1148,3850,1954,2,231,,Active,,,https://www.redfin.com/MO/Saint-Louis/5121-Michael-Ave-63119/home/93523618,MARIS as Distributed by MLS Grid,25052211,N,Y,38.5863119,-90.3309241
MLS Listing,,Condo/Co-op,1720 Chouteau Ave #302,St Louis,MO,63101,179900,2,2.0,Eden Lofts,1316,,1936,2,137,567,Active,,,https://www.redfin.com/MO/Saint-Louis/1720-Chouteau-Ave-63103/unit-302/home/93674932,MARIS as Distributed by MLS Grid,25051819,N,Y,38.619817,-90.2085308
MLS Listing,,Single Family Residential,6126 W Park,St Louis,MO,63139,179900,2,1.0,Gratiot Add,1013,3750,1909,2,178,,Active,August-3-2025 01:00 PM,August-3-2025 03:00 PM,https://www.redfin.com/MO/Saint-Louis/6126-W-Park-Ave-63139/home/93726334,MARIS as Distributed by MLS Grid,25052179,N,Y,38.6265939,-90.2886803
MLS Listing,,Single Family Residential,3824 Michigan Ave,St Louis,MO,63118,239999,3,2.0,Dutchtown,2340,3920,1911,2,103,,Active,,,https://www.redfin.com/MO/Saint-Louis/3824-Michigan-Ave-63118/home/93695996,MARIS as Distributed by MLS Grid,25052572,N,Y,38.5866406,-90.237135
MLS Listing,,Single Family Residential,4417 Tholozan Ave,St Louis,MO,63116,259900,3,2.0,Tower Grove South,1592,4234,1926,2,163,,Active,,,https://www.redfin.com/MO/Saint-Louis/4417-Tholozan-Ave-63116/home/93756330,MARIS as Distributed by MLS Grid,25048509,N,Y,38.593603,-90.2663359
MLS Listing,,Single Family Residential,2771 Cliffwood Trl,Unincorporated,MO,63129,263000,3,3.0,Forestwood Estates 4,1189,11813,1973,2,221,,Active,,,https://www.redfin.com/MO/Saint-Louis/2771-Cliffwood-Trl-63129/home/93620562,MARIS as Distributed by MLS Grid,25051797,N,Y,38.44901,-90.3181404
MLS Listing,,Single Family Residential,6916 Shady Lawn Dr,St Louis,MO,63129,330000,3,2.5,Candlewick Add,2445,6577,1984,2,135,15,Active,,,https://www.redfin.com/MO/Saint-Louis/6916-Shady-Lawn-Dr-63129/home/93621981,MARIS as Distributed by MLS Grid,25051526,N,Y,38.4354409,-90.321336
MLS Listing,,Single Family Residential,8533 Mackenzie Rd,St Louis,MO,63123,249900,2,1.0,Mackenzie Terrace,959,6250,1955,2,261,,Active,,,https://www.redfin.com/MO/Saint-Louis/8533-Mackenzie-Rd-63123/home/93558359,MARIS as Distributed by MLS Grid,25052160,N,Y,38.5567262,-90.3228059
MLS Listing,,Single Family Residential,4533 Rosewood Ave,St Louis,MO,63120,80000,3,1.0,McDermotts Kenawah Park,970,6250,1951,2,82,,Active,,,https://www.redfin.com/MO/Saint-Louis/4533-Rosewood-Ave-63120/home/93432405,MARIS as Distributed by MLS Grid,25052542,N,Y,38.7014639,-90.2692666
MLS Listing,,Condo/Co-op,4100 Forest Park Ave #423,St Louis,MO,63108,230000,1,1.5,West End Lofts 01 Amd,1128,,1913,2,204,633,Active,,,https://www.redfin.com/MO/Saint-Louis/4100-Forest-Park-Ave-63108/unit-423/home/88620166,MARIS as Distributed by MLS Grid,25045790,N,Y,38.6348985,-90.247646
MLS Listing,,Multi-Family (2-4 Unit),7914 S Broadway,St Louis,MO,63111,175000,8,4.0,Ivory Addition,1912,3920,1903,2,92,,Active,,,https://www.redfin.com/MO/Saint-Louis/7914-S-Broadway-63111/home/93711242,MARIS as Distributed by MLS Grid,25050827,N,Y,38.5447935,-90.2604747
MLS Listing,,Single Family Residential,17 Country Aire Dr,Town And Country,MO,63131,849900,5,4.5,Country Aire 2,5681,51052,1953,2,150,92,Active,,,https://www.redfin.com/MO/Saint-Louis/17-Country-Aire-Dr-63131/home/93491898,MARIS as Distributed by MLS Grid,25003608,N,Y,38.6347486,-90.4401774
MLS Listing,,Condo/Co-op,4909 Laclede Ave #804,St Louis,MO,63108,675000,2,2.0,Park East Tower Condos,1280,,2006,2,527,826,Active,August-3-2025 01:00 PM,August-3-2025 03:00 PM,https://www.redfin.com/MO/Saint-Louis/4909-Laclede-Ave-63108/unit-804/home/62765918,MARIS as Distributed by MLS Grid,25047609,N,Y,38.6406884,-90.2623343
MLS Listing,,Single Family Residential,4960 Thekla Ave,St Louis,MO,63115,90000,2,1.0,South Euclid Heights Add,2000,,1912,2,45,,Active,,,https://www.redfin.com/MO/Saint-Louis/4960-Thekla-Ave-63115/home/93763161,MARIS as Distributed by MLS Grid,25051058,N,Y,38.6878231,-90.2410143
MLS Listing,,Single Family Residential,4135 Minnesota Ave,St Louis,MO,63118,195900,2,1.5,St Louis Commons Add,1818,,1890,2,108,,Active,,,https://www.redfin.com/MO/Saint-Louis/4135-Minnesota-Ave-63118/home/93705269,MARIS as Distributed by MLS Grid,25050560,N,Y,38.5808447,-90.2376073
MLS Listing,,Single Family Residential,2817 Dalton Ave,St Louis,MO,63139,240000,2,1.0,Dalton Estate Add,1110,10018,1895,2,216,,Active,August-3-2025 01:00 PM,August-3-2025 03:00 PM,https://www.redfin.com/MO/Saint-Louis/2817-Dalton-Ave-63139/home/93726692,MARIS as Distributed by MLS Grid,25051967,N,Y,38.6084837,-90.2855544
MLS Listing,,Single Family Residential,645 Shepley Dr,Unincorporated,MO,63137,63000,3,2.0,Glasgow Village Unit 15,932,7078,1958,2,68,,Active,,,https://www.redfin.com/MO/Saint-Louis/645-Shepley-Dr-63137/home/93384247,MARIS as Distributed by MLS Grid,25052452,N,Y,38.7558158,-90.2090436
MLS Listing,,Single Family Residential,3267 Morganford Rd,St Louis,MO,63116,199900,2,1.0,Des Noyes Add,600,3001,1906,2,333,,Active,,,https://www.redfin.com/MO/Saint-Louis/3267-Morganford-Rd-63116/home/93751427,MARIS as Distributed by MLS Grid,25051195,N,Y,38.5989386,-90.2622335
MLS Listing,,Single Family Residential,6973 Winona Ave,St Louis,MO,63109,240000,3,1.0,Lindenwood Park,1193,9931,1916,2,201,,Active,,,https://www.redfin.com/MO/Saint-Louis/6973-Winona-Ave-63109/home/93747731,MARIS as Distributed by MLS Grid,25052031,N,Y,38.594708,-90.31158
MLS Listing,,Single Family Residential,11655 Holly Springs Dr,,MO,63146,400000,4,2.5,Brookdale 2,2252,9374,1965,3,178,13,Active,,,https://www.redfin.com/MO/Saint-Louis/11655-Holly-Springs-Dr-63146/home/93451425,MARIS as Distributed by MLS Grid,25051671,N,Y,38.6858304,-90.4341875
MLS Listing,,Single Family Residential,4609 Parrot Ct,St Louis,MO,63128,360000,5,3.0,Eagle Point Lts 2 & 3 Bdy Adj,2604,11325,1984,3,138,15,Active,August-2-2025 11:00 AM,August-2-2025 01:00 PM,https://www.redfin.com/MO/Saint-Louis/4609-Parrot-Ct-63128/home/93615684,MARIS as Distributed by MLS Grid,25039630,N,Y,38.4768667,-90.3724263
MLS Listing,,Single Family Residential,1711 N N Taylor Ave,St Louis,MO,63113,79000,4,3.5,Wash Estate,3416,16700,1884,3,23,,Active,,,https://www.redfin.com/MO/Saint-Louis/1711-N-Taylor-Ave-63113/home/93718823,MARIS as Distributed by MLS Grid,25052004,N,Y,38.6590514,-90.2475383
MLS Listing,,Single Family Residential,5610 Milentz Ave,St Louis,MO,63109,250000,3,1.5,Kingshighway Park Add,1167,4356,1932,3,214,,Active,August-3-2025 01:00 PM,August-3-2025 03:00 PM,https://www.redfin.com/MO/Saint-Louis/5610-Milentz-Ave-63109/home/93771373,MARIS as Distributed by MLS Grid,25045060,N,Y,38.5793092,-90.2902395
MLS Listing,,Single Family Residential,1129 Central Ave,St Louis,MO,,350000,3,2.0,Victoria Place Add,1732,,1909,3,202,,Active,,,https://www.redfin.com/MO/Saint-Louis/1129-Central-Ave-63139/home/93759928,MARIS as Distributed by MLS Grid,25052368,N,Y,38.6296693,-90.3034803
MLS Listing,,Single Family Residential,7920 E Yorkshire Dr,St Louis,MO,63123,238900,3,2.0,East Yorkshire,2000,7562,1953,3,119,,Active,August-3-2025 01:00 PM,August-3-2025 03:00 PM,https://www.redfin.com/MO/Saint-Louis/7920-E-Yorkshire-Dr-63123/home/93539334,MARIS as Distributed by MLS Grid,25051174,N,Y,38.5675712,-90.3250276
MLS Listing,,Single Family Residential,4712 Sigel Ave,St Louis,MO,63116,179900,2,1.0,Goethe,907,3963,1914,3,198,,Active,August-3-2025 01:00 PM,August-3-2025 03:00 PM,https://www.redfin.com/MO/Saint-Louis/4712-Sigel-Ave-63116/home/93763358,MARIS as Distributed by MLS Grid,25051420,N,Y,38.5757451,-90.2783633
MLS Listing,,Single Family Residential,2462 Forest Shadows Dr,,MO,63136,94900,2,1.0,Sugartree Ten,840,2160,1973,3,113,238,Active,August-2-2025 01:00 PM,August-2-2025 03:00 PM,https://www.redfin.com/MO/Saint-Louis/2462-Forest-Shadows-Dr-63136/home/93365375,MARIS as Distributed by MLS Grid,25051891,N,Y,38.775638,-90.252539
MLS Listing,,Single Family Residential,4951 Trailside Ct,St Louis,MO,63128,389900,4,3.0,Towne South Estates Add 7,2438,9975,1973,3,160,38,Active,August-1-2025 05:00 PM,August-1-2025 07:00 PM,https://www.redfin.com/MO/Saint-Louis/4951-Trailside-Ct-63128/home/93616019,MARIS as Distributed by MLS Grid,25052395,N,Y,38.4801217,-90.3819534
MLS Listing,,Condo/Co-op,5527 Pierre Ct,St Louis,MO,63128,259900,2,2.5,Duchesne Parque Condo 29,1812,11482,1988,3,143,355,Active,August-3-2025 02:00 PM,August-3-2025 04:00 PM,https://www.redfin.com/MO/Saint-Louis/5527-Pierre-Ct-63128/home/93616855,MARIS as Distributed by MLS Grid,25051657,N,Y,38.474967,-90.400986
MLS Listing,,Single Family Residential,5965 Summit Ave,St Louis,MO,63147,99000,2,1.0,Pointe Add,820,3092,1964,3,121,,Active,,,https://www.redfin.com/MO/Saint-Louis/5965-Summit-Pl-63147/home/93770491,MARIS as Distributed by MLS Grid,25052401,N,Y,38.7127755,-90.2477147
MLS Listing,,Condo/Co-op,4545 Lindell Blvd #10,St Louis,MO,63108,625000,2,1.5,4545 Lindell Blvd.,1525,,2007,3,410,920,Active,,,https://www.redfin.com/MO/Saint-Louis/4545-Lindell-Blvd-63108/unit-10/home/93680785,MARIS as Distributed by MLS Grid,25052390,N,Y,38.6431098,-90.2594016
MLS Listing,,Single Family Residential,3649 Boswell Ave,St Louis,MO,63114,164900,2,1.0,Dietrich Sub,945,7501,1938,3,174,,Active,,,https://www.redfin.com/MO/Saint-Louis/3649-Boswell-Ave-63114/home/93409780,MARIS as Distributed by MLS Grid,25052386,N,Y,38.7216545,-90.3553275
MLS Listing,,Single Family Residential,8554 Drury Ln,St Louis,MO,63147,83800,2,1.0,Ingleside Ad,1196,7583,1931,3,70,,Active,,,https://www.redfin.com/MO/Saint-Louis/8554-Drury-Ln-63147/home/93732326,MARIS as Distributed by MLS Grid,25052348,N,Y,38.7146632,-90.2456277
MLS Listing,,Single Family Residential,5935 Garesche Ave,St Louis,MO,63136,49900,2,1.0,Walnut Park Add,672,3123,1928,3,74,,Active,,,https://www.redfin.com/MO/Saint-Louis/5935-Garesche-Ave-63136/home/93758844,MARIS as Distributed by MLS Grid,25052333,N,Y,38.703172,-90.2551648
MLS Listing,,Condo/Co-op,12842 Portulaca Dr Unit A,St Louis,MO,63146,125000,2,1.0,Fern Ridge Condo 1,784,2308,1984,3,159,359,Active,,,https://www.redfin.com/MO/Saint-Louis/12842-Portulaca-Dr-63146/unit-A/home/62695323,MARIS as Distributed by MLS Grid,25051658,N,Y,38.6837599,-90.4760195
MLS Listing,,Single Family Residential,3446 Henrietta St,,MO,63104,299999,5,3.5,Compton Hill Add,3000,2920,1887,3,100,,Active,,,https://www.redfin.com/MO/Saint-Louis/3446-Henrietta-St-63104/home/70656829,MARIS as Distributed by MLS Grid,25052195,N,Y,38.6174916,-90.2362248
MLS Listing,,Single Family Residential,6951 Alabama Ave,St Louis,MO,63111,165000,2,1.0,Carondelet,1333,168620760,1934,3,124,,Active,August-2-2025 12:00 PM,August-2-2025 02:00 PM,https://www.redfin.com/MO/Saint-Louis/6951-Alabama-Ave-63111/home/93710331,MARIS as Distributed by MLS Grid,25052193,N,Y,38.5549971,-90.2592465
MLS Listing,,Single Family Residential,1511 Fairmount Ave,St Louis,MO,63139,86000,1,1.0,,648,3390,1925,3,133,,Active,,,https://www.redfin.com/MO/Saint-Louis/1511-Fairmount-Ave-63139/home/93741220,Heartland MLS as Distributed by MLS Grid,2566122,N,Y,38.6245293,-90.300233
MLS Listing,,Townhouse,10043 Echoridge Ln,St Louis,MO,63123,140000,3,1.5,Southridge Condo,1302,3267,1965,3,108,327,Active,,,https://www.redfin.com/MO/Saint-Louis/10043-Echoridge-Ln-63123/home/62729417,MARIS as Distributed by MLS Grid,25051947,N,Y,38.5349938,-90.3133432
MLS Listing,,Condo/Co-op,1619 Washington Ave #602,St Louis,MO,63103,225000,2,2.0,Railway Lofts,1680,,1910,3,134,495,Active,,,https://www.redfin.com/MO/Saint-Louis/1619-Washington-Ave-63103/unit-602/home/93672559,MARIS as Distributed by MLS Grid,25051713,N,Y,38.6332044,-90.202551
MLS Listing,,Multi-Family (2-4 Unit),2116 Geyer Ave,St Louis,MO,63104,525000,4,4.0,McKinley Heights,2880,,1927,3,182,,Active,,,https://www.redfin.com/MO/Saint-Louis/2116-Geyer-Ave-63104/home/93690579,MARIS as Distributed by MLS Grid,25052302,N,Y,38.6118355,-90.217684
MLS Listing,,Single Family Residential,2607 Macklind,St Louis,MO,63139,150000,2,1.5,Louis Heights Addn.,1200,,1910,3,125,,Active,,,https://www.redfin.com/MO/Saint-Louis/2607-Macklind-Ave-63139/home/93727440,MARIS as Distributed by MLS Grid,25052005,N,Y,38.6110143,-90.2785832
MLS Listing,,Multi-Family (2-4 Unit),2112 Geyer Ave,St Louis,MO,63104,525000,4,4.0,McKinley Heights,2880,,1927,3,182,,Active,,,https://www.redfin.com/MO/Saint-Louis/2112-Geyer-Ave-63104/home/93690580,MARIS as Distributed by MLS Grid,25052290,N,Y,38.6117988,-90.2176051
MLS Listing,,Single Family Residential,4644 Michigan,St Louis,MO,63111,65000,2,1.0,Ryans M Add,1174,3284,1900,3,55,,Active,,,https://www.redfin.com/MO/Saint-Louis/4644-Michigan-Ave-63111/home/93706785,MARIS as Distributed by MLS Grid,25052123,N,Y,38.5717288,-90.2402065
MLS Listing,,Multi-Family (2-4 Unit),3718 Chippewa St,St Louis,MO,63116,280000,10,10.0,Dunnica Add,3332,5671,1942,3,84,,Active,,,https://www.redfin.com/MO/Saint-Louis/3718-Chippewa-St-63116/home/93730277,MARIS as Distributed by MLS Grid,25050490,N,Y,38.588448,-90.2476365
MLS Listing,,Condo/Co-op,1621 11th St S Unit C,St Louis,MO,63104,160000,3,1.0,St. John Square Lofts,1128,,1898,3,142,430,Active,,,https://www.redfin.com/MO/Saint-Louis/1621-S-11th-St-63104/unit-C/home/93685299,MARIS as Distributed by MLS Grid,25052172,N,Y,38.6126502,-90.2052523
MLS Listing,,Multi-Family (2-4 Unit),2108 Geyer Ave,St Louis,MO,63104,525000,4,4.0,McKinley Heights,2880,,1927,3,182,,Active,,,https://www.redfin.com/MO/Saint-Louis/2108-Geyer-Ave-63104/home/93690578,MARIS as Distributed by MLS Grid,25052272,N,Y,38.6117354,-90.2174391
MLS Listing,,Single Family Residential,6050 Mcpherson Ave,St Louis,MO,63112,595000,4,2.5,Washington Heights,2880,,1909,3,207,,Active,,,https://www.redfin.com/MO/Saint-Louis/6050-McPherson-Ave-63112/home/93684635,MARIS as Distributed by MLS Grid,25050615,N,Y,38.6511888,-90.2961169
MLS Listing,,Multi-Family (2-4 Unit),6827 Pennsylvania Ave,St Louis,MO,63111,69900,0,,Carondelet,3264,4878,1889,3,21,,Active,,,https://www.redfin.com/MO/Saint-Louis/6827-Pennsylvania-Ave-63111/home/63677276,MARIS as Distributed by MLS Grid,25052208,N,Y,38.5533257,-90.2532213
MLS Listing,,Single Family Residential,9438 Koerber Ln,St Louis,MO,63123,159900,3,1.0,Koerber Place Add,1268,7927,1954,3,126,,Active,,,https://www.redfin.com/MO/Saint-Louis/9438-Koerber-Ln-63123/home/93571552,MARIS as Distributed by MLS Grid,25052060,N,Y,38.5391209,-90.3207959
MLS Listing,,Single Family Residential,10829 Forest Path Dr,Sunset Hills,MO,63128,500000,3,3.5,Forest View Sub,3404,22237,1970,3,147,10,Active,,,https://www.redfin.com/MO/Saint-Louis/10829-Forest-Path-Dr-63128/home/93603451,MARIS as Distributed by MLS Grid,25050602,N,Y,38.5111816,-90.4067382
MLS Listing,,Single Family Residential,3734 Minnesota Ave,St Louis,MO,63118,59900,5,2.0,Kaysers Addition,1956,,1894,3,31,,Active,,,https://www.redfin.com/MO/Saint-Louis/3734-Minnesota-Ave-63118/home/93695950,MARIS as Distributed by MLS Grid,25049049,N,Y,38.5880144,-90.2356815
MLS Listing,,Single Family Residential,5522 Remington Villas Ct,Unincorporated,MO,63129,474900,3,3.0,Remington Villas At Cliff Cave Lts,2673,5662,2002,3,178,206,Active,,,https://www.redfin.com/MO/Saint-Louis/5522-Remington-Villas-Ct-63129/home/93629644,MARIS as Distributed by MLS Grid,25052084,N,Y,38.4723378,-90.3004383
MLS Listing,,Single Family Residential,235 Military Rd,St Louis,MO,63125,126900,3,1.0,Carondelet Commons,1201,3345,1920,3,106,,Active,,,https://www.redfin.com/MO/Saint-Louis/235-Military-Rd-63125/home/93568797,MARIS as Distributed by MLS Grid,25052134,N,Y,38.5415997,-90.2736186
MLS Listing,,Single Family Residential,8021 Troost St,St Louis,MO,63123,300000,3,2.0,Heege Hills,1803,12148,1955,3,166,,Active,,,https://www.redfin.com/MO/Saint-Louis/8021-Troost-St-63123/home/92197287,MARIS as Distributed by MLS Grid,25050736,N,Y,38.564628,-90.3202554
MLS Listing,,Single Family Residential,146 Roderick Dr,St Louis,MO,63137,75000,3,1.0,Glasgow Village Unit 11,927,6250,1955,3,81,,Active,,,https://www.redfin.com/MO/Saint-Louis/146-Roderick-Dr-63137/home/93374150,MARIS as Distributed by MLS Grid,25051253,N,Y,38.7601998,-90.1922908
MLS Listing,,Single Family Residential,10762 Leebur Dr,St Louis,MO,63128,595000,3,3.0,Cordington Heithts,3404,21344,1957,3,175,,Active,August-3-2025 01:00 PM,August-3-2025 03:00 PM,https://www.redfin.com/MO/Saint-Louis/10762-Leebur-Dr-63128/home/93594228,MARIS as Distributed by MLS Grid,25051503,N,Y,38.5185388,-90.3855588
MLS Listing,,Multi-Family (2-4 Unit),3011 Lemp Ave,St Louis,MO,63118,350000,4,2.0,Benton Park,2655,3746,1889,3,132,,Active,,,https://www.redfin.com/MO/Saint-Louis/3011-Lemp-Ave-63118/home/93698994,MARIS as Distributed by MLS Grid,25049489,N,Y,38.5978098,-90.2177799
MLS Listing,,Single Family Residential,227 Presley Dr,Unincorporated,MO,63137,79000,3,1.0,Glasgow Village Unit 5,854,6995,1953,3,93,,Active,,,https://www.redfin.com/MO/Saint-Louis/227-Presley-Dr-63137/home/93381780,MARIS as Distributed by MLS Grid,25052041,N,Y,38.7543536,-90.200253
MLS Listing,,Single Family Residential,204 Grampian Rd,Unincorporated,MO,63137,75000,3,1.0,Glasgow Village Unit 9,1098,6398,1954,3,68,,Active,,,https://www.redfin.com/MO/Saint-Louis/204-Grampian-Rd-63137/home/93381923,MARIS as Distributed by MLS Grid,25052040,N,Y,38.7568073,-90.1960618
MLS Listing,,Single Family Residential,2024 Mcmenamy Dr,Unincorporated,MO,63136,87000,3,1.5,Sun Valley Homesites 3rd Add,972,7749,1955,3,90,,Active,,,https://www.redfin.com/MO/Saint-Louis/2024-McMenamy-Dr-63136/home/93397029,MARIS as Distributed by MLS Grid,25052034,N,Y,38.7394664,-90.2549815
MLS Listing,,Single Family Residential,3905 Louis St,St Louis,MO,63116,240000,2,1.0,Granbury Place,1026,5967,1959,4,234,,Active,,,https://www.redfin.com/MO/Saint-Louis/3905-Louis-St-63116/home/93785047,MARIS as Distributed by MLS Grid,25050170,N,Y,38.557812,-90.2755481
MLS Listing,,Single Family Residential,5722 Itaska St,St Louis,MO,63109,375000,4,2.0,South Hampton,2032,3750,1935,4,185,,Active,,,https://www.redfin.com/MO/Saint-Louis/5722-Itaska-St-63109/home/66023969,MARIS as Distributed by MLS Grid,25050567,N,Y,38.5847309,-90.2911412
MLS Listing,,Single Family Residential,1521 Salem Hills Dr,St Louis,MO,63119,330000,2,1.0,Salem Hills,1281,10693,1947,4,258,,Active,,,https://www.redfin.com/MO/Saint-Louis/1521-Salem-Hills-Dr-63119/home/93511429,MARIS as Distributed by MLS Grid,25044461,N,Y,38.606868,-90.3795254
MLS Listing,,Single Family Residential,5288 Kerth Rd,Sappington,MO,63128,739000,5,3.5,Ferbet Acres,2500,43560,2012,4,296,,Active,August-3-2025 01:00 PM,August-3-2025 04:00 PM,https://www.redfin.com/MO/Saint-Louis/5288-Kerth-Rd-63128/home/93610171,MARIS as Distributed by MLS Grid,25045401,N,Y,38.4844823,-90.3666891
MLS Listing,,Single Family Residential,3010 N Taylor,St Louis,MO,63115,32000,2,1.0,St Louis,1104,,1916,4,29,,Active,,,https://www.redfin.com/MO/Saint-Louis/3010-N-Taylor-Ave-63115/home/93736664,MARIS as Distributed by MLS Grid,25051677,N,Y,38.6665659,-90.2422596
MLS Listing,,Townhouse,3217 Lafayette Ave,St Louis,MO,63104,460000,3,4.0,Compton Hill Add,4060,3100,1900,4,113,,Active,,,https://www.redfin.com/MO/St-Louis/3217-Lafayette-Ave-63104/home/195784912,MARIS as Distributed by MLS Grid,25046930,N,Y,38.6164961,-90.2329991
MLS Listing,,Single Family Residential,10129 Cavalier Ct,Unincorporated,MO,63136,78750,3,1.5,Atwater Terrace Add 2,912,7405,1961,4,86,,Active,,,https://www.redfin.com/MO/Saint-Louis/10129-Cavalier-Ct-63136/home/93388274,MARIS as Distributed by MLS Grid,25051993,N,Y,38.7541613,-90.2594003
MLS Listing,,Single Family Residential,10401 Baron Dr,St Louis,MO,63136,94900,4,3.5,Castle Point Unit 3,1668,7801,1962,4,57,,Active,,,https://www.redfin.com/MO/Saint-Louis/10401-Baron-Dr-63136/home/93375175,MARIS as Distributed by MLS Grid,25051976,N,Y,38.7595239,-90.2501063
MLS Listing,,Multi-Family (5+ Unit),3646 Illinois Ave,St Louis,MO,63118,2800000,38,38.0,Marine Villa,,,1959,4,,,Active,,,https://www.redfin.com/MO/Saint-Louis/3646-Illinois-Ave-63118/home/93696891,MARIS as Distributed by MLS Grid,25051987,N,Y,38.587975,-90.2227225
MLS Listing,,Multi-Family (2-4 Unit),4587 Carter Ave,St Louis,MO,63115,64495,0,,Kortes Addn,2080,3484,1927,4,31,,Active,,,https://www.redfin.com/MO/Saint-Louis/4587-Carter-Ave-63115/home/93734567,MARIS as Distributed by MLS Grid,25051968,N,Y,38.6801947,-90.2359652
MLS Listing,,Multi-Family (2-4 Unit),2752 Goodfellow Blvd,St Louis,MO,63112,230000,0,,Koch Homestead Add,,,1929,4,,,Active,,,https://www.redfin.com/MO/Saint-Louis/2752-Goodfellow-Blvd-63112/home/93754372,MARIS as Distributed by MLS Grid,25051950,N,Y,38.6780251,-90.2748242
MLS Listing,,Multi-Family (2-4 Unit),2742 Goodfellow Blvd,St Louis,MO,63112,232000,0,,Koch Homestead add,,,1929,4,,,Active,,,https://www.redfin.com/MO/Saint-Louis/2742-Goodfellow-Blvd-63112/home/93754371,MARIS as Distributed by MLS Grid,25051925,N,Y,38.6779285,-90.2752691
MLS Listing,,Single Family Residential,147 Roderick Dr,St Louis,MO,63137,100000,3,1.0,Glasgow Village Unit 11,927,6250,1955,4,108,,Active,,,https://www.redfin.com/MO/Saint-Louis/147-Roderick-Dr-63137/home/93374159,MARIS as Distributed by MLS Grid,25051847,N,Y,38.7605682,-90.1920711
MLS Listing,,Single Family Residential,3869 Germania St,St Louis,MO,63116,174900,3,1.0,St Louis,1035,190575000,1961,4,169,,Active,August-3-2025 01:00 PM,August-3-2025 03:00 PM,https://www.redfin.com/MO/Saint-Louis/3869-Germania-St-63116/home/93785313,MARIS as Distributed by MLS Grid,25051737,N,Y,38.5570854,-90.2744267
MLS Listing,,Condo/Co-op,1084 Mersey Bend Dr Unit F,St Louis,MO,63129,162900,2,2.0,Heatherbrook Condo Sec 1 Rev,818,3092,1974,4,199,285,Active,,,https://www.redfin.com/MO/Saint-Louis/1084-Mersey-Bend-Dr-63129/unit-F/home/93600121,MARIS as Distributed by MLS Grid,25051786,N,Y,38.49912,-90.3249361
MLS Listing,,Single Family Residential,9844 Oak Haven Ave,St Louis,MO,63119,699900,3,3.0,Countryside Place,3090,7840,1988,4,227,,Active,August-3-2025 12:30 PM,August-3-2025 02:00 PM,https://www.redfin.com/MO/Saint-Louis/9844-Oak-Haven-Ave-63119/home/93500043,MARIS as Distributed by MLS Grid,25051760,N,Y,38.6111122,-90.375549
MLS Listing,,Condo/Co-op,1601 Washington Ave #206,St Louis,MO,63103,140000,1,1.0,Window Lofts,1185,,1909,4,118,367,Active,,,https://www.redfin.com/MO/Saint-Louis/1601-Washington-Ave-63103/unit-206/home/93672535,MARIS as Distributed by MLS Grid,25048844,N,Y,38.6331052,-90.2019388
MLS Listing,,Multi-Family (5+ Unit),735 Shenandoah Ave,St Louis,MO,63104,1650000,,345.0,Soulard,17433,,1893,4,95,,Active,,,https://www.redfin.com/MO/Saint-Louis/735-Shenandoah-Ave-63104/home/93686835,MARIS as Distributed by MLS Grid,25048856,N,Y,38.6047076,-90.2058895
MLS Listing,,Single Family Residential,8786 Jordan Ave,,MO,63147,89900,3,1.0,Riverview Heights,884,5000,1948,5,102,,Active,,,https://www.redfin.com/MO/Saint-Louis/8786-Jordan-Ave-63147/home/93782955,MARIS as Distributed by MLS Grid,25051674,N,Y,38.7236109,-90.2302823
MLS Listing,,Condo/Co-op,4570 Laclede Ave #103,St Louis,MO,63108,520000,2,2.0,Wexford Condo Ph 03,1800,,1984,5,289,820,Active,,,https://www.redfin.com/MO/Saint-Louis/4570-Laclede-Ave-63108/unit-103/home/62761158,MARIS as Distributed by MLS Grid,25050046,N,Y,38.6398573,-90.2615165
MLS Listing,,Single Family Residential,4472 Natural Bridge Ave,St Louis,MO,63115,25000,2,1.0,Clays Orchard Tr Add,1338,3484,1916,5,19,,Active,,,https://www.redfin.com/MO/Saint-Louis/4472-Natural-Bridge-Ave-63115/home/93735443,MARIS as Distributed by MLS Grid,25051694,N,Y,38.6705705,-90.2389604
MLS Listing,,Single Family Residential,4323 Loughborough,St Louis,MO,63116,215000,3,1.0,Parkwood,1511,,1929,5,142,,Active,,,https://www.redfin.com/MO/Saint-Louis/4323-Loughborough-Ave-63116/home/93771840,MARIS as Distributed by MLS Grid,25050318,N,Y,38.5665416,-90.2778397
MLS Listing,,Condo/Co-op,4466 W Pine Blvd Unit 10F,St Louis,MO,63108,249900,2,2.0,Central West End,1120,,1963,5,223,860,Active,,,https://www.redfin.com/MO/Saint-Louis/4466-W-Pine-Blvd-63108/unit-10F/home/93724973,MARIS as Distributed by MLS Grid,25051586,N,Y,38.6404552,-90.2570703
MLS Listing,,Vacant Land,503 Acorn Dr,St Louis,MO,63126,29000,0,,OAK CREST PLAT 2,,4138,,5,,,Active,,,https://www.redfin.com/MO/Saint-Louis/503-Acorn-Dr-63126/home/62778671,MARIS as Distributed by MLS Grid,25051695,N,Y,38.5653638,-90.3946057
MLS Listing,,Condo/Co-op,6904 Colonial Woods Dr #100,,MO,63129,87000,1,1.0,Colonial Woods Condo,722,1698,1967,5,120,460,Active,,,https://www.redfin.com/MO/Saint-Louis/6904-Colonial-Woods-Dr-63129/unit-100/home/93602266,MARIS as Distributed by MLS Grid,25047751,N,Y,38.5069105,-90.3359269
MLS Listing,,Single Family Residential,3724 Gordon Ave,St John,MO,63114,199000,4,2.0,Shackelford Place,2465,8001,1951,5,81,,Active,,,https://www.redfin.com/MO/Saint-Louis/3724-Gordon-Ave-63114/home/93409647,MARIS as Distributed by MLS Grid,25051194,N,Y,38.7224956,-90.3566799
MLS Listing,,Single Family Residential,4892 Anderson Ave,St Louis,MO,63115,240000,4,3.0,Crest Heights Add,2770,4164,1927,6,87,,Active,,,https://www.redfin.com/MO/Saint-Louis/4892-Anderson-Ave-63115/home/93733375,MARIS as Distributed by MLS Grid,25050683,N,Y,38.6817457,-90.2437438
MLS Listing,,Single Family Residential,,St Louis,MO,63111,179900,2,2.0,,1418,4791,1946,6,127,,Active,,,https://www.redfin.com/MO/Saint-Louis/Undisclosed-address-63111/home/93709423,MARIS as Distributed by MLS Grid,25048586,N,Y,38.5626398,-90.2550147
MLS Listing,,Single Family Residential,5536 Lisette Ave,St Louis,MO,63109,384900,3,2.5,Princeton Heights,1932,6969,1928,6,199,,Active,,,https://www.redfin.com/MO/Saint-Louis/5536-Lisette-Ave-63109/home/93776618,MARIS as Distributed by MLS Grid,25048366,N,Y,38.5755661,-90.290522
MLS Listing,,Condo/Co-op,314 N Broadway #1102,St Louis,MO,63103,184000,2,2.0,The Marquette,1132,,1914,6,163,579,Active,,,https://www.redfin.com/MO/St-Louis/314-N-Broadway-63102/unit-1102/home/160327200,MARIS as Distributed by MLS Grid,25051624,N,Y,38.6281486,-90.1887428
MLS Listing,,Multi-Family (2-4 Unit),3620-3626 Morganford (4-family),St Louis,MO,63116,369000,7,7.0,Oak Hill Park Add,2800,,1960,6,132,,Active,,,https://www.redfin.com/MO/St-Louis/3620-3626-Morgan-Ford-Rd-63116/home/196622891,MARIS as Distributed by MLS Grid,25051614,N,Y,38.5922979,-90.2626656
MLS Listing,,Vacant Land,1120 Tahiti Dr,St Louis,MO,63126,49000,0,,OAK RIDGE PARK,,8058,,6,,,Active,,,https://www.redfin.com/MO/Saint-Louis/1120-Tahiti-Dr-63126/home/166974739,MARIS as Distributed by MLS Grid,25051617,N,Y,38.563822,-90.392276
MLS Listing,,Multi-Family (2-4 Unit),2121 Withnell Ave,St Louis,MO,63118,450000,0,,Schneiders Add,2500,,1959,6,180,,Active,,,https://www.redfin.com/MO/Saint-Louis/2121-Withnell-Ave-63118/home/93693912,MARIS as Distributed by MLS Grid,25048797,N,Y,38.595826,-90.2223826
MLS Listing,,Single Family Residential,4954 Sunset Oaks Ln,St Louis,MO,63128,630000,5,4.5,Sunset Oaks,4106,28314,2001,6,153,17,Active,,,https://www.redfin.com/MO/Saint-Louis/4954-Sunset-Oaks-Ln-63128/home/93615926,MARIS as Distributed by MLS Grid,25051454,N,Y,38.4795802,-90.3842711
MLS Listing,,Single Family Residential,4010 Schiller Pl,St Louis,MO,63116,205000,4,2.0,Schiller Hill Add,1681,3267,1929,7,122,,Active,,,https://www.redfin.com/MO/Saint-Louis/4010-Schiller-Pl-63116/home/93781145,MARIS as Distributed by MLS Grid,25051564,N,Y,38.5749534,-90.262517
MLS Listing,,Single Family Residential,1352 Red River Dr,St Louis,MO,63138,165000,3,1.5,Aspen Woods One,856,7705,1977,7,193,,Active,,,https://www.redfin.com/MO/Saint-Louis/1352-Red-River-Dr-63138/home/93364166,MARIS as Distributed by MLS Grid,25050963,N,Y,38.7739898,-90.2101607
MLS Listing,,Single Family Residential,5206 S Grand Blvd,St Louis,MO,63111,239000,3,1.0,South St Louis,1287,4477,1922,7,186,,Active,,,https://www.redfin.com/MO/Saint-Louis/5206-S-Grand-Blvd-63111/home/93707489,MARIS as Distributed by MLS Grid,25050732,N,Y,38.5712118,-90.2518436
MLS Listing,,Single Family Residential,5420 Bates St,St Louis,MO,63116,159000,3,1.0,Gravois Bates Add,828,4438,1924,7,192,,Active,,,https://www.redfin.com/MO/Saint-Louis/5420-Bates-St-63116/home/93767601,MARIS as Distributed by MLS Grid,25050071,N,Y,38.5790409,-90.2721464
MLS Listing,,Single Family Residential,4748 Mccorry Dr,St Louis,MO,63123,268500,3,2.0,Brookshire 2,1218,9605,1965,7,220,,Active,,,https://www.redfin.com/MO/Saint-Louis/4748-McCorry-Dr-63123/home/62767479,MARIS as Distributed by MLS Grid,25017828,N,Y,38.5312203,-90.3168549
MLS Listing,,Single Family Residential,9818 Jacobi Ave,St Louis,MO,63136,140000,2,2.0,Highview Acres,1944,38999,1923,7,72,,Active,,,https://www.redfin.com/MO/Saint-Louis/9818-Jacobi-Ave-63136/home/93387508,MARIS as Distributed by MLS Grid,25051164,N,Y,38.746821,-90.2588319
MLS Listing,,Single Family Residential,1727 Del Rosa Way,Hazelwood,MO,63138,175000,3,2.0,Villa Rosa,1740,9748,1977,7,101,,Active,,,https://www.redfin.com/MO/Saint-Louis/1727-Del-Rosa-Way-63138/home/93351905,MARIS as Distributed by MLS Grid,25049521,N,Y,38.7879078,-90.2222129
MLS Listing,,Single Family Residential,2359 Michigan Ave,St Louis,MO,63104,299900,3,2.5,Quinette Et-Al Sub,1598,2657,1891,7,188,,Active,,,https://www.redfin.com/MO/Saint-Louis/2359-Michigan-Ave-63104/home/93691872,MARIS as Distributed by MLS Grid,25051537,N,Y,38.6072569,-90.2333618
MLS Listing,,Single Family Residential,4434 Compton,St Louis,MO,63111,149900,2,1.0,city commons,1271,,1900,7,118,,Active,,,https://www.redfin.com/MO/Saint-Louis/4434-S-Compton-Ave-63111/home/93706103,MARIS as Distributed by MLS Grid,25051527,N,Y,38.5757369,-90.2405272
MLS Listing,,Condo/Co-op,4347 Chateau De Ville Dr Unit D,St Louis,MO,63129,162500,2,2.0,Chateau Deville Condo,1025,2526,1968,7,159,374,Active,August-2-2025 01:00 PM,August-2-2025 03:00 PM,https://www.redfin.com/MO/Saint-Louis/4347-Chateau-de-Ville-Dr-63129/unit-D/home/93599741,MARIS as Distributed by MLS Grid,25048452,N,Y,38.4998693,-90.3256124
MLS Listing,,Single Family Residential,4220 Castleman Ave,St Louis,MO,63110,320000,4,1.5,Tyler Place Add,1530,,1907,7,209,,Active,August-3-2025 01:00 PM,August-3-2025 03:00 PM,https://www.redfin.com/MO/Saint-Louis/4220-Castleman-Ave-63110/home/93746971,MARIS as Distributed by MLS Grid,25051061,N,Y,38.6154555,-90.2545837
MLS Listing,,Single Family Residential,7217 Tournament Dr,St Louis,MO,63129,339900,2,3.0,Manors At Ridgeview One,2408,5227,2002,7,141,324,Active,August-3-2025 01:00 PM,August-3-2025 03:00 PM,https://www.redfin.com/MO/Saint-Louis/7217-Tournament-Dr-63129/home/66780878,MARIS as Distributed by MLS Grid,25051384,N,Y,38.426668,-90.3368919
MLS Listing,,Single Family Residential,2619 Michigan St,St Louis,MO,63118,179900,3,1.0,Stevens Add,1235,3175,1884,7,146,,Active,,,https://www.redfin.com/MO/Saint-Louis/2619-Michigan-Ave-63118/home/93691995,MARIS as Distributed by MLS Grid,25050510,N,Y,38.6065416,-90.2335999
MLS Listing,,Single Family Residential,3225 Nebraska Ave,St Louis,MO,63118,330000,4,3.0,Benton Park West,3356,3963,1901,7,98,,Active,,,https://www.redfin.com/MO/Saint-Louis/3225-Nebraska-Ave-63118/home/93693718,MARIS as Distributed by MLS Grid,25051237,N,Y,38.5970314,-90.2319704
MLS Listing,,Multi-Family (2-4 Unit),4944-46 Hummelsheim Ave,St Louis,MO,63123,199900,3,2.0,Fletcher Park,1631,6599,1907,7,123,,Active,,,https://www.redfin.com/MO/Saint-Louis/4944-Hummelsheim-Ave-63123/home/93557871,MARIS as Distributed by MLS Grid,25051427,N,Y,38.5597105,-90.2987938
MLS Listing,,Single Family Residential,4234 Wyoming,St Louis,MO,63116,595000,5,3.5,Oak Hill Improv Company - Tower Grove So,3340,3097,2025,7,178,,Active,,,https://www.redfin.com/MO/Unknown/4234-Wyoming-St-Unknown/home/193546374,MARIS as Distributed by MLS Grid,25050993,N,Y,38.600319,-90.259751
MLS Listing,,Vacant Land,3010 Lee Ave,St Louis,MO,63107,5000,0,,George Baileys Add 02,,7021,,7,,,Active,,,https://www.redfin.com/MO/Saint-Louis/3010-Lee-Ave-63107/home/93698880,MARIS as Distributed by MLS Grid,25046148,N,Y,38.6643557,-90.2113801
MLS Listing,,Single Family Residential,6067 W Florissant Ave,St Louis,MO,63136,85000,2,1.0,Pointe Add,1200,,1946,7,71,,Active,,,https://www.redfin.com/MO/Saint-Louis/6067-West-Florissant-Ave-63136/home/93770448,MARIS as Distributed by MLS Grid,25051208,N,Y,38.7106674,-90.252488
MLS Listing,,Single Family Residential,2743 Arsenal St,St Louis,MO,63118,349975,3,2.5,Benton Park,2350,3123,1890,7,149,,Active,,,https://www.redfin.com/MO/Saint-Louis/2743-Arsenal-St-63118/home/93699305,MARIS as Distributed by MLS Grid,25051385,N,Y,38.6001171,-90.2280601
MLS Listing,,Mobile/Manufactured Home,1412 Windward Ridge Dr,St Louis,MO,63127,210000,3,1.5,Windward Ridge,1014,7505,1958,7,207,,Active,,,https://www.redfin.com/MO/Saint-Louis/1412-Windward-Ridge-Dr-63127/home/93563577,MARIS as Distributed by MLS Grid,25051366,N,Y,38.5582325,-90.399303
MLS Listing,,Single Family Residential,6446 Virginia Ave,St Louis,MO,63111,179000,2,1.5,Carondeley,1408,6098,1860,7,127,,Active,,,https://www.redfin.com/MO/Saint-Louis/6446-Virginia-Ave-63111/home/93709661,MARIS as Distributed by MLS Grid,25051332,N,Y,38.5574695,-90.252928
MLS Listing,,Multi-Family (2-4 Unit),2401 S 11th,St Louis,MO,63104,689900,12,13.0,Allens Ad 2,,,1893,7,,,Active,,,https://www.redfin.com/MO/Saint-Louis/2401-S-11th-St-63104/home/93686799,MARIS as Distributed by MLS Grid,25050877,N,Y,38.6036174,-90.2105832
MLS Listing,,Single Family Residential,10300 Grant Forest Ln,St Louis,MO,63123,399900,3,2.5,Grants Forest Estates,1674,11326,1989,7,239,8,Active,,,https://www.redfin.com/MO/Saint-Louis/10300-Grant-Forest-Ln-63123/home/93585181,MARIS as Distributed by MLS Grid,25008623,N,Y,38.5370923,-90.3446308
MLS Listing,,Multi-Family (2-4 Unit),2135 Sidney St,St Louis,MO,63104,335000,2,2.0,Fairview Add,1958,3950,1885,8,171,,Active,,,https://www.redfin.com/MO/Saint-Louis/2135-Sidney-St-63104/home/93691470,MARIS as Distributed by MLS Grid,25049134,N,Y,38.6044666,-90.2199081
MLS Listing,,Single Family Residential,6272 Magnolia Ave,St Louis,MO,63139,224900,2,2.0,Hallocks Clifton Heights Add,770,,1918,8,292,,Active,,,https://www.redfin.com/MO/Saint-Louis/6272-Magnolia-Ave-63139/home/93754746,MARIS as Distributed by MLS Grid,25050468,N,Y,38.6116938,-90.2951671
MLS Listing,,Single Family Residential,3904 Botanical Ave,St Louis,MO,63110,715000,4,4.0,Tyler Place,2672,3654,1902,8,268,,Active,August-3-2025 01:00 PM,August-3-2025 03:00 PM,https://www.redfin.com/MO/Saint-Louis/3904-Botanical-Ave-63110/home/62693530,MARIS as Distributed by MLS Grid,25050242,N,Y,38.6090864,-90.246525
MLS Listing,,Single Family Residential,6561 Mardel Ave,St Louis,MO,63109,320000,4,3.0,St Louis,1600,4373,,8,200,,Active,August-2-2025 01:00 PM,August-2-2025 03:00 PM,https://www.redfin.com/MO/Saint-Louis/6561-Mardel-Ave-63109/home/93775112,MARIS as Distributed by MLS Grid,25050605,N,Y,38.5961962,-90.3032395
MLS Listing,,Single Family Residential,2830 Springridge Dr,Unincorporated,MO,63129,365000,4,3.5,Mellowlight Estates One,2678,13486,1967,8,136,,Active,,,https://www.redfin.com/MO/Saint-Louis/2830-Springridge-Dr-63129/home/93613321,MARIS as Distributed by MLS Grid,25047096,N,Y,38.4735974,-90.3178282
MLS Listing,,Single Family Residential,3624 Cleveland Ave,St Louis,MO,63110,805000,6,3.5,Tyler Place,4131,,1892,8,195,,Active,,,https://www.redfin.com/MO/Saint-Louis/3624-Cleveland-Ave-63110/home/93700167,MARIS as Distributed by MLS Grid,25050059,N,Y,38.6103854,-90.2416613
MLS Listing,,Single Family Residential,2909 Accomac St,St Louis,MO,63104,650000,4,2.5,Compton Heights Add,3218,7318,1901,8,202,,Active,,,https://www.redfin.com/MO/Saint-Louis/2909-Accomac-St-63104/home/93691030,MARIS as Distributed by MLS Grid,25050722,N,Y,38.610474,-90.2293272
MLS Listing,,Single Family Residential,6570 Lindenwood Pl,St Louis,MO,63109,325000,4,1.0,Watson Terrace,1647,4443,1939,8,197,,Active,August-3-2025 01:00 PM,August-3-2025 03:00 PM,https://www.redfin.com/MO/Saint-Louis/6570-Lindenwood-Pl-63109/home/93775124,MARIS as Distributed by MLS Grid,25049302,N,Y,38.5949948,-90.303929
MLS Listing,,Single Family Residential,7617 Ivory Ave,St Louis,MO,63111,120000,3,2.5,Kenricks Sub,2826,2879,1855,8,42,,Active,,,https://www.redfin.com/MO/Saint-Louis/7617-Ivory-Ave-63111/home/93673560,MARIS as Distributed by MLS Grid,25050913,N,Y,38.5493792,-90.26161
MLS Listing,,Multi-Family (2-4 Unit),4936 Berthold Ave,St Louis,MO,63110,350000,5,2.0,Blvd Park Add,2304,4112,1924,8,152,,Active,,,https://www.redfin.com/MO/Saint-Louis/4936-Berthold-Ave-63110/home/93765352,MARIS as Distributed by MLS Grid,25043811,N,Y,38.6272503,-90.2662951
MLS Listing,,Condo/Co-op,9920 Bunker Hill Dr Unit E,St Louis,MO,63123,125000,2,1.0,Southridge Condo,800,679100,1965,8,156,233,Active,,,https://www.redfin.com/MO/Saint-Louis/9920-Bunker-Hill-Dr-63123/unit-E/home/93583039,MARIS as Distributed by MLS Grid,25051139,N,Y,38.534971,-90.31255
MLS Listing,,Single Family Residential,5209 S Broadway,St Louis,MO,63111,130000,3,1.0,Webster,1111,4965,1917,8,117,,Active,,,https://www.redfin.com/MO/Saint-Louis/5209-S-Broadway-63111/home/93708082,MARIS as Distributed by MLS Grid,25050865,N,Y,38.5652044,-90.24003
MLS Listing,,Single Family Residential,9401 Acosta Dr,St Louis,MO,63137,84900,2,1.0,Hathaway Hills 3 2,982,8176,1950,8,86,,Active,,,https://www.redfin.com/MO/Saint-Louis/9401-Acosta-Dr-63137/home/93394788,MARIS as Distributed by MLS Grid,25040928,N,Y,38.7329969,-90.2384837
MLS Listing,,Single Family Residential,7048 Lansdowne Ave,St Louis,MO,63109,199000,2,1.0,Lindenwood Add,864,5052,1922,8,230,,Active,August-3-2025 01:00 PM,August-3-2025 03:00 PM,https://www.redfin.com/MO/Saint-Louis/7048-Lansdowne-Ave-63109/home/93774127,MARIS as Distributed by MLS Grid,25051111,N,Y,38.5916236,-90.3144833
MLS Listing,,Condo/Co-op,1279 Guelbreth Ln #210,St Louis,MO,63146,117500,2,2.0,Doral Manor Condo The,929,2352,1973,8,126,470,Active,,,https://www.redfin.com/MO/Saint-Louis/1279-Guelbreth-Ln-63146/unit-210/home/93450402,MARIS as Distributed by MLS Grid,25051210,N,Y,38.683847,-90.4085052
MLS Listing,,Single Family Residential,3906 Bates,St Louis,MO,63116,75000,3,1.5,Dodds Ad,2070,,1908,8,36,,Active,,,https://www.redfin.com/MO/Saint-Louis/3906-Bates-St-63116/home/93781580,MARIS as Distributed by MLS Grid,25050926,N,Y,38.5717259,-90.2608123
MLS Listing,,Single Family Residential,1516 Switzer,St Louis,MO,63147,75000,4,1.5,Greulichs,1150,,1939,8,65,,Active,,,https://www.redfin.com/MO/Saint-Louis/1516-Switzer-Ave-63147/home/93732297,MARIS as Distributed by MLS Grid,25051190,N,Y,38.7145211,-90.2426696
MLS Listing,,Single Family Residential,10354 Jade Forest Dr,Mehlville,MO,63123,550000,4,3.0,Tiffany Square Estates One,3636,7840,1990,8,151,,Active,,,https://www.redfin.com/MO/Saint-Louis/10354-Jade-Forest-Dr-63123/home/93585208,MARIS as Distributed by MLS Grid,25045267,N,Y,38.5343739,-90.3359809
MLS Listing,,Single Family Residential,1902 Cathedral Hill Dr,St Louis,MO,63138,259900,4,2.0,Country Village 5,2557,10450,1975,8,102,25,Active,,,https://www.redfin.com/MO/Saint-Louis/1902-Cathedral-Hill-Dr-63138/home/93342718,MARIS as Distributed by MLS Grid,25050819,N,Y,38.8088508,-90.2236235
MLS Listing,,Single Family Residential,5709 Chatport Rd,St Louis,MO,63129,302500,3,3.0,New England Town 2,1138,8137,1974,8,266,45,Active,,,https://www.redfin.com/MO/Saint-Louis/5709-Chatport-Rd-63129/home/93617776,MARIS as Distributed by MLS Grid,25045062,N,Y,38.4673099,-90.299327
MLS Listing,,Single Family Residential,9301 Leona Ct,Affton,MO,63123,220000,3,1.0,Alpine Acres,1128,9713,1951,8,195,,Active,,,https://www.redfin.com/MO/Saint-Louis/9301-Leona-Ct-63123/home/93573108,MARIS as Distributed by MLS Grid,25051067,N,Y,38.5502583,-90.3176632
MLS Listing,,Multi-Family (5+ Unit),4570-4572 Loughborough Ave,St Louis,MO,63116,590000,8,8.0,St Louis,,,1929,8,,,Active,,,https://www.redfin.com/MO/St-Louis/4570-4572-Loughborough-Ave-63116/home/196475519,MARIS as Distributed by MLS Grid,25048873,N,Y,38.5683826,-90.2830272
MLS Listing,,Multi-Family (2-4 Unit),5043 Alaska,St Louis,MO,63111,305000,12,8.0,Horras St Cecelia Add,3672,,1923,8,83,,Active,,,https://www.redfin.com/MO/Saint-Louis/5043-Alaska-Ave-63111/home/93707532,MARIS as Distributed by MLS Grid,25050925,N,Y,38.5704188,-90.2485614
MLS Listing,,Townhouse,1300 Snapdragon Ct,St Louis,MO,63146,259000,3,2.5,Parkway Gardens Village 2 Condo SE,1794,7275,1980,8,144,365,Active,August-1-2025 04:00 PM,August-1-2025 06:00 PM,https://www.redfin.com/MO/Saint-Louis/1300-Snapdragon-Ct-63146/home/93454451,MARIS as Distributed by MLS Grid,25030069,N,Y,38.685211,-90.478277
MLS Listing,,Multi-Family (2-4 Unit),6020 Southwest Ave,St Louis,MO,63139,435000,4,2.0,Highland Park Add,2576,4181,1924,9,169,,Active,,,https://www.redfin.com/MO/Saint-Louis/6020-Southwest-Ave-63139/home/169429044,MARIS as Distributed by MLS Grid,25046129,N,Y,38.6101616,-90.2904073
MLS Listing,,Single Family Residential,1361 Louisville Ave,St Louis,MO,63139,210000,3,1.0,Louisville Heights,1019,4220,1946,9,206,,Active,August-2-2025 11:00 AM,August-2-2025 01:00 PM,https://www.redfin.com/MO/Saint-Louis/1361-Louisville-Ave-63139/home/93750104,MARIS as Distributed by MLS Grid,25045499,N,Y,38.6259624,-90.2982941
MLS Listing,,Single Family Residential,6163 Mcpherson Ave,St Louis,MO,63112,529000,4,2.5,Skinker DeBaliviere,2436,4550,1907,9,217,,Active,August-3-2025 01:00 PM,August-3-2025 03:00 PM,https://www.redfin.com/MO/Saint-Louis/6163-McPherson-Ave-63112/home/82734439,MARIS as Distributed by MLS Grid,25048339,N,Y,38.6519401,-90.2990041
MLS Listing,,Single Family Residential,4400 Delor St,St Louis,MO,63116,230000,2,2.0,Chester Heights Add 01,1173,,1911,9,196,,Active,,,https://www.redfin.com/MO/Saint-Louis/4400-Delor-St-63116/home/93764959,MARIS as Distributed by MLS Grid,25048168,N,Y,38.5821064,-90.2700743
MLS Listing,,Single Family Residential,4441 Minnesota,St Louis,MO,63111,159000,3,1.0,St Louis,1540,3149,1912,9,103,,Active,,,https://www.redfin.com/MO/Saint-Louis/4441-Minnesota-Ave-63111/home/93706133,MARIS as Distributed by MLS Grid,25049743,N,Y,38.5753817,-90.2387403
MLS Listing,,Single Family Residential,2326 Albion Pl,St Louis,MO,63104,750000,4,4.0,St Louis,3093,3960,,9,242,,Active,,,https://www.redfin.com/MO/Saint-Louis/2326-Albion-Pl-63104/home/70101019,MARIS as Distributed by MLS Grid,25050146,N,Y,38.6166543,-90.2192949
MLS Listing,,Condo/Co-op,4540 Lindell Blvd #102,St Louis,MO,63108,249900,2,2.0,Netherby Hall,1100,,1900,9,227,435,Active,,,https://www.redfin.com/MO/Saint-Louis/4540-Lindell-Blvd-63108/unit-102/home/109913754,MARIS as Distributed by MLS Grid,25049139,N,Y,38.6421278,-90.2596855
MLS Listing,,Single Family Residential,6968 Lansdowne Ave,St Louis,MO,63109,389400,3,2.5,St Louis,2250,4270,1966,9,173,,Active,,,https://www.redfin.com/MO/Saint-Louis/6968-Lansdowne-Ave-63109/home/93774104,MARIS as Distributed by MLS Grid,25050085,N,Y,38.5914247,-90.3124369
MLS Listing,,Multi-Family (2-4 Unit),4422 Holly Ave,St Louis,MO,63115,155000,8,3.0,St Louis,2692,236313000,1909,9,58,,Active,,,https://www.redfin.com/MO/Saint-Louis/4422-Holly-Ave-63115/home/93714507,MARIS as Distributed by MLS Grid,25051055,N,Y,38.6766581,-90.227616
MLS Listing,,Single Family Residential,8504 Philo Ave,Unincorporated,MO,63123,241000,4,2.0,Gravois City Limits Park,1365,5998,1938,9,177,,Active,,,https://www.redfin.com/MO/Saint-Louis/8504-Philo-Ave-63123/home/62716475,MARIS as Distributed by MLS Grid,25046511,N,Y,38.5585667,-90.3087757
MLS Listing,,Multi-Family (2-4 Unit),4000 Keokuk St,St Louis,MO,63116,225000,0,,Grand Gravois Park,2580,4486,1928,9,87,,Active,,,https://www.redfin.com/MO/Saint-Louis/4000-Keokuk-St-63116/home/93778706,MARIS as Distributed by MLS Grid,25050997,N,Y,38.5871753,-90.2546757
MLS Listing,,Single Family Residential,29 Muirfield Ln,St Louis,MO,63141,3500000,5,7.0,Muirfield,9027,56149,2000,9,388,75,Active,,,https://www.redfin.com/MO/Saint-Louis/29-Muirfield-Ln-63141/home/93465287,MARIS as Distributed by MLS Grid,25008428,N,Y,38.6698026,-90.483971
MLS Listing,,Single Family Residential,11100 Landseer Dr,St Louis,MO,63136,191000,3,2.0,Hathaway Manor 20,1116,9591,1964,9,171,6,Active,August-1-2025 08:00 AM,August-1-2025 07:00 PM,https://www.redfin.com/MO/Saint-Louis/11100-Landseer-Dr-63136/home/93366289,MARIS as Distributed by MLS Grid,25050967,N,Y,38.7750816,-90.257255
MLS Listing,,Single Family Residential,9742 Croftwood Dr,St Louis,MO,63123,419900,3,2.0,Bridlewood Estates 3,2039,7535,1973,9,206,,Active,August-3-2025 01:00 PM,August-3-2025 04:00 PM,https://www.redfin.com/MO/Saint-Louis/9742-Croftwood-Dr-63123/home/93574171,MARIS as Distributed by MLS Grid,25050309,N,Y,38.5437704,-90.354868
MLS Listing,,Condo/Co-op,1601 Washington Ave #211,St Louis,MO,63103,130000,1,2.0,Windows Lofts,1211,,1909,9,107,375,Active,,,https://www.redfin.com/MO/Saint-Louis/1601-Washington-Ave-63103/unit-211/home/62757458,MARIS as Distributed by MLS Grid,25049598,N,Y,38.6331052,-90.2019388
MLS Listing,,Single Family Residential,1827 Switzer Ave,St Louis,MO,63147,159000,4,2.0,Ingleside Add,1040,6599,1949,9,153,,Active,,,https://www.redfin.com/MO/Saint-Louis/1827-Switzer-Ave-63147/home/93731939,MARIS as Distributed by MLS Grid,25030720,N,Y,38.7170845,-90.2508129
MLS Listing,,Condo/Co-op,4222 Kay Ln #2,St Louis,MO,63123,110000,2,1.0,Blackwoods Chalet Condo,850,3005,1975,9,129,250,Active,,,https://www.redfin.com/MO/Saint-Louis/4222-Kay-Ln-63123/unit-2/home/93569646,MARIS as Distributed by MLS Grid,25050835,N,Y,38.544977,-90.296371
MLS Listing,,Single Family Residential,4814 Calvin Ave,St Louis,MO,63115,24500,3,1.0,Penrose Park Add,1257,,1921,9,19,,Active,,,https://www.redfin.com/MO/Saint-Louis/4814-Calvin-Ave-63115/home/93732946,MARIS as Distributed by MLS Grid,25050951,N,Y,38.681506,-90.2408296
MLS Listing,,Vacant Land,1106 NE Darr Dr,St Louis,MO,63137,23999,0,,Bissell Hills,,7440,,9,,,Active,,,https://www.redfin.com/MO/Saint-Louis/1106-Darr-Dr-63137/home/166953691,MARIS as Distributed by MLS Grid,25050864,N,Y,38.759569,-90.2250708
MLS Listing,,Multi-Family (2-4 Unit),4921 Theodore Ave,St Louis,MO,63115,95000,0,,South Euclid Heights Add,786,3118,1923,9,121,,Active,,,https://www.redfin.com/MO/Saint-Louis/4921-Theodore-Ave-63115/home/93763048,MARIS as Distributed by MLS Grid,25050829,N,Y,38.686675,-90.2407109
MLS Listing,,Single Family Residential,1254 Waldorf Dr,Bellefontaine Nghbrs,MO,63137,85000,2,1.0,Hathaway Hills 3 2,982,6181,1950,9,87,,Active,,,https://www.redfin.com/MO/Saint-Louis/1254-Waldorf-Dr-63137/home/93394815,MARIS as Distributed by MLS Grid,25050884,N,Y,38.7337332,-90.2385204
MLS Listing,,Single Family Residential,4118 Nebraska Ave,St Louis,MO,63118,169500,4,2.0,Woodson Add,2184,3049,1901,9,78,,Active,,,https://www.redfin.com/MO/Saint-Louis/4118-Nebraska-Ave-63118/home/62773917,MARIS as Distributed by MLS Grid,25050857,N,Y,38.5809818,-90.234782
MLS Listing,,Single Family Residential,737 N Rock Hill Rd,St Louis,MO,63119,319000,2,2.0,Webster By Rannells,2044,7405,1952,9,156,,Active,August-3-2025 11:00 AM,August-3-2025 12:30 PM,https://www.redfin.com/MO/Saint-Louis/737-N-Rock-Hill-Rd-63119/home/93330412,MARIS as Distributed by MLS Grid,25050295,N,Y,38.6058245,-90.3644366
MLS Listing,,Single Family Residential,1700 Dellwood Ct,Unincorporated,MO,63136,125000,3,1.0,Oakwood Park,1724,7501,1952,9,73,,Active,,,https://www.redfin.com/MO/Saint-Louis/1700-Dellwood-Ct-63136/home/93386664,MARIS as Distributed by MLS Grid,25050079,N,Y,38.747199,-90.27255
MLS Listing,,Single Family Residential,12597 Fee Fee Rd,St Louis,MO,63146,325000,3,2.0,Robin Hill,1949,14984,1970,9,167,,Active,,,https://www.redfin.com/MO/Saint-Louis/12597-Fee-Fee-Rd-63146/home/93441849,MARIS as Distributed by MLS Grid,25044343,N,Y,38.693826,-90.4606045
MLS Listing,,Townhouse,12321 Rossridge Ct,St Louis,MO,63146,228900,3,3.0,Rossridge Twnhs Condo,2034,10977,1971,9,113,485,Active,,,https://www.redfin.com/MO/Saint-Louis/12321-Rossridge-Ct-63146/home/62766078,MARIS as Distributed by MLS Grid,25026908,N,Y,38.6846393,-90.4520237
MLS Listing,,Single Family Residential,3445 Nebraska Ave,St Louis,MO,63118,320000,3,2.5,Cherokee Add,1598,4586,1891,9,200,,Active,,,https://www.redfin.com/MO/Saint-Louis/3445-Nebraska-Ave-63118/home/93694814,MARIS as Distributed by MLS Grid,25050211,N,Y,38.5928511,-90.2327936
MLS Listing,,Multi-Family (2-4 Unit),1231 Louisville Ave,St Louis,MO,63139,365000,4,2.0,Forest Park Acres Add,1296,5632,1948,9,282,,Active,,,https://www.redfin.com/MO/Saint-Louis/1231-Louisville-Ave-63139/home/93750229,MARIS as Distributed by MLS Grid,25047770,N,Y,38.6280893,-90.2978787
MLS Listing,,Single Family Residential,809 Military Rd,Unincorporated,MO,63125,150000,2,1.0,McDermotts Sub Of Hoffmeister Heights,997,3001,1900,9,150,,Active,,,https://www.redfin.com/MO/Saint-Louis/809-Military-Rd-63125/home/62694098,MARIS as Distributed by MLS Grid,25050488,N,Y,38.5357849,-90.275708
MLS Listing,,Single Family Residential,4439 Oakland,St Louis,MO,63110,375000,1,4.0,Mcree Add,1900,,1907,9,197,,Active,,,https://www.redfin.com/MO/Saint-Louis/4439-Oakland-Ave-63110/home/93751247,MARIS as Distributed by MLS Grid,25050758,N,Y,38.627735,-90.2601808
MLS Listing,,Single Family Residential,10243 Pannell Dr,St Louis,MO,63136,209000,3,2.5,Hathaway Manor 10,1950,8498,1958,9,107,,Active,,,https://www.redfin.com/MO/Saint-Louis/10243-Pannell-Dr-63136/home/93385541,MARIS as Distributed by MLS Grid,25050616,N,Y,38.7573022,-90.2537347
MLS Listing,,Single Family Residential,2201 Entity Ave,St Louis,MO,63114,250000,3,2.0,Mc Clarys Sub A Resub Of Pt Lt 22,1764,20582,1960,10,142,,Active,,,https://www.redfin.com/MO/Saint-Louis/2201-Entity-Ave-63114/home/62748519,MARIS as Distributed by MLS Grid,25050432,N,Y,38.6973973,-90.3965059
MLS Listing,,Single Family Residential,6840 Glades Ave,St Louis,MO,63139,415000,3,2.5,Franz Park,2347,2265,2006,10,177,,Active,,,https://www.redfin.com/MO/Saint-Louis/6840-Glades-Ave-63139/home/109277552,MARIS as Distributed by MLS Grid,25049716,N,Y,38.6211001,-90.3057281
MLS Listing,,Single Family Residential,6815 Parkwood Pl,St Louis,MO,63116,249900,2,2.0,Parkwood Add,1400,5488,1950,10,179,,Active,,,https://www.redfin.com/MO/Saint-Louis/6815-Parkwood-Pl-63116/home/93771805,MARIS as Distributed by MLS Grid,25050134,N,Y,38.5671848,-90.2785047
MLS Listing,,Condo/Co-op,5683 Waterman Blvd Unit 2W,St Louis,MO,63112,145000,2,2.0,Waterman-Kingbury Condo,970,,1915,10,149,572,Active,,,https://www.redfin.com/MO/Saint-Louis/5683-Waterman-Blvd-63112/unit-2W/home/93680417,MARIS as Distributed by MLS Grid,25044869,N,Y,38.6499995,-90.2846742
MLS Listing,,Condo/Co-op,12800 Portulaca Dr Unit J,St Louis,MO,63146,129900,2,1.0,Fern Ridge Condo 3,784,2308,1984,10,166,359,Active,August-2-2025 01:00 PM,August-2-2025 03:00 PM,https://www.redfin.com/MO/Saint-Louis/12800-Portulaca-Dr-63146/unit-J/home/93454621,MARIS as Distributed by MLS Grid,25048677,N,Y,38.6836844,-90.4745571
MLS Listing,,Vacant Land,1929 Marcus Dr,St Louis,MO,63113,140000,0,,Hammetts Place,,3314,,10,,,Active,,,https://www.redfin.com/MO/Saint-Louis/1929-Marcus-Ave-63113/home/93720846,MARIS as Distributed by MLS Grid,25048658,N,Y,38.663493,-90.251487
MLS Listing,,Multi-Family (5+ Unit),1108 Bates St,St Louis,MO,63111,750000,,144.0,St Louis,5200,,1958,10,144,,Active,,,https://www.redfin.com/MO/Saint-Louis/1108-Bates-St-63111/home/93708423,MARIS as Distributed by MLS Grid,25050700,N,Y,38.5679961,-90.2538224
MLS Listing,,Single Family Residential,4357 Enright Ave,St Louis,MO,63108,289000,4,3.5,Delmar Place addition,2400,6098,1891,10,120,,Active,August-3-2025 01:00 PM,August-3-2025 03:00 PM,https://www.redfin.com/MO/Saint-Louis/4357-Enright-Ave-63108/home/93739838,MARIS as Distributed by MLS Grid,25048968,N,Y,38.6497481,-90.2488972
MLS Listing,,Multi-Family (2-4 Unit),2312 S 10th,St Louis,MO,63104,475000,8,8.0,Soulard,3700,,1884,10,128,,Active,,,https://www.redfin.com/MO/Saint-Louis/2312-S-10th-St-63104/home/93686480,MARIS as Distributed by MLS Grid,25048788,N,Y,38.604443,-90.207245
MLS Listing,,Multi-Family (5+ Unit),912 Lafayette Ave,St Louis,MO,63104,750000,36,36.0,Soulards Add,6000,3541,1907,10,125,,Active,,,https://www.redfin.com/MO/Saint-Louis/912-Lafayette-Ave-63104/home/93685239,MARIS as Distributed by MLS Grid,25050660,N,Y,38.6109529,-90.2033487
MLS Listing,,Multi-Family (2-4 Unit),1926 Sullivan Ave,St Louis,MO,63107,14000,8,4.0,St. Louis Place,1948,,1915,10,7,,Active,,,https://www.redfin.com/MO/Saint-Louis/1926-Sullivan-Ave-63107/home/93688543,MARIS as Distributed by MLS Grid,25050649,N,Y,38.6534836,-90.2010543
MLS Listing,,Single Family Residential,9060 Patrick Dr,St John,MO,63114,105000,2,1.0,Zoeller Sub,749,6499,1925,10,140,,Active,,,https://www.redfin.com/MO/Saint-Louis/9060-Patrick-Dr-63114/home/93409856,MARIS as Distributed by MLS Grid,25050350,N,Y,38.7209656,-90.3531218
MLS Listing,,Condo/Co-op,5653 Waterman Blvd Unit 3N,St Louis,MO,63112,129900,2,1.0,Waterman 4 Condo,830,,1914,10,157,489,Active,,,https://www.redfin.com/MO/Saint-Louis/5653-Waterman-Blvd-63112/unit-3N/home/62695865,MARIS as Distributed by MLS Grid,25049849,N,Y,38.6500405,-90.2836674
MLS Listing,,Single Family Residential,6119 Lillian Ave,St Louis,MO,63136,17500,2,1.0,Walnut Park West,816,,1950,10,21,,Active,,,https://www.redfin.com/MO/Saint-Louis/6119-Lillian-Ave-63136/home/93762141,MARIS as Distributed by MLS Grid,25050636,N,Y,38.700754,-90.2612065
MLS Listing,,Condo/Co-op,7951 Royal Arms Ct #3,Crestwood,MO,63123,144500,2,1.0,Royal Arms Condo Bldg 7951,768,2221,1968,10,188,326,Active,,,https://www.redfin.com/MO/Saint-Louis/7951-Royal-Arms-Ct-63123/unit-3/home/93562318,MARIS as Distributed by MLS Grid,25050454,N,Y,38.5569831,-90.3606954
MLS Listing,,Multi-Family (2-4 Unit),7022 S Rock Hill Rd,Affton,MO,63123,399900,6,4.0,Mc Kenzie Tr,3040,19423,1926,10,132,,Active,,,https://www.redfin.com/MO/Saint-Louis/7022-S-Rock-Hill-Rd-63123/home/93560681,MARIS as Distributed by MLS Grid,25050625,N,Y,38.5542896,-90.3381024
MLS Listing,,Multi-Family (5+ Unit),3521-3525 Utah St,St Louis,MO,63118,925000,72,36.0,Tower Grove East,6600,8276,1907,10,140,,Active,,,https://www.redfin.com/MO/St-Louis/3521-3525-Utah-St-63118/home/196539843,MARIS as Distributed by MLS Grid,25050598,N,Y,38.5974419,-90.2419204
MLS Listing,,Multi-Family (2-4 Unit),3644-3646 Ohio Ave,St Louis,MO,63118,165000,8,4.0,City/Commons,1250,4451,1963,10,132,,Active,,,https://www.redfin.com/MO/St-Louis/3646-Ohio-Ave-63118/home/187855917,MARIS as Distributed by MLS Grid,25046252,N,Y,38.5886238,-90.2286436
MLS Listing,,Single Family Residential,10210 Toelle Ln,St Louis,MO,63137,139900,3,1.0,Coburg Lands,1220,22825,1947,10,115,,Active,,,https://www.redfin.com/MO/Saint-Louis/10210-Toelle-Ln-63137/home/109673165,MARIS as Distributed by MLS Grid,25049801,N,Y,38.7548413,-90.2164611
MLS Listing,,Multi-Family (2-4 Unit),5185 Goethe Ave,St Louis,MO,63109,254900,7,4.0,Manter Park,2404,,1927,10,106,,Active,,,https://www.redfin.com/MO/Saint-Louis/5185-Goethe-Ave-63109/home/93769487,MARIS as Distributed by MLS Grid,25049911,N,Y,38.5802404,-90.2850986
MLS Listing,,Single Family Residential,5344 Northland Ave,St Louis,MO,63112,86000,3,1.0,Suburd Cote Prillante,925,,2003,10,93,,Active,,,https://www.redfin.com/MO/Saint-Louis/5344-Northland-Ave-63112/home/93738295,MARIS as Distributed by MLS Grid,25040322,N,Y,38.6718705,-90.2654641
MLS Listing,,Single Family Residential,244 Estridge Rd,St Louis,MO,63137,54200,3,1.0,Glasgow Village Unit 1,1000,8119,1951,10,54,,Active,,,https://www.redfin.com/MO/Saint-Louis/244-Estridge-Rd-63137/home/93381683,MARIS as Distributed by MLS Grid,25049660,N,Y,38.7519984,-90.1998953
MLS Listing,,Single Family Residential,13 Ladue Crest Ln,St Louis,MO,63124,799900,3,2.5,Ladue Crest,3531,44605,1953,11,227,38,Active,,,https://www.redfin.com/MO/Saint-Louis/13-Ladue-Crest-Ln-63124/home/93490449,MARIS as Distributed by MLS Grid,25048761,N,Y,38.6310634,-90.3680314
MLS Listing,,Single Family Residential,4322 Martyridge Dr,Mehlville,MO,63129,315000,3,2.5,Martigney Ridge Add 1,2072,6599,1970,11,152,,Active,,,https://www.redfin.com/MO/Saint-Louis/4322-Martyridge-Dr-63129/home/93606296,MARIS as Distributed by MLS Grid,25049725,N,Y,38.4861132,-90.300753
MLS Listing,,Single Family Residential,228 Grampian Rd,,MO,63137,54500,3,1.0,Glasgow Village Unit 9,,6120,1954,11,,,Active,,,https://www.redfin.com/MO/Saint-Louis/228-Grampian-Rd-63137/home/93381957,MARIS as Distributed by MLS Grid,25050182,N,Y,38.757245,-90.1967975
MLS Listing,,Single Family Residential,7615 Vermont Ave,St Louis,MO,63111,205000,2,2.0,Maguire Sub,1161,4199,1905,11,177,,Active,,,https://www.redfin.com/MO/Saint-Louis/7615-Vermont-Ave-63111/home/93710574,MARIS as Distributed by MLS Grid,25050431,N,Y,38.5503085,-90.2633789
MLS Listing,,Multi-Family (2-4 Unit),7327 Hampshire Dr,St Louis,MO,63109,650000,8,4.0,South Hampton Heights,4155,,1963,11,156,,Active,,,https://www.redfin.com/MO/Saint-Louis/7327-Hampshire-Dr-63109/home/93785155,MARIS as Distributed by MLS Grid,25050412,N,Y,38.5665447,-90.2946752
MLS Listing,,Single Family Residential,5107 Shrewsbury Ave,St Louis,MO,63119,275000,2,1.5,Hill Top View,1001,3850,1928,11,275,,Active,August-3-2025 01:00 PM,August-3-2025 03:00 PM,https://www.redfin.com/MO/Saint-Louis/5107-Shrewsbury-Ave-63119/home/93524113,MARIS as Distributed by MLS Grid,25044070,N,Y,38.58672,-90.3279574
MLS Listing,,Multi-Family (2-4 Unit),4610 Jamieson Ave,St Louis,MO,63109,550000,4,4.0,St Louis Hills City,3230,,1947,11,170,,Active,,,https://www.redfin.com/MO/Saint-Louis/4610-Jamieson-Ave-63109/home/71358604,MARIS as Distributed by MLS Grid,25050399,N,Y,38.5901253,-90.3094381
MLS Listing,,Multi-Family (2-4 Unit),4633 Morganford Rd,St Louis,MO,63116,200000,6,3.0,Ellenwood Park Add 01,2082,4965,1956,11,96,,Active,,,https://www.redfin.com/MO/Saint-Louis/4633-Morganford-Rd-63116/home/93763605,MARIS as Distributed by MLS Grid,25049426,N,Y,38.5840562,-90.266644
MLS Listing,,Multi-Family (2-4 Unit),2300 S 9th St,St Louis,MO,63104,535000,15,14.0,Soulard,3900,,1889,11,137,,Active,,,https://www.redfin.com/MO/Saint-Louis/2300-S-9th-St-63104/home/93785930,MARIS as Distributed by MLS Grid,25050110,N,Y,38.6044974,-90.2061257
MLS Listing,,Single Family Residential,1020 Farmview Dr,Unincorporated,MO,63138,120000,4,2.0,Maple Court,1344,21801,1952,11,89,,Active,,,https://www.redfin.com/MO/Saint-Louis/1020-Farmview-Dr-63138/home/93363058,MARIS as Distributed by MLS Grid,25033180,N,Y,38.784267,-90.1957731
MLS Listing,,Single Family Residential,5036 Cabanne Ave,St Louis,MO,63113,245000,4,3.5,Cabanne Add,1850,4948,1895,11,132,,Active,,,https://www.redfin.com/MO/Saint-Louis/5036-Cabanne-Ave-63113/home/93744622,MARIS as Distributed by MLS Grid,25047245,N,Y,38.6560886,-90.2642278
MLS Listing,,Multi-Family (2-4 Unit),5835 Bartmer Ave,St Louis,MO,63112,54500,0,,Gambles Add 02,2344,7840,1896,11,23,,Active,,,https://www.redfin.com/MO/Saint-Louis/5835-Bartmer-Ave-63112/home/93723457,MARIS as Distributed by MLS Grid,25047428,N,Y,38.6633307,-90.2868239
MLS Listing,,Single Family Residential,10331 Renfrew Dr,St Louis,MO,63137,62500,3,1.0,Glasgow Village Unit 2,844,8001,1952,11,74,,Active,,,https://www.redfin.com/MO/Saint-Louis/10331-Renfrew-Dr-63137/home/93383712,MARIS as Distributed by MLS Grid,25050249,N,Y,38.7523638,-90.206901
MLS Listing,,Condo/Co-op,2216 Sidney St #6,St Louis,MO,63104,199900,2,2.0,Saint Agnes Lofts Condo,1390,,1904,11,144,432,Active,,,https://www.redfin.com/MO/St-Louis/2216-Sidney-St-63104/unit-6/home/103203916,MARIS as Distributed by MLS Grid,25047392,N,Y,38.6045152,-90.221071
MLS Listing,,Single Family Residential,9609 Twincrest Dr,St Louis,MO,63126,250000,3,2.0,Greenview Terrace,1916,22564,1955,11,130,,Active,,,https://www.redfin.com/MO/Saint-Louis/9609-Twincrest-Dr-63126/home/93562488,MARIS as Distributed by MLS Grid,25050203,N,Y,38.5612266,-90.3808497
MLS Listing,,Single Family Residential,4734 Goethe Ave,St Louis,MO,63116,138000,3,2.0,Goethe Heights Add,720,,1922,11,192,,Active,,,https://www.redfin.com/MO/Saint-Louis/4734-Goethe-Ave-63116/home/93757169,MARIS as Distributed by MLS Grid,25049241,N,Y,38.5757027,-90.2795343
MLS Listing,,Single Family Residential,2216 Apple Bud Ln,St Louis,MO,63125,235000,3,1.5,Apple Orchard Estates,1354,8485,1962,11,174,,Active,August-3-2025 01:00 PM,August-3-2025 03:00 PM,https://www.redfin.com/MO/Saint-Louis/2216-Apple-Bud-Ln-63125/home/93579642,MARIS as Distributed by MLS Grid,25045199,N,Y,38.5254798,-90.3009232
MLS Listing,,Multi-Family (2-4 Unit),5041 Shaw Ave,St Louis,MO,63117,309900,2,2.0,Fairmonts,2822,4791,1918,11,110,,Active,,,https://www.redfin.com/MO/Saint-Louis/5041-Shaw-Ave-63110/home/93728157,MARIS as Distributed by MLS Grid,25032793,N,Y,38.617868,-90.2700554
MLS Listing,,Single Family Residential,904 Liggett Ave,Crestwood,MO,63126,339000,4,3.0,Crestwood First Add,1644,13259,1951,12,206,,Active,,,https://www.redfin.com/MO/Saint-Louis/904-Liggett-Ave-63126/home/93542229,MARIS as Distributed by MLS Grid,25049487,N,Y,38.5697157,-90.3811808
MLS Listing,,Single Family Residential,2619 Iowa Ave,St Louis,MO,63118,320000,3,2.5,Tuckers Add,1634,3136,1906,12,196,,Active,,,https://www.redfin.com/MO/Saint-Louis/2619-Iowa-Ave-63118/home/93699464,MARIS as Distributed by MLS Grid,25049811,N,Y,38.6054567,-90.2266591
MLS Listing,,Single Family Residential,4146 Crescent Dr,St Louis,MO,63129,248750,4,3.0,Lindbergh Union Acres,2184,7405,1940,12,114,,Active,,,https://www.redfin.com/MO/St-Louis/4146-Crescent-Dr-63129/home/196509497,MARIS as Distributed by MLS Grid,25050070,N,Y,38.5084122,-90.3345069
MLS Listing,,Single Family Residential,1216 Redman Blvd,St Louis,MO,63138,119000,2,1.0,Northdale,792,8751,1953,12,150,,Active,,,https://www.redfin.com/MO/Saint-Louis/1216-Redman-Blvd-63138/home/93365237,MARIS as Distributed by MLS Grid,25049155,N,Y,38.7846295,-90.2041909
MLS Listing,,Multi-Family (2-4 Unit),4239 Margaretta Ave,St Louis,MO,63115,150000,0,,Fairgrounds Place Add,3780,6969,1925,12,40,,Active,,,https://www.redfin.com/MO/Saint-Louis/4239-E-Margaretta-Ave-63115/home/93749311,MARIS as Distributed by MLS Grid,25050091,N,Y,38.6701087,-90.2299975
MLS Listing,,Multi-Family (2-4 Unit),3839 Greer Ave,St Louis,MO,63107,150000,0,,Lindell Place Fairground,2652,3920,1906,12,57,,Active,,,https://www.redfin.com/MO/Saint-Louis/3839-Greer-Ave-63107/home/93753575,MARIS as Distributed by MLS Grid,25050088,N,Y,38.6597282,-90.2242072
MLS Listing,,Multi-Family (2-4 Unit),2743 Madison St,St Louis,MO,63106,129000,0,,Knox Picots Add,2780,2879,1893,12,46,,Active,,,https://www.redfin.com/MO/Saint-Louis/2743-Madison-St-63106/home/93697691,MARIS as Distributed by MLS Grid,25050087,N,Y,38.647847,-90.2158035
MLS Listing,,Multi-Family (2-4 Unit),1029 Wall St,St Louis,MO,63147,90000,2,1.0,Gast Heights Add,864,4621,1921,12,104,,Active,,,https://www.redfin.com/MO/Saint-Louis/1029-Wall-St-63147/home/93756110,MARIS as Distributed by MLS Grid,25046788,N,Y,38.719873,-90.2336091
MLS Listing,,Multi-Family (2-4 Unit),3209 N Taylor Ave,St Louis,MO,63115,100000,2,1.0,Clays Orchard Tr,1092,3380,1914,12,92,,Active,,,https://www.redfin.com/MO/Saint-Louis/3209-N-Taylor-Ave-63115/home/93735852,MARIS as Distributed by MLS Grid,25046795,N,Y,38.6684703,-90.2415348
MLS Listing,,Multi-Family (2-4 Unit),4830 Ashland Ave,St Louis,MO,63115,135000,0,,Florida Add,1954,3920,1913,12,69,,Active,,,https://www.redfin.com/MO/Saint-Louis/4830-Ashland-Ave-63115/home/93737030,MARIS as Distributed by MLS Grid,25050075,N,Y,38.6717014,-90.2497014
MLS Listing,,Multi-Family (2-4 Unit),4477 Bessie Ave,St Louis,MO,63115,95000,2,1.0,Newstead Heights Add,997,2700,1963,12,95,,Active,,,https://www.redfin.com/MO/Saint-Louis/4477-Bessie-Ave-63115/home/93734483,MARIS as Distributed by MLS Grid,25046926,N,Y,38.6771336,-90.2343712
MLS Listing,,Multi-Family (2-4 Unit),4855 Leduc St,St Louis,MO,63113,135000,0,,Biddle Add,,3998,1907,12,,,Active,,,https://www.redfin.com/MO/Saint-Louis/4855-Leduc-St-63113/home/62759613,MARIS as Distributed by MLS Grid,25046927,N,Y,38.6645682,-90.2558329
MLS Listing,,Multi-Family (2-4 Unit),1916 Arlington Ave,St Louis,MO,63112,289000,0,,Goodfellow Place,3572,10049,1904,12,81,,Active,,,https://www.redfin.com/MO/Saint-Louis/1916-Arlington-Ave-63112/home/62773539,MARIS as Distributed by MLS Grid,25050077,N,Y,38.670125,-90.268177
MLS Listing,,Single Family Residential,4348 Osceola St,St Louis,MO,63116,164900,3,1.0,Chippewa Add,1133,4199,1924,12,146,,Active,,,https://www.redfin.com/MO/Saint-Louis/4348-Osceola-St-63116/home/93764757,MARIS as Distributed by MLS Grid,25046577,N,Y,38.5886077,-90.266534
MLS Listing,,Single Family Residential,4 Briarcliff,Ladue,MO,63124,1425000,4,4.5,Briarcliff,4759,55321,1953,12,299,33,Active,,,https://www.redfin.com/MO/Saint-Louis/4-Briarcliff-63124/home/62763231,MARIS as Distributed by MLS Grid,25043625,N,Y,38.6553495,-90.3767297
MLS Listing,,Single Family Residential,5723 Lotus Ave,St Louis,MO,63112,40000,1,1.0,Mount Auburn Add,1730,2800,1888,12,23,,Active,,,https://www.redfin.com/MO/Saint-Louis/5723-Lotus-Ave-63112/home/93746236,MARIS as Distributed by MLS Grid,25050024,N,Y,38.6740384,-90.2762266
MLS Listing,,Single Family Residential,3717 Ohio Ave,St Louis,MO,63118,265000,4,2.0,New Berlin Add,2570,3123,1880,12,103,,Active,,,https://www.redfin.com/MO/Saint-Louis/3717-Ohio-Ave-63118/home/93696189,MARIS as Distributed by MLS Grid,24076057,N,Y,38.5876984,-90.2292184
MLS Listing,,Single Family Residential,2328 Outlook Dr,St Louis,MO,63136,179900,3,2.0,Redman Woods 2,1760,11251,1971,13,102,,Active,,,https://www.redfin.com/MO/Saint-Louis/2328-Outlook-Dr-63136/home/93365574,MARIS as Distributed by MLS Grid,25050014,N,Y,38.7794446,-90.243469
MLS Listing,,Single Family Residential,1711 Marconi Ave,St Louis,MO,63110,325000,3,2.5,Fairmonts Add,1336,3598,1909,13,243,,Active,,,https://www.redfin.com/MO/Saint-Louis/1711-Marconi-Ave-63110/home/93728021,MARIS as Distributed by MLS Grid,25043789,N,Y,38.6196675,-90.2722818
MLS Listing,,Single Family Residential,1117 Hawkstone Ln,St Louis,MO,63125,355000,4,2.5,Colonial Estates 2,2309,7501,1965,13,154,,Active,,,https://www.redfin.com/MO/Saint-Louis/1117-Hawkstone-Ln-63125/home/93601010,MARIS as Distributed by MLS Grid,25049469,N,Y,38.5103795,-90.3134394
MLS Listing,,Single Family Residential,3820 Wisconsin Ave,St Louis,MO,63118,225000,2,3.0,St Louis,1612,3397,1899,13,140,,Active,,,https://www.redfin.com/MO/Saint-Louis/3820-Wisconsin-Ave-63118/home/93696867,MARIS as Distributed by MLS Grid,25049857,N,Y,38.5849378,-90.2222587
MLS Listing,,Single Family Residential,1368-1366 Granville Place Pl,St Louis,MO,63112,135000,4,2.0,Crosswhite Add,1894,,1902,13,71,,Active,,,https://www.redfin.com/MO/Saint-Louis/1368-Granville-Pl-63112/home/93722042,MARIS as Distributed by MLS Grid,25049607,N,Y,38.6652234,-90.2756151
MLS Listing,,Single Family Residential,2963 Hilleman Ave,,MO,63114,184900,3,1.0,Reas Brow,1603,10101,1949,13,115,,Active,,,https://www.redfin.com/MO/Saint-Louis/2963-Hilleman-Ave-63114/home/93425528,MARIS as Distributed by MLS Grid,25048443,N,Y,38.7111797,-90.3433125
MLS Listing,,Single Family Residential,5661 Chalet Hill Dr,St Louis,MO,63129,399999,3,3.0,Chalet Forest 4,2148,7701,1978,14,186,13,Active,,,https://www.redfin.com/MO/Saint-Louis/5661-Chalet-Hill-Dr-63129/home/93618939,MARIS as Distributed by MLS Grid,25047136,N,Y,38.4671149,-90.3151104
MLS Listing,,Condo/Co-op,1711 Mayenne Ct Unit H,Unincorporated,MO,63125,64900,1,1.0,Parc Lorraine Condo Aka Parc,552,2090,1967,14,118,237,Active,,,https://www.redfin.com/MO/Saint-Louis/1711-Mayenne-Ct-63125/unit-H/home/62739534,MARIS as Distributed by MLS Grid,25049915,N,Y,38.5275821,-90.2911566
MLS Listing,,Condo/Co-op,10010 Chardin Way #2,St Louis,MO,63128,199500,2,2.0,Chardin Place Condo 1,1154,2744,1973,14,173,316,Active,,,https://www.redfin.com/MO/Saint-Louis/10010-Chardin-Way-63128/unit-2/home/93322323,MARIS as Distributed by MLS Grid,25049708,N,Y,38.510449,-90.3754621
MLS Listing,,Multi-Family (2-4 Unit),5895 Highland Ave,,MO,63112,109000,6,4.0,Hamilton Heights Add,2120,3811,1925,14,51,,Active,,,https://www.redfin.com/MO/Saint-Louis/5895-Highland-Ave-63112/home/93763837,MARIS as Distributed by MLS Grid,25049623,N,Y,38.6774616,-90.279624
MLS Listing,,Condo/Co-op,6026 Waterman Blvd Unit 1W,St Louis,MO,63112,155000,2,1.0,Washington Heights Add,1214,,1913,14,128,300,Active,,,https://www.redfin.com/MO/Saint-Louis/6026-Waterman-Blvd-63112/unit-1W/home/93760517,MARIS as Distributed by MLS Grid,25049861,N,Y,38.6501482,-90.2954129
MLS Listing,,Single Family Residential,5717 Lotus Ave,St Louis,MO,63112,60000,2,1.0,Mount Auburn Add,1200,,1893,14,50,,Active,,,https://www.redfin.com/MO/Saint-Louis/5717-Lotus-Ave-63112/home/93746237,MARIS as Distributed by MLS Grid,25049891,N,Y,38.673996,-90.2761206
MLS Listing,,Multi-Family (2-4 Unit),4541 S Compton #2,St Louis,MO,63111,190000,6,3.0,Degenharch,2240,,1912,14,85,,Active,,,https://www.redfin.com/MO/St-Louis/4541-S-Compton-Ave-63111/unit-2/home/196500923,MARIS as Distributed by MLS Grid,25049866,N,Y,38.573869,-90.2413984
MLS Listing,,Single Family Residential,5502 Bellemeade Trail Ct,St Louis,MO,63129,410000,4,2.5,Bellemeade,2662,10018,2006,14,154,19,Active,,,https://www.redfin.com/MO/Saint-Louis/5502-Bellemeade-Trail-Ct-63129/home/93319419,MARIS as Distributed by MLS Grid,25044471,N,Y,38.4738519,-90.3370603
MLS Listing,,Single Family Residential,4810 Arsenal St,St Louis,MO,63116,464900,5,3.0,Shaw Arsenal Add,2472,,1921,14,188,,Active,,,https://www.redfin.com/MO/Saint-Louis/4810-Arsenal-St-63116/home/93767044,MARIS as Distributed by MLS Grid,25049721,N,Y,38.6048173,-90.268557
MLS Listing,,Single Family Residential,1494 Royal Springs Dr,St Louis,MO,63122,369900,4,2.5,Windsor Spring Estates 4th Add,2329,13329,1967,14,159,,Active,,,https://www.redfin.com/MO/Saint-Louis/1494-Royal-Springs-Dr-63122/home/93564313,MARIS as Distributed by MLS Grid,25049446,N,Y,38.5568434,-90.4154452
MLS Listing,,Single Family Residential,333 Lanark Rd,St Louis,MO,63137,115000,3,1.0,Glasgow Village Unit 3,1670,6782,1953,14,69,,Active,,,https://www.redfin.com/MO/Saint-Louis/333-Lanark-Rd-63137/home/93384157,MARIS as Distributed by MLS Grid,25049580,N,Y,38.7540017,-90.2037334
MLS Listing,,Single Family Residential,1201 Northdale Ave,St Louis,MO,63138,79900,5,1.0,Northdale,1488,8799,1952,14,54,,Active,,,https://www.redfin.com/MO/Saint-Louis/1201-Northdale-Ave-63138/home/93352461,MARIS as Distributed by MLS Grid,25049562,N,Y,38.7872073,-90.2027261
MLS Listing,,Condo/Co-op,7515 Triwoods Dr Unit B,St Louis,MO,63119,160000,2,2.0,Trianon At Southwoods,868,2439,1986,14,184,375,Active,,,https://www.redfin.com/MO/Saint-Louis/7515-Triwoods-Dr-63119/unit-B/home/62739318,MARIS as Distributed by MLS Grid,25041676,N,Y,38.5828741,-90.3306651
MLS Listing,,Single Family Residential,1018 Tempo Dr,St Louis,MO,63146,369900,4,2.0,Huntington,2077,10001,1964,14,178,,Active,,,https://www.redfin.com/MO/Saint-Louis/1018-Tempo-Dr-63146/home/93452541,MARIS as Distributed by MLS Grid,25049230,N,Y,38.6768715,-90.4570551
MLS Listing,,Condo/Co-op,1209 Woodland Point Dr Unit K,St Louis,MO,63146,169900,2,2.0,Woodland Crossing Condo One,1050,1951,1997,14,162,419,Active,,,https://www.redfin.com/MO/Saint-Louis/1209-Woodland-Point-Dr-63146/unit-K/home/93454102,MARIS as Distributed by MLS Grid,25048404,N,Y,38.6835788,-90.4844321
