SALE TYPE,SOLD DATE,PROPERTY TYPE,ADDRESS,CITY,STATE OR PROVINCE,ZIP OR POSTAL CODE,PRICE,BEDS,BATHS,LOCATION,SQUARE FEET,LOT SIZE,YEAR BUILT,DAYS ON MARKET,$/SQUARE FEET,HOA/MONTH,STATUS,NEXT OPEN HOUSE START TIME,NEXT OPEN HOUSE END TIME,URL (SEE https://www.redfin.com/buy-a-home/comparative-market-analysis FOR INFO ON PRICING),SOURCE,MLS#,FAVORITE,INTERESTED,LATITUDE,LONGITUDE
"In accordance with local MLS rules, some MLS listings are not included in the download"
MLS Listing,,Condo/Co-op,804 W 10th Ave #2,Anchorage,AK,99501,899900,3,3.5,Anchorage Municipality,2015,,2017,1,447,450,Active,,,https://www.redfin.com/AK/Anchorage/804-W-10th-Ave-99501/unit-2/home/146475327,AKMLS,25-9103,N,Y,61.2126199,-149.8979047
MLS Listing,,Multi-Family (2-4 Unit),4406 Parsons Ave,Anchorage,AK,99508,520000,8,4.0,Anchorage Municipality,4056,12500,1983,1,128,,Active,,,https://www.redfin.com/AK/Anchorage/4406-Parsons-Ave-99508/home/131861459,AKMLS,25-9810,N,Y,61.2294492,-149.7986214
MLS Listing,,Multi-Family (2-4 Unit),808 N Flower St,Anchorage,AK,99508,540000,9,4.0,Anchorage Municipality,3840,6098,1984,1,141,,Active,,,https://www.redfin.com/AK/Anchorage/808-N-Flower-St-99508/home/131738261,AKMLS,25-9809,N,Y,61.2306705,-149.8070469
MLS Listing,,Condo/Co-op,4355 Constellation Ave #23,Anchorage,AK,99517,275000,2,2.0,Anchorage Municipality,864,,1985,1,318,432,Active,,,https://www.redfin.com/AK/Anchorage/4355-Constellation-Ave-99517/unit-23/home/131517451,AKMLS,25-9807,N,Y,61.181502,-149.949318
MLS Listing,,Condo/Co-op,2819 Malibu Meadows Way Unit B1,Anchorage,AK,99517,289900,2,1.5,Anchorage Municipality,1090,,2004,1,266,294,Active,,,https://www.redfin.com/AK/Anchorage/2819-Malibu-Meadows-Way-99517/unit-B1/home/177703593,AKMLS,25-9799,N,Y,61.175511,-149.936407
MLS Listing,,Condo/Co-op,11351 Discovery View Dr #103,Anchorage,AK,99515,365000,2,2.0,Anchorage Municipality,1120,,2006,1,326,512,Active,,,https://www.redfin.com/AK/Anchorage/11351-Discovery-View-Dr-99515/unit-103/home/172163564,AKMLS,25-9797,N,Y,61.1190382,-149.9296627
MLS Listing,,Single Family Residential,8210 Sundi Dr,Anchorage,AK,99502,655000,3,2.5,Anchorage Municipality,3721,43475,1971,1,176,,Active,,,https://www.redfin.com/AK/Anchorage/8210-Sundi-Dr-99502/home/131880924,AKMLS,25-9746,N,Y,61.1462357,-149.973011
MLS Listing,,Single Family Residential,20104 Highland Ridge Dr,Eagle River,AK,99577,629000,5,3.5,Anchorage Municipality,2986,5750,2003,1,211,48,Active,,,https://www.redfin.com/AK/Eagle-River/20104-Highland-Ridge-Dr-99577/home/131470828,AKMLS,25-9190,N,Y,61.3027148,-149.5074562
MLS Listing,,Single Family Residential,3910 Image Dr,Anchorage,AK,99504,419900,3,2.0,Anchorage Municipality,1707,4792,1992,1,246,,Active,August-2-2025 01:00 PM,August-2-2025 03:00 PM,https://www.redfin.com/AK/Anchorage/3910-Image-Dr-99504/home/131555585,AKMLS,25-9647,N,Y,61.1851133,-149.7715074
MLS Listing,,Single Family Residential,3161 Doil Dr,Anchorage,AK,99507,300000,3,1.5,Anchorage Municipality,1148,3579,1983,1,261,,Active,,,https://www.redfin.com/AK/Anchorage/3161-Doil-Dr-99507/home/131530961,AKMLS,25-9763,N,Y,61.165756,-149.8198102
MLS Listing,,Single Family Residential,3540 E 142nd Ave,Anchorage,AK,99516,1500000,5,5.0,Anchorage Municipality,6200,98904,1962,1,242,42,Active,August-1-2025 04:00 PM,August-1-2025 07:00 PM,https://www.redfin.com/AK/Anchorage/3540-E-142nd-Ave-99516/home/131639544,AKMLS,25-9562,N,Y,61.0921547,-149.8156164
MLS Listing,,Single Family Residential,8611 Flamingo Dr,Anchorage,AK,99502,599900,5,1.5,Anchorage Municipality,2846,9144,1976,1,211,,Active,August-2-2025 01:00 PM,August-2-2025 03:00 PM,https://www.redfin.com/AK/Anchorage/8611-Flamingo-Dr-99502/home/131452901,AKMLS,25-9658,N,Y,61.1432199,-149.926001
MLS Listing,,Single Family Residential,5043 E 43rd Ave,Anchorage,AK,99508,399900,4,3.0,Anchorage Municipality,2296,9165,1971,1,174,,Active,,,https://www.redfin.com/AK/Anchorage/5043-E-43rd-Ave-99508/home/131485166,AKMLS,25-9186,N,Y,61.1819326,-149.7861578
MLS Listing,,Condo/Co-op,3129 Rosella St Unit E,Anchorage,AK,99504,279900,3,1.0,Anchorage Municipality,1300,,1974,1,215,350,Active,,,https://www.redfin.com/AK/Anchorage/3129-Rosella-St-99504/unit-E/home/131823999,AKMLS,25-9279,N,Y,61.1918726,-149.7602526
MLS Listing,,Single Family Residential,11776 Wilderness Dr,Anchorage,AK,99516,545000,3,2.5,Anchorage Municipality,2254,21780,1976,1,242,,Active,August-2-2025 02:00 PM,August-2-2025 04:00 PM,https://www.redfin.com/AK/Anchorage/11776-Wilderness-Dr-99516/home/131836378,AKMLS,25-9676,N,Y,61.1135404,-149.7982473
MLS Listing,,Single Family Residential,3411 Meadowbrook Cir,Anchorage,AK,99504,342000,4,1.0,Anchorage Municipality,1464,5704,1986,1,234,,Active,,,https://www.redfin.com/AK/Anchorage/3411-Meadowbrook-Cir-99504/home/131545511,AKMLS,25-9683,N,Y,61.1896873,-149.734762
MLS Listing,,Single Family Residential,3040 Chesapeake Cir,Anchorage,AK,99516,637000,4,3.0,Anchorage Municipality,2855,9600,1983,1,223,25,Active,August-2-2025 03:00 PM,August-2-2025 05:00 PM,https://www.redfin.com/AK/Anchorage/3040-Chesapeake-Cir-99516/home/131051286,AKMLS,25-9288,N,Y,61.101585,-149.8246354
MLS Listing,,Single Family Residential,16207 Squaw Valley Cir,Eagle River,AK,99577,490000,3,2.0,Anchorage Municipality,1754,6078,1982,1,279,,Active,August-3-2025 02:00 PM,August-3-2025 05:00 PM,https://www.redfin.com/AK/Eagle-River/16207-Squaw-Valley-Cir-99577/home/131499484,AKMLS,25-9133,N,Y,61.3221587,-149.5799407
MLS Listing,,Single Family Residential,19641 Highland Ridge Dr,Eagle River,AK,99577,454500,3,2.0,Anchorage Municipality,1864,3981,1999,1,244,,Active,,,https://www.redfin.com/AK/Eagle-River/19641-Highland-Ridge-Dr-99577/home/131628417,AKMLS,25-9725,N,Y,61.3025771,-149.5161049
MLS Listing,,Single Family Residential,8738 Lassen St,Eagle River,AK,99577,645000,4,2.5,Anchorage Municipality,2574,7840,2003,1,251,18,Active,,,https://www.redfin.com/AK/Eagle-River/8738-Lassen-St-99577/home/131727576,AKMLS,25-9612,N,Y,61.2993526,-149.5652394
MLS Listing,,Condo/Co-op,2320 McRae Rd #7,Anchorage,AK,99517,188000,2,1.0,Anchorage Municipality,957,,1976,1,196,350,Active,,,https://www.redfin.com/AK/Anchorage/2320-McRae-Rd-99517/unit-7/home/131747398,AKMLS,25-9104,N,Y,61.1859153,-149.9271047
MLS Listing,,Single Family Residential,3117 Bettles Bay Loop,Anchorage,AK,99515,592000,4,2.5,Anchorage Municipality,2502,8071,1982,1,237,27,Active,,,https://www.redfin.com/AK/Anchorage/3117-Bettles-Bay-Loop-99515/home/131333072,AKMLS,25-9496,N,Y,61.1297789,-149.9387524
MLS Listing,,Single Family Residential,2511 Abbey Ln,Anchorage,AK,99517,565000,4,2.0,Anchorage Municipality,2090,7500,1972,1,270,,Active,,,https://www.redfin.com/AK/Anchorage/2511-Abbey-Ln-99517/home/131473462,AKMLS,25-9794,N,Y,61.1885981,-149.932274
MLS Listing,,Single Family Residential,1420 Kruge Ave,Anchorage,AK,99515,425000,5,2.0,Anchorage Municipality,1750,7176,1984,1,243,,Active,,,https://www.redfin.com/AK/Anchorage/1420-Kruge-Ave-99515/home/131806181,AKMLS,25-9792,N,Y,61.1048056,-149.8549289
MLS Listing,,Single Family Residential,12121 Ginami St,Anchorage,AK,99516,745000,2,1.5,Anchorage Municipality,1016,99755,2019,1,733,,Active,August-2-2025 04:00 PM,August-2-2025 06:00 PM,https://www.redfin.com/AK/Anchorage/12121-Ginami-St-99516/home/166548981,AKMLS,25-9791,N,Y,61.1110427,-149.725041
MLS Listing,,Single Family Residential,17014 Meadow Creek Dr,Eagle River,AK,99577,415000,5,2.0,Anchorage Municipality,1900,7440,1976,1,218,,Active,,,https://www.redfin.com/AK/Eagle-River/17014-Meadow-Creek-Dr-99577/home/130974961,AKMLS,25-9787,N,Y,61.3151104,-149.5649573
MLS Listing,,Condo/Co-op,6718 Lunar Dr Unit J1,Anchorage,AK,99504,319000,3,2.5,Anchorage Municipality,1887,,1982,1,169,471,Active,,,https://www.redfin.com/AK/Anchorage/6718-Lunar-Dr-99504/unit-J1/home/131322206,AKMLS,25-9739,N,Y,61.1829341,-149.7550288
MLS Listing,,Mobile/Manufactured Home,9499 Brayton Dr #237,Anchorage,AK,99507,79900,3,2.0,Anchorage Municipality,1120,,1978,1,71,,Active,,,https://www.redfin.com/AK/Anchorage/9499-Brayton-Dr-99507/unit-237/home/189044596,AKMLS,25-9774,N,Y,61.1330612,-149.8512515
MLS Listing,,Condo/Co-op,3320 Mt Vernon Ct,Anchorage,AK,99503,225000,2,2.0,Anchorage Municipality,972,,1974,1,231,430,Active,,,https://www.redfin.com/AK/Anchorage/3320-Mount-Vernon-Ct-99503/home/196757896,AKMLS,25-9773,N,Y,61.1902231,-149.8935845
MLS Listing,,Single Family Residential,14115 Canyon Rd,Anchorage,AK,99516,1495000,5,4.5,Anchorage Municipality,4012,72102,2025,1,373,30,Active,,,https://www.redfin.com/AK/Anchorage/14115-Canyon-Rd-99516/home/196757798,AKMLS,25-9770,N,Y,61.0934235,-149.7024724
MLS Listing,,Multi-Family (2-4 Unit),2500 W 34th Ave,Anchorage,AK,99517,665000,6,3.0,Anchorage Municipality,3516,8700,1978,1,189,,Active,,,https://www.redfin.com/AK/Anchorage/2500-W-34th-Ave-99517/home/131599118,AKMLS,25-9769,N,Y,61.1895081,-149.9299284
MLS Listing,,Single Family Residential,6901 Shane Pl,Anchorage,AK,99507,477000,3,2.0,Anchorage Municipality,2177,10061,1982,1,219,,Active,,,https://www.redfin.com/AK/Anchorage/6901-Shane-Pl-99507/home/131620728,AKMLS,25-9768,N,Y,61.1582746,-149.8273002
MLS Listing,,Single Family Residential,16209 Copper Mtn,Eagle River,AK,99577,420000,3,2.0,Anchorage Municipality,1796,4247,1994,1,234,,Active,,,https://www.redfin.com/AK/Eagle-River/16209-Copper-Mountain-Cir-99577/home/131774271,AKMLS,25-9766,N,Y,61.3303039,-149.5804035
MLS Listing,,Condo/Co-op,9112 Dewberry St #2,Anchorage,AK,99502,340000,3,2.0,Anchorage Municipality,1459,,1999,1,233,300,Active,August-2-2025 01:00 PM,August-2-2025 04:00 PM,https://www.redfin.com/AK/Anchorage/9112-Dewberry-St-99502/unit-2/home/131813105,AKMLS,25-9501,N,Y,61.138361,-149.941677
MLS Listing,,Condo/Co-op,4514 Grumman St,Anchorage,AK,99507,525000,3,2.5,Anchorage Municipality,1476,10802,2025,1,356,267,Active,,,https://www.redfin.com/AK/Anchorage/4514-Grumman-St-99507/home/194564422,AKMLS,25-9765,N,Y,61.1796381,-149.8200787
MLS Listing,,Condo/Co-op,957 W 12th Ave #1,Anchorage,AK,99501,499000,2,2.5,Anchorage Municipality,1410,,2019,1,354,394,Active,,,https://www.redfin.com/AK/Anchorage/957-W-12th-Ave-99501/unit-1/home/172258020,AKMLS,25-9764,N,Y,61.2108027,-149.9013743
MLS Listing,,Single Family Residential,6341 E 16th Ave,Anchorage,AK,99504,375000,5,3.0,Anchorage Municipality,3088,8024,1969,1,121,,Active,,,https://www.redfin.com/AK/Anchorage/6341-E-16th-Ave-99504/home/131373181,AKMLS,25-9755,N,Y,61.2062895,-149.761867
MLS Listing,,Single Family Residential,832 N Park St,Anchorage,AK,99508,379900,3,2.0,Anchorage Municipality,1872,6250,1964,1,203,,Active,August-3-2025 01:00 PM,August-3-2025 04:00 PM,https://www.redfin.com/AK/Anchorage/832-N-Park-St-99508/home/131566203,AKMLS,25-9752,N,Y,61.2310451,-149.8032016
MLS Listing,,Single Family Residential,18114 N Parkview Terrace Loop,Eagle River,AK,99577,349500,3,1.0,Anchorage Municipality,1032,7476,1983,1,339,,Active,,,https://www.redfin.com/AK/Eagle-River/18114-N-Parkview-Terrace-Loop-99577/home/131422992,AKMLS,25-9264,N,Y,61.3064601,-149.5442319
MLS Listing,,Single Family Residential,3414 Illiamna Ave,Anchorage,AK,99517,1600000,3,3.0,Anchorage Municipality,3018,11100,1968,1,530,,Active,,,https://www.redfin.com/AK/Anchorage/3414-Illiamna-Ave-99517/home/131741324,AKMLS,25-7906,N,Y,61.2004987,-149.9498631
MLS Listing,,Multi-Family (2-4 Unit),6017 E 12th Ave,Anchorage,AK,99504,519000,6,3.0,Anchorage Municipality,2488,8400,1973,1,209,,Active,,,https://www.redfin.com/AK/Anchorage/6017-E-12th-Ave-99504/home/131118112,AKMLS,25-9742,N,Y,61.2114178,-149.7683758
MLS Listing,,Multi-Family (2-4 Unit),420 Aurora Dr,Anchorage,AK,99503,525000,6,3.0,Anchorage Municipality,3072,8410,1966,1,171,,Active,,,https://www.redfin.com/AK/Anchorage/420-Aurora-Dr-99503/home/131083930,AKMLS,25-9595,N,Y,61.2022162,-149.8899172
MLS Listing,,Single Family Residential,13521 Jarvi Dr,Anchorage,AK,99515,478000,3,2.0,Anchorage Municipality,1852,10726,1965,1,258,,Active,August-1-2025 04:00 PM,August-1-2025 06:00 PM,https://www.redfin.com/AK/Anchorage/13521-Jarvi-Dr-99515/home/131048980,AKMLS,25-9692,N,Y,61.0982057,-149.8559885
MLS Listing,,Single Family Residential,8022 Frostline Ct,Anchorage,AK,99507,895000,4,3.5,Anchorage Municipality,3709,45410,1983,1,241,,Active,,,https://www.redfin.com/AK/Anchorage/8022-Frostline-Ct-99507/home/131903166,AKMLS,25-9708,N,Y,61.1154275,-149.7325453
MLS Listing,,Condo/Co-op,7672 Gate Creek Dr,Anchorage,AK,99502,479900,3,2.0,Anchorage Municipality,1340,4356,2020,1,358,283,Active,,,https://www.redfin.com/AK/Anchorage/7672-Gate-Creek-Dr-99502/home/165936118,AKMLS,25-9151,N,Y,61.1516383,-149.9901371
MLS Listing,,Single Family Residential,10826 Goodpaster Cir,Eagle River,AK,99577,449900,3,2.0,Anchorage Municipality,2004,13089,1977,1,225,,Active,,,https://www.redfin.com/AK/Eagle-River/10826-Goodpaster-Cir-99577/home/131426694,AKMLS,25-9491,N,Y,61.3184948,-149.551133
MLS Listing,,Multi-Family (2-4 Unit),1235 W 15th Ave,Anchorage,AK,99501,750000,4,3.0,Anchorage Municipality,3192,6000,1955,1,235,,Active,,,https://www.redfin.com/AK/Anchorage/1235-W-15th-Ave-99501/home/131081435,AKMLS,25-9684,N,Y,61.2078743,-149.9073168
MLS Listing,,Single Family Residential,23105 Green Garden Dr,Chugiak,AK,99567,479900,3,2.0,Anchorage Municipality,1760,24736,1984,1,273,,Active,,,https://www.redfin.com/AK/Chugiak/23105-Green-Garden-Dr-99567/home/131534453,AKMLS,25-9696,N,Y,61.4171231,-149.4519718
MLS Listing,,Single Family Residential,1441 Shore Dr,Anchorage,AK,99515,675000,4,2.5,Anchorage Municipality,2708,57020,1970,1,249,,Active,,,https://www.redfin.com/AK/Anchorage/1441-Shore-Dr-99515/home/131462741,AKMLS,25-9713,N,Y,61.1095895,-149.9067983
MLS Listing,,Single Family Residential,337 Gaylene Cir,Anchorage,AK,99504,260000,2,0.5,Anchorage Municipality,1040,3271,1983,1,250,,Active,,,https://www.redfin.com/AK/Anchorage/337-Gaylene-Cir-99504/home/131318104,AKMLS,25-9411,N,Y,61.2197697,-149.7211768
MLS Listing,,Single Family Residential,9300 Campbell Terrace Dr,Anchorage,AK,99502,425000,4,2.0,Anchorage Municipality,2842,7145,1972,1,150,,Active,,,https://www.redfin.com/AK/Anchorage/9300-Campbell-Terrace-Dr-99502/home/131045507,AKMLS,25-9516,N,Y,61.1359163,-149.938451
MLS Listing,,Condo/Co-op,6109 DeBarr Rd Unit C308,Anchorage,AK,99504,220000,2,2.0,Anchorage Municipality,1078,,2003,2,204,500,Active,,,https://www.redfin.com/AK/Anchorage/6109-Debarr-Rd-99504/unit-C308/home/131440228,AKMLS,25-9726,N,Y,61.2103062,-149.7670144
MLS Listing,,Single Family Residential,900 Botanical Heights Cir,Anchorage,AK,99515,1350000,4,4.5,Anchorage Municipality,4991,22614,1993,2,270,58,Active,,,https://www.redfin.com/AK/Anchorage/900-Botanical-Heights-Cir-99515/home/131907335,AKMLS,25-9724,N,Y,61.1072108,-149.8959526
MLS Listing,,Condo/Co-op,9311 Jewel Lake Rd #103,Anchorage,AK,99502,265000,2,2.0,Anchorage Municipality,900,,1984,2,294,328,Active,,,https://www.redfin.com/AK/Anchorage/9311-Jewel-Lake-Rd-99502/unit-103/home/131060890,AKMLS,25-9717,N,Y,61.1358199,-149.9504002
MLS Listing,,Single Family Residential,18720 N Lowrie Loop,Eagle River,AK,99577,349500,2,1.5,Anchorage Municipality,1304,4656,1983,2,268,85,Active,,,https://www.redfin.com/AK/Eagle-River/18720-N-Lowrie-Loop-99577/home/131432722,AKMLS,25-9712,N,Y,61.3071958,-149.5336696
MLS Listing,,Single Family Residential,20607 Crabtree St,Chugiak,AK,99567,220000,2,1.0,Anchorage Municipality,1130,44065,2014,2,195,,Active,,,https://www.redfin.com/AK/Chugiak/20607-Crabtree-St-99567/home/172185085,AKMLS,25-9699,N,Y,61.406569,-149.490588
MLS Listing,,Single Family Residential,10243 Genora St,Eagle River,AK,99577,695000,4,3.0,Anchorage Municipality,1872,20540,1976,2,371,,Active,,,https://www.redfin.com/AK/Eagle-River/10243-Genora-St-99577/home/131596431,AKMLS,25-9686,N,Y,61.3134264,-149.5586634
MLS Listing,,Multi-Family (2-4 Unit),1807 W 36th Ave,Anchorage,AK,99517,900000,15,6.0,Anchorage Municipality,4674,10500,1965,3,193,,Active,,,https://www.redfin.com/AK/Anchorage/1807-W-36th-Ave-99517/home/131762479,AKMLS,25-9685,N,Y,61.1883982,-149.9179238
MLS Listing,,Single Family Residential,3531 Wingate Cir,Anchorage,AK,99508,495000,3,2.5,Anchorage Municipality,2198,9848,1973,3,225,,Active,August-2-2025 01:00 PM,August-2-2025 05:00 PM,https://www.redfin.com/AK/Anchorage/3531-Wingate-Cir-99508/home/131149072,AKMLS,25-9679,N,Y,61.1885097,-149.8535001
MLS Listing,,Single Family Residential,11620 Woodbourne Dr,Anchorage,AK,99516,2195000,5,4.5,Anchorage Municipality,5600,90424,2012,3,392,,Active,,,https://www.redfin.com/AK/Anchorage/11620-Woodbourne-Dr-99516/home/131198086,AKMLS,25-9364,N,Y,61.1155024,-149.7179466
MLS Listing,,Single Family Residential,19624 S Montague Loop,Eagle River,AK,99577,610000,4,3.0,Anchorage Municipality,2621,14755,1984,3,233,85,Active,,,https://www.redfin.com/AK/Eagle-River/19624-S-Montague-Loop-99577/home/131241517,AKMLS,25-9655,N,Y,61.3063782,-149.5161919
MLS Listing,,Condo/Co-op,3100 Ward Pl #15,Anchorage,AK,99517,130000,1,1.0,Anchorage Municipality,670,,1977,3,194,454,Active,,,https://www.redfin.com/AK/Anchorage/3100-Ward-Pl-99517/unit-15/home/130996127,AKMLS,25-9654,N,Y,61.1918087,-149.9562009
MLS Listing,,Single Family Residential,3631 Cloudberry Cir,Anchorage,AK,99507,428000,3,2.0,Anchorage Municipality,1560,9083,1982,3,274,,Active,,,https://www.redfin.com/AK/Anchorage/3631-Cloudberry-Cir-99507/home/131461275,AKMLS,25-9652,N,Y,61.1588195,-149.8142405
MLS Listing,,Single Family Residential,129 E 11th Ave,Anchorage,AK,99501,475000,3,3.0,Anchorage Municipality,2904,7650,1949,3,164,,Active,,,https://www.redfin.com/AK/Anchorage/129-E-11th-Ave-99501/home/131354435,AKMLS,25-9648,N,Y,61.2119192,-149.8819693
MLS Listing,,Single Family Residential,5047 Mills Dr,Anchorage,AK,99508,465000,4,2.0,Anchorage Municipality,2114,10000,1970,3,220,,Active,,,https://www.redfin.com/AK/Anchorage/5047-Mills-Dr-99508/home/131450086,AKMLS,25-9471,N,Y,61.1920487,-149.7866276
MLS Listing,,Single Family Residential,2064 Belair Dr,Anchorage,AK,99517,749000,4,2.5,Anchorage Municipality,2244,9826,1971,3,334,,Active,,,https://www.redfin.com/AK/Anchorage/2064-Belair-Dr-99517/home/131858328,AKMLS,25-9644,N,Y,61.1992766,-149.9242726
MLS Listing,,Vacant Land,4500 Shoshoni Ave,Anchorage,AK,99516,180000,,,Anchorage Municipality,,36405,,3,,,Active,,,https://www.redfin.com/AK/Anchorage/4500-Shoshoni-Ave-99516/home/166092353,AKMLS,25-9641,N,Y,61.09257,-149.797392
MLS Listing,,Single Family Residential,3110 Marathon Cir,Anchorage,AK,99515,495900,3,2.5,Anchorage Municipality,1600,4610,1981,3,310,100,Active,,,https://www.redfin.com/AK/Anchorage/3110-Marathon-Cir-99515/home/131587309,AKMLS,25-9440,N,Y,61.121437,-149.9396152
MLS Listing,,Single Family Residential,9800 Prospect Dr,Anchorage,AK,99507,1095000,3,3.0,Anchorage Municipality,4088,90308,1970,3,268,,Active,,,https://www.redfin.com/AK/Anchorage/9800-Prospect-Dr-99507/home/131402784,AKMLS,25-9539,N,Y,61.1324683,-149.7216636
MLS Listing,,Multi-Family (2-4 Unit),8301/8303 E 36th Ave,Anchorage,AK,99504,530000,8,3.0,Anchorage Municipality,3096,9466,1978,4,171,,Active,,,https://www.redfin.com/AK/Anchorage/8301-E-36th-Ave-99504/home/131516162,AKMLS,25-9627,N,Y,61.1882738,-149.725499
MLS Listing,,Vacant Land,4240 Marik St,Anchorage,AK,99504,75000,,,Anchorage Municipality,,9000,,4,,,Active,,,https://www.redfin.com/AK/Anchorage/4240-Marik-St-99504/home/165872949,AKMLS,25-9622,N,Y,61.1821913,-149.7692584
MLS Listing,,Condo/Co-op,7181 Fairweather Park Loop,Anchorage,AK,99518,365000,3,2.0,Anchorage Municipality,1476,,2006,4,247,350,Active,,,https://www.redfin.com/AK/Anchorage/7181-Fairweather-Park-Loop-99518/home/179537694,AKMLS,25-9620,N,Y,61.1575279,-149.872349
MLS Listing,,Single Family Residential,22364 Glacier Vista Rd,Chugiak,AK,99567,530000,2,2.0,Anchorage Municipality,1352,44862,2017,4,392,,Active,,,https://www.redfin.com/AK/Chugiak/22364-Glacier-Vista-Rd-99567/home/146475319,AKMLS,25-9619,N,Y,61.4149543,-149.4657424
MLS Listing,,Multi-Family (2-4 Unit),917 E 45th Ct,Anchorage,AK,99503,625000,8,4.0,Anchorage Municipality,3840,7000,1983,4,163,,Active,,,https://www.redfin.com/AK/Anchorage/917-E-45th-Ct-99503/home/131885100,AKMLS,25-9617,N,Y,61.1800874,-149.8648247
MLS Listing,,Single Family Residential,18716 N Lowrie Loop,Eagle River,AK,99577,365000,3,2.0,Anchorage Municipality,1410,4279,1983,4,259,75,Active,,,https://www.redfin.com/AK/Eagle-River/18716-N-Lowrie-Loop-99577/home/131434613,AKMLS,25-9589,N,Y,61.3073988,-149.5337771
MLS Listing,,Condo/Co-op,1406 W 12th Ave,Anchorage,AK,99501,419000,2,2.0,Anchorage Municipality,1691,,1982,4,248,321,Active,,,https://www.redfin.com/AK/Anchorage/1406-W-12th-Ave-99501/home/183473401,AKMLS,25-9586,N,Y,61.2102822,-149.9100114
MLS Listing,,Single Family Residential,3818 Helvetia Dr,Anchorage,AK,99508,830000,4,2.5,Anchorage Municipality,2424,18163,1970,4,342,,Active,August-2-2025 12:00 PM,August-2-2025 02:00 PM,https://www.redfin.com/AK/Anchorage/3818-Helvetia-Dr-99508/home/130965650,AKMLS,25-9546,N,Y,61.1866512,-149.8608122
MLS Listing,,Single Family Residential,20620 Driftwood Bay Dr,Eagle River,AK,99577,715000,5,3.5,Anchorage Municipality,3000,9845,2006,4,238,43,Active,August-2-2025 12:00 PM,August-2-2025 03:00 PM,https://www.redfin.com/AK/Eagle-River/20620-Driftwood-Bay-Dr-99577/home/131268707,AKMLS,25-9455,N,Y,61.2999081,-149.4979575
MLS Listing,,Single Family Residential,4341 Edinburgh Dr,Anchorage,AK,99502,624900,5,2.0,Anchorage Municipality,2403,11630,1975,4,260,,Active,August-1-2025 04:00 PM,August-1-2025 06:00 PM,https://www.redfin.com/AK/Anchorage/4341-Edinburgh-Dr-99502/home/131656212,AKMLS,25-9232,N,Y,61.1346641,-149.9626641
MLS Listing,,Multi-Family (2-4 Unit),3901 Merrill Dr,Anchorage,AK,99517,655000,8,8.0,Anchorage Municipality,3552,14740,1968,5,184,,Active,,,https://www.redfin.com/AK/Anchorage/3901-Merrill-Dr-99517/home/131886646,AKMLS,25-9581,N,Y,61.1855108,-149.9359246
MLS Listing,,Multi-Family (2-4 Unit),2604 W 33rd Ave,Anchorage,AK,99517,675000,8,8.0,Anchorage Municipality,3840,28734,1962,5,176,,Active,,,https://www.redfin.com/AK/Anchorage/2604-W-33rd-Ave-99517/home/131436558,AKMLS,25-9580,N,Y,61.1905195,-149.9328401
MLS Listing,,Single Family Residential,2062 Stonegate Cir,Anchorage,AK,99515,299000,3,1.0,Anchorage Municipality,1000,1750,1974,5,299,276,Active,,,https://www.redfin.com/AK/Anchorage/2062-Stonegate-Cir-99515/home/131623586,AKMLS,25-8052,N,Y,61.1330574,-149.9183607
MLS Listing,,Condo/Co-op,6222 E 12th Ave Unit C1,Anchorage,AK,99504,25000,2,1.0,Anchorage Municipality,972,,1977,6,26,397,Active,,,https://www.redfin.com/AK/Anchorage/6222-E-12th-Ave-99504/unit-C1/home/131897042,AKMLS,25-9574,N,Y,61.2109439,-149.7642832
MLS Listing,,Single Family Residential,819 W 76th Ave,Anchorage,AK,99518,434900,4,2.0,Anchorage Municipality,1644,11250,1966,6,265,,Active,,,https://www.redfin.com/AK/Anchorage/819-W-76th-Ave-99518/home/131746535,AKMLS,25-9571,N,Y,61.1522445,-149.8946091
MLS Listing,,Single Family Residential,2335 Lord Baranof Dr,Anchorage,AK,99517,950000,6,3.0,Anchorage Municipality,3409,12445,1959,6,279,,Active,,,https://www.redfin.com/AK/Anchorage/2335-Lord-Baranof-Dr-99517/home/131313556,AKMLS,25-9076,N,Y,61.1994225,-149.9376375
MLS Listing,,Single Family Residential,16941 Vanover Cir,Eagle River,AK,99577,539500,4,3.0,Anchorage Municipality,2112,9500,1981,6,255,,Active,,,https://www.redfin.com/AK/Eagle-River/16941-Vanover-Cir-99577/home/131499048,AKMLS,25-9556,N,Y,61.3165429,-149.5657623
MLS Listing,,Single Family Residential,441 W 89 St,Anchorage,AK,99515,383900,4,2.0,Anchorage Municipality,1764,7500,1983,6,218,,Active,,,https://www.redfin.com/AK/Anchorage/441-W-89th-Ave-99515/home/131299438,AKMLS,25-8469,N,Y,61.140696,-149.8879241
MLS Listing,,Condo/Co-op,8759 Dry Creek Loop Unit 52A,Anchorage,AK,99502,489900,3,2.5,Anchorage Municipality,1751,,2021,6,280,368,Active,,,https://www.redfin.com/AK/Anchorage/8759-Dry-Creek-Loop-99502/unit-52A/home/174643283,AKMLS,25-9415,N,Y,61.1412135,-149.9851166
MLS Listing,,Vacant Land,137 Gelandsprunger Cir,Girdwood,AK,99587,350000,,,Anchorage Municipality,,13500,,6,,,Active,,,https://www.redfin.com/AK/Girdwood/137-Gelandsprunger-Cir-99587/home/196612703,AKMLS,25-9483,N,Y,60.9613177,-149.1498231
MLS Listing,,Vacant Land,123 Gelandsprunger Cir,Girdwood,AK,99587,300000,,,Anchorage Municipality,,11800,,6,,,Active,,,https://www.redfin.com/AK/Girdwood/123-Gelandsprunger-Cir-99587/home/131239340,AKMLS,25-9482,N,Y,60.9610247,-149.1495627
MLS Listing,,Condo/Co-op,13985 Fire Creek Trail Dr #25,Eagle River,AK,99577,299000,3,2.0,Anchorage Municipality,1357,2278,2003,6,220,125,Active,,,https://www.redfin.com/AK/Eagle-River/13985-Fire-Creek-Trail-Dr-99577/unit-25/home/131763409,AKMLS,25-9392,N,Y,61.3462139,-149.5542704
MLS Listing,,Single Family Residential,5785 Big Bend Loop,Anchorage,AK,99502,592000,3,2.5,Anchorage Municipality,2327,14374,2010,6,254,24,Active,,,https://www.redfin.com/AK/Anchorage/5785-Big-Bend-Loop-99502/home/131941312,AKMLS,25-8831,N,Y,61.1435908,-149.9836694
MLS Listing,,Single Family Residential,10151 Evergreen Tree St,Anchorage,AK,99507,599000,4,2.0,Anchorage Municipality,1795,49294,1980,6,334,,Active,,,https://www.redfin.com/AK/Anchorage/10151-Evergreen-Tree-St-99507/home/131675992,AKMLS,25-9344,N,Y,61.1286173,-149.7806078
MLS Listing,,Multi-Family (2-4 Unit),3804 Lois Dr,Anchorage,AK,99517,425000,6,3.0,Anchorage Municipality,2208,7000,1965,7,192,,Active,,,https://www.redfin.com/AK/Anchorage/3804-Lois-Dr-99517/home/131199606,AKMLS,25-9544,N,Y,61.185287,-149.9194547
MLS Listing,,Single Family Residential,1900 Rebel Ridge Dr,Anchorage,AK,99504,499000,4,3.0,Anchorage Municipality,1806,7216,1981,7,276,,Active,August-1-2025 02:30 PM,August-1-2025 04:30 PM,https://www.redfin.com/AK/Anchorage/1900-Rebel-Ridge-Dr-99504/home/131484517,AKMLS,25-8749,N,Y,61.2040519,-149.7243248
MLS Listing,,Condo/Co-op,5300 E 4th Ave #304,Anchorage,AK,99508,210000,2,2.0,Anchorage Municipality,850,,1983,7,247,380,Active,,,https://www.redfin.com/AK/Anchorage/5300-E-4th-Ave-99508/unit-304/home/131555321,AKMLS,25-9535,N,Y,61.2181826,-149.7819936
MLS Listing,,Single Family Residential,18107 Kantishna Dr,Eagle River,AK,99577,450000,3,1.5,Anchorage Municipality,1472,11475,1979,7,306,,Active,,,https://www.redfin.com/AK/Eagle-River/18107-Kantishna-Dr-99577/home/131665905,AKMLS,25-9526,N,Y,61.3196765,-149.544126
MLS Listing,,Condo/Co-op,720 Bridgestone Ct #16,Anchorage,AK,99518,329000,3,2.0,Anchorage Municipality,1361,,2007,7,242,205,Active,,,https://www.redfin.com/AK/Anchorage/720-Bridgestone-Ct-99518/unit-16/home/131682741,AKMLS,25-9525,N,Y,61.1574904,-149.8681342
MLS Listing,,Single Family Residential,10515 Spindrift Loop,Anchorage,AK,99515,569900,4,2.5,Anchorage Municipality,1933,6851,1987,7,295,27,Active,,,https://www.redfin.com/AK/Anchorage/10515-Spindrift-Loop-99515/home/131326199,AKMLS,25-9519,N,Y,61.1258251,-149.9243613
MLS Listing,,Single Family Residential,5801 Bluebell Dr,Anchorage,AK,99516,625000,2,1.5,Anchorage Municipality,1540,92783,1972,7,406,,Active,,,https://www.redfin.com/AK/Anchorage/5801-Bluebell-Dr-99516/home/131752806,AKMLS,25-9512,N,Y,61.0637585,-149.7733977
MLS Listing,,Single Family Residential,7831 Wildbrook Ct,Anchorage,AK,99504,569900,4,2.5,Anchorage Municipality,2104,10412,2001,7,271,25,Active,,,https://www.redfin.com/AK/Anchorage/7831-Wildbrook-Ct-99504/home/131253204,AKMLS,25-9510,N,Y,61.2005205,-149.7341451
MLS Listing,,Vacant Land,B2LT 32-34 Paradise Vly,Anchorage,AK,99516,210000,,,Anchorage Municipality,,43560,,7,,,Active,,,https://www.redfin.com/AK/Anchorage/B2LT-32-34-Paradise-VLY-99516/home/196615606,AKMLS,25-9509,N,Y,61.051134,-149.760134
MLS Listing,,Vacant Land,B2 L36-38 Paradise Vly,Anchorage,AK,99516,170000,,,Anchorage Municipality,,87120,,7,,,Active,,,https://www.redfin.com/AK/Anchorage/B2-L36-38-Paradise-VLY-99516/home/196615605,AKMLS,25-9508,N,Y,61.051737,-149.760985
MLS Listing,,Single Family Residential,16101 Wind Song Dr,Anchorage,AK,99516,1055000,4,3.0,Anchorage Municipality,3044,57063,1983,7,347,,Active,,,https://www.redfin.com/AK/Anchorage/16101-Wind-Song-Dr-99516/home/131206839,AKMLS,25-9307,N,Y,61.0748639,-149.7645925
MLS Listing,,Single Family Residential,18257 Norway Dr,Anchorage,AK,99516,629000,3,2.0,Anchorage Municipality,1640,20956,1983,7,384,,Active,,,https://www.redfin.com/AK/Anchorage/18257-Norway-Dr-99516/home/131243726,AKMLS,25-9487,N,Y,61.0559335,-149.7596324
MLS Listing,,Single Family Residential,4243 Birch Run Dr,Anchorage,AK,99507,710000,6,3.5,Anchorage Municipality,3238,7641,1996,7,219,25,Active,,,https://www.redfin.com/AK/Anchorage/4243-Birch-Run-Dr-99507/home/131591459,AKMLS,25-9283,N,Y,61.1385895,-149.8025218
MLS Listing,,Condo/Co-op,9645 Independence Dr Unit D307,Anchorage,AK,99507,165000,1,1.0,Anchorage Municipality,501,,1983,7,329,338,Active,,,https://www.redfin.com/AK/Anchorage/9645-Independence-Dr-99507/unit-D307/home/131213365,AKMLS,25-9478,N,Y,61.1331975,-149.8402636
MLS Listing,,Condo/Co-op,5300 E 4th Ave #101,Anchorage,AK,99508,199000,2,2.0,Anchorage Municipality,863,,1983,7,231,381,Active,,,https://www.redfin.com/AK/Anchorage/5300-E-4th-Ave-99508/unit-101/home/131119253,AKMLS,25-9477,N,Y,61.2181826,-149.7819936
MLS Listing,,Single Family Residential,10225 Thimble Berry Dr,Anchorage,AK,99515,285000,2,1.5,Anchorage Municipality,990,3000,1984,7,288,,Active,,,https://www.redfin.com/AK/Anchorage/10225-Thimble-Berry-Dr-99515/home/131406009,AKMLS,25-9476,N,Y,61.1275985,-149.8578408
MLS Listing,,Condo/Co-op,3634 Burl Ct #108,Anchorage,AK,99504,309000,4,1.5,Anchorage Municipality,1814,,1976,7,170,452,Active,,,https://www.redfin.com/AK/Anchorage/3634-Burl-Ct-99504/unit-108/home/131132843,AKMLS,25-9295,N,Y,61.1875078,-149.7628785
MLS Listing,,Single Family Residential,16241 Parksville Dr,Eagle River,AK,99577,475000,3,2.0,Anchorage Municipality,2324,47480,1977,7,204,,Active,August-3-2025 02:00 PM,August-3-2025 04:00 PM,https://www.redfin.com/AK/Anchorage/16241-Parksville-DR-99577/home/172164686,AKMLS,25-9418,N,Y,61.367188,-149.503159
MLS Listing,,Single Family Residential,24508 Reese Rd,Chugiak,AK,99567,495000,3,2.0,Anchorage Municipality,2380,21354,1970,7,208,,Active,,,https://www.redfin.com/AK/Chugiak/24508-Reese-Rd-99567/home/131056116,AKMLS,25-9252,N,Y,61.4257863,-149.425335
MLS Listing,,Single Family Residential,13868 Akers Cir,Eagle River,AK,99577,669000,4,2.5,Anchorage Municipality,2124,14788,2023,7,315,29,Active,,,https://www.redfin.com/AK/Eagle-River/13868-Akers-Cir-99577/home/166640674,AKMLS,25-9222,N,Y,61.345534,-149.5707619
MLS Listing,,Single Family Residential,10720 Whimbrel Dr,Anchorage,AK,99507,649000,4,3.0,Anchorage Municipality,2355,17981,2004,7,276,,Active,,,https://www.redfin.com/AK/Anchorage/10720-Whimbrel-Dr-99507/home/131062497,AKMLS,25-9282,N,Y,61.1236104,-149.8016471
MLS Listing,,Single Family Residential,3930 Eric Cir,Anchorage,AK,99507,529000,4,3.0,Anchorage Municipality,2004,7288,1984,7,264,,Active,August-2-2025 01:00 PM,August-2-2025 03:00 PM,https://www.redfin.com/AK/Anchorage/3930-Eric-Cir-99507/home/131700568,AKMLS,25-9413,N,Y,61.139433,-149.8085395
MLS Listing,,Single Family Residential,19939 Adrian Ave,Chugiak,AK,99567,840000,5,2.5,Anchorage Municipality,2496,50661,1983,8,337,,Active,,,https://www.redfin.com/AK/Chugiak/19939-Adrian-Ave-99567/home/131463603,AKMLS,25-9472,N,Y,61.3922507,-149.5108351
MLS Listing,,Condo/Co-op,102 Rusty Allen Pl #37,Anchorage,AK,99504,275000,2,2.0,Anchorage Municipality,1194,,2005,8,230,250,Active,,,https://www.redfin.com/AK/Anchorage/102-Rusty-Allen-Pl-99504/unit-37/home/131283969,AKMLS,25-9469,N,Y,61.2238703,-149.7609694
MLS Listing,,Condo/Co-op,12550 Old Glenn Hwy Unit C,Eagle River,AK,99577,550000,3,2.5,Anchorage Municipality,2282,,1999,8,241,385,Active,,,https://www.redfin.com/AK/Eagle-River/12550-Old-Glenn-Hwy-99577/unit-C/home/172145979,AKMLS,25-9457,N,Y,61.334222,-149.5660848
MLS Listing,,Condo/Co-op,7252 Foxridge Cir Unit 11C,Anchorage,AK,99518,259900,2,2.0,Anchorage Municipality,748,,1983,8,347,350,Active,,,https://www.redfin.com/AK/Anchorage/7252-Foxridge-Cir-99518/unit-11C/home/130983869,AKMLS,25-9451,N,Y,61.1548435,-149.8827994
MLS Listing,,Single Family Residential,6600 E 8th Ave,Anchorage,AK,99504,345000,4,1.0,Anchorage Municipality,1340,9135,1960,8,257,,Active,,,https://www.redfin.com/AK/Anchorage/6600-E-8th-Ave-99504/home/131102258,AKMLS,25-9431,N,Y,61.2145773,-149.7578534
MLS Listing,,Condo/Co-op,152 Matthew Paul Way #27,Anchorage,AK,99504,272000,3,1.5,Anchorage Municipality,1442,,2010,8,189,455,Active,,,https://www.redfin.com/AK/Anchorage/152-Matthew-Paul-Way-99504/unit-27/home/131949706,AKMLS,25-9426,N,Y,61.223263,-149.762549
MLS Listing,,Single Family Residential,12229 Breckenridge Dr,Eagle River,AK,99577,569900,3,2.5,Anchorage Municipality,1708,6061,2025,8,334,,Active,,,https://www.redfin.com/AK/Eagle-River/12229-Breckenridge-Dr-99577/home/131509039,AKMLS,25-9425,N,Y,61.3310177,-149.5817421
MLS Listing,,Condo/Co-op,140 W 10th Ave #9,Anchorage,AK,99501,575000,3,2.5,Anchorage Municipality,1743,,2004,8,330,275,Active,August-2-2025 02:00 PM,August-2-2025 04:00 PM,https://www.redfin.com/AK/Anchorage/140-W-10th-Ave-99501/unit-9/home/131523427,AKMLS,25-9423,N,Y,61.2123688,-149.884848
MLS Listing,,Single Family Residential,5596 Dalzell Cir,Anchorage,AK,99507,899900,3,3.0,Anchorage Municipality,2899,39915,2015,8,310,54,Active,,,https://www.redfin.com/AK/Anchorage/5596-Dalzell-Cir-99507/home/132248556,AKMLS,25-9421,N,Y,61.1289893,-149.7776668
MLS Listing,,Multi-Family (2-4 Unit),525 E 14th Ave,Anchorage,AK,99501,560000,11,6.0,Anchorage Municipality,4264,7000,1974,8,131,,Active,,,https://www.redfin.com/AK/Anchorage/525-E-14th-Ave-99501/home/131782540,AKMLS,25-8942,N,Y,61.2089648,-149.8742526
MLS Listing,,Condo/Co-op,3235 Eastgate Pl #35,Anchorage,AK,99504,255000,2,1.5,Anchorage Municipality,1033,,1979,8,247,256,Active,,,https://www.redfin.com/AK/Anchorage/3235-Eastgate-Pl-99504/unit-35/home/131573240,AKMLS,25-9416,N,Y,61.1908312,-149.7765203
MLS Listing,,Single Family Residential,8720 Bell Pl,Anchorage,AK,99507,524900,3,2.5,Anchorage Municipality,2031,7033,1993,8,258,,Active,,,https://www.redfin.com/AK/Anchorage/8720-Bell-Pl-99507/home/131748996,AKMLS,25-9204,N,Y,61.1417179,-149.831781
MLS Listing,,Single Family Residential,3914 Martagon Cir,Anchorage,AK,99516,825000,4,3.0,Anchorage Municipality,2982,10934,2001,8,277,,Active,,,https://www.redfin.com/AK/Anchorage/3914-Martagon-Cir-99516/home/131951073,AKMLS,25-9284,N,Y,61.0953436,-149.8088337
MLS Listing,,Condo/Co-op,3960 Reka Dr Unit B-01,Anchorage,AK,99508,225000,2,1.5,Anchorage Municipality,1100,,1971,9,205,385,Active,,,https://www.redfin.com/AK/Anchorage/3960-Reka-Dr-99508/unit-B1/home/177939879,AKMLS,25-9404,N,Y,61.2040603,-149.8053437
MLS Listing,,Single Family Residential,12920 Hillside Dr,Anchorage,AK,99516,645000,5,3.5,Anchorage Municipality,3432,23760,1970,9,188,,Active,,,https://www.redfin.com/AK/Anchorage/12920-Hillside-Dr-99516/home/131703990,AKMLS,25-9166,N,Y,61.1038087,-149.7455
MLS Listing,,Single Family Residential,6911 Viburnum Dr,Anchorage,AK,99507,439900,3,2.0,Anchorage Municipality,1678,7405,1981,9,262,,Active,August-2-2025 11:00 AM,August-2-2025 02:00 PM,https://www.redfin.com/AK/Anchorage/6911-Viburnum-Dr-99507/home/131413454,AKMLS,25-9255,N,Y,61.1580388,-149.8496384
MLS Listing,,Single Family Residential,7990 Paine Rd,Anchorage,AK,99516,2200000,4,4.5,Anchorage Municipality,5360,259838,2024,9,410,,Active,,,https://www.redfin.com/AK/Anchorage/7990-Paine-Rd-99516/home/166639623,AKMLS,25-8992,N,Y,61.0647849,-149.7336618
MLS Listing,,Single Family Residential,8461 Greenhill Way,Anchorage,AK,99502,494900,3,2.0,Anchorage Municipality,1952,10114,1977,10,254,,Active,,,https://www.redfin.com/AK/Anchorage/8461-Greenhill-Way-99502/home/131158684,AKMLS,25-8665,N,Y,61.1441422,-149.9171589
MLS Listing,,Single Family Residential,5350 Little Tree St,Anchorage,AK,99507,415000,4,2.0,Anchorage Municipality,1872,6969,1972,10,222,,Active,,,https://www.redfin.com/AK/Anchorage/5350-Little-Tree-St-99507/home/131589172,AKMLS,25-9323,N,Y,61.1723628,-149.8468163
MLS Listing,,Vacant Land,1625 C St,Anchorage,AK,99501,3500000,,,Anchorage Municipality,,130680,,10,,,Active,,,https://www.redfin.com/AK/Anchorage/1625-C-St-99501/home/196540680,AKMLS,25-9322,N,Y,61.206006,-149.8871077
MLS Listing,,Single Family Residential,432 W 10th Ave,Anchorage,AK,99501,895000,5,3.5,Anchorage Municipality,2808,8500,1981,10,319,,Active,,,https://www.redfin.com/AK/Anchorage/432-W-10th-Ave-99501/home/131099523,AKMLS,25-9315,N,Y,61.2125071,-149.8906389
MLS Listing,,Single Family Residential,3443 Wiley Post Loop,Anchorage,AK,99517,375000,2,2.0,Anchorage Municipality,1497,4900,1981,10,251,,Active,,,https://www.redfin.com/AK/Anchorage/3443-Wiley-Post-Loop-99517/home/131324262,AKMLS,25-9308,N,Y,61.1865702,-149.9431014
MLS Listing,,Vacant Land,5000 Northwood Dr,Anchorage,AK,99517,1000000,,,Anchorage Municipality,,217800,,10,,,Active,,,https://www.redfin.com/AK/Anchorage/5000-Northwood-Dr-99517/home/166475511,AKMLS,25-9304,N,Y,61.17468,-149.9304019
MLS Listing,,Single Family Residential,24290 Rambler Rd,Chugiak,AK,99567,612000,4,2.0,Anchorage Municipality,1772,31500,2025,11,345,,Active,,,https://www.redfin.com/AK/Chugiak/24290-Rambler-Rd-99567/home/196519863,AKMLS,25-9293,N,Y,61.4235717,-149.4292212
MLS Listing,,Condo/Co-op,3333 Lakeshore Dr #5,Anchorage,AK,99517,329900,2,1.0,Anchorage Municipality,1140,,1972,11,289,550,Active,,,https://www.redfin.com/AK/Anchorage/3333-Lakeshore-Dr-99517/unit-5/home/131628613,AKMLS,25-9251,N,Y,61.1810481,-149.9450129
MLS Listing,,Single Family Residential,13190 Kuphaldt Cir,Eagle River,AK,99577,569900,4,2.5,Anchorage Municipality,2069,8712,2012,11,275,15,Active,,,https://www.redfin.com/AK/Eagle-River/13190-Kuphaldt-Cir-99577/home/131815335,AKMLS,25-9158,N,Y,61.3397097,-149.5787717
MLS Listing,,Condo/Co-op,243 Creekside St #2,Anchorage,AK,99504,423000,4,3.5,Anchorage Municipality,2771,,2004,11,153,137,Active,,,https://www.redfin.com/AK/Anchorage/243-Creekside-St-99504/unit-2/home/131444928,AKMLS,25-9123,N,Y,61.2213166,-149.7405847
MLS Listing,,Single Family Residential,1700 Amherst Ct,Anchorage,AK,99508,579000,4,2.5,Anchorage Municipality,2288,9436,1968,11,253,,Active,,,https://www.redfin.com/AK/Anchorage/1700-Amherst-Ct-99508/home/131496069,AKMLS,25-9239,N,Y,61.1894438,-149.8501829
MLS Listing,,Single Family Residential,21212 Rock Ptarmigan St,Chugiak,AK,99567,714900,3,3.0,Anchorage Municipality,2464,18867,1993,12,290,,Active,,,https://www.redfin.com/AK/Chugiak/21212-Rock-Ptarmigan-St-99567/home/131455290,AKMLS,25-8426,N,Y,61.4121963,-149.426033
MLS Listing,,Single Family Residential,7250 Cantonment Ct,Anchorage,AK,99507,499000,3,2.0,Anchorage Municipality,1636,9606,1982,13,305,,Active,,,https://www.redfin.com/AK/Anchorage/7250-Cantonment-Ct-99507/home/131418977,AKMLS,25-9225,N,Y,61.1545882,-149.8262077
MLS Listing,,Single Family Residential,16604 Virgo Ave,Anchorage,AK,99516,785000,4,3.5,Anchorage Municipality,2932,47270,1984,13,268,,Active,,,https://www.redfin.com/AK/Anchorage/16604-Virgo-Ave-99516/home/131221918,AKMLS,25-9223,N,Y,61.0704815,-149.787465
MLS Listing,,Single Family Residential,10121 Middlerock Rd,Anchorage,AK,99507,1335000,4,4.5,Anchorage Municipality,5038,100188,1997,13,265,,Active,,,https://www.redfin.com/AK/Anchorage/10121-Middlerock-Rd-99507/home/131052225,AKMLS,25-9220,N,Y,61.1569348,-149.6957565
MLS Listing,,Single Family Residential,4156 Patterson Street #2,Anchorage,AK,99504,381000,3,2.5,Anchorage Municipality,1624,,1998,13,235,475,Active,,,https://www.redfin.com/AK/Anchorage/4156-Patterson-St-99504/unit-2/home/177703451,AKMLS,25-9217,N,Y,61.1828467,-149.7510335
MLS Listing,,Vacant Land,0012 No Rd,Eagle River,AK,99577,90000,,,Anchorage Municipality,,1742400,,13,,,Active,,,https://www.redfin.com/AK/Eagle-River/0012-No-RD-99577/home/196505796,AKMLS,25-9211,N,Y,61.245289,-149.367307
MLS Listing,,Vacant Land,0011 No Rd,Eagle River,AK,99577,90000,,,Anchorage Municipality,,1698840,,13,,,Active,,,https://www.redfin.com/AK/Eagle-River/0011-No-RD-99577/home/196505792,AKMLS,25-9210,N,Y,61.247583,-149.36349
MLS Listing,,Single Family Residential,15935 Kings Way Dr,Anchorage,AK,99516,550000,5,3.0,Anchorage Municipality,2544,130811,2006,13,216,,Active,,,https://www.redfin.com/AK/Anchorage/15935-Kings-Way-Dr-99516/home/131626725,AKMLS,25-9206,N,Y,61.0762199,-149.7113335
MLS Listing,,Multi-Family (2-4 Unit),308 Stewart St,Anchorage,AK,99508,320000,2,2.0,Anchorage Municipality,1148,8276,1952,13,279,,Active,,,https://www.redfin.com/AK/Anchorage/308-Stewart-St-99508/home/131111761,AKMLS,25-7057,N,Y,61.2206066,-149.7881151
MLS Listing,,Single Family Residential,11114 Kaskanak,Eagle River,AK,99577,810000,5,3.5,Anchorage Municipality,3450,12384,1994,13,235,,Active,,,https://www.redfin.com/AK/Eagle-River/11114-Kaskanak-Dr-99577/home/131427107,AKMLS,25-9201,N,Y,61.3206576,-149.5267013
MLS Listing,,Multi-Family (2-4 Unit),1806 Cleveland Ave,Anchorage,AK,99517,285000,3,2.0,Anchorage Municipality,1320,7000,1954,13,216,,Active,,,https://www.redfin.com/AK/Anchorage/1806-Cleveland-Ave-99517/home/131327187,AKMLS,25-9122,N,Y,61.1853454,-149.9165499
MLS Listing,,Mobile/Manufactured Home,905 Muldoon Rd Unit A86,Anchorage,AK,99504,74000,4,2.0,Anchorage Municipality,1260,,1961,14,59,,Active,,,https://www.redfin.com/AK/Anchorage/905-Muldoon-Rd-99504/unit-A86/home/196502108,AKMLS,25-9182,N,Y,61.2140463,-149.7289122
MLS Listing,,Single Family Residential,926 W 80th Ave,Anchorage,AK,99518,300000,2,1.5,Anchorage Municipality,1066,3367,1982,14,281,215,Active,,,https://www.redfin.com/AK/Anchorage/926-W-80th-Ave-99518/home/131045235,AKMLS,25-9179,N,Y,61.1487303,-149.8962317
MLS Listing,,Condo/Co-op,7141 Weimer Rd #6,Anchorage,AK,99502,175000,2,1.0,Anchorage Municipality,830,,1976,14,211,337,Active,,,https://www.redfin.com/AK/Anchorage/7141-Weimer-Rd-99502/unit-6/home/177703462,AKMLS,25-9160,N,Y,61.155745,-149.9497756
MLS Listing,,Condo/Co-op,9285 Blackberry St #4,Anchorage,AK,99502,189000,2,1.0,Anchorage Municipality,738,,1982,14,256,517,Active,,,https://www.redfin.com/AK/Anchorage/9285-Blackberry-St-99502/unit-4/home/177703358,AKMLS,25-9154,N,Y,61.136756,-149.9429309
MLS Listing,,Condo/Co-op,1200 I St #306,Anchorage,AK,99501,335000,2,1.0,Anchorage Municipality,1015,,1982,14,330,684,Active,,,https://www.redfin.com/AK/Anchorage/1200-I-St-99501/unit-306/home/131082088,AKMLS,25-9152,N,Y,61.2104231,-149.9007418
MLS Listing,,Vacant Land,12801 Midori Dr,Anchorage,AK,99516,325000,,,Anchorage Municipality,,43560,,14,,,Active,,,https://www.redfin.com/AK/Anchorage/12801-Midori-Dr-99516/home/166659207,AKMLS,25-9149,N,Y,61.104773,-149.739831
MLS Listing,,Single Family Residential,1608 Moss Creek Ave #123,Anchorage,AK,99507,439000,3,2.0,Anchorage Municipality,1646,3483,2002,14,267,140,Active,,,https://www.redfin.com/AK/Anchorage/1608-Moss-Creek-Ave-99507/unit-123/home/131677146,AKMLS,25-9127,N,Y,61.140269,-149.852358
MLS Listing,,Single Family Residential,21009 River Park Dr,Eagle River,AK,99577,695000,5,3.5,Anchorage Municipality,3202,40000,1994,14,217,,Active,,,https://www.redfin.com/AK/Eagle-River/21009-River-Park-Dr-99577/home/131211723,AKMLS,25-8893,N,Y,61.2888596,-149.4905113
MLS Listing,,Single Family Residential,4156 Checkmate Dr,Anchorage,AK,99508,515000,5,3.0,Anchorage Municipality,2254,9602,1971,14,228,,Active,August-2-2025 01:00 PM,August-2-2025 04:00 PM,https://www.redfin.com/AK/Anchorage/4156-Checkmate-Dr-99508/home/131607845,AKMLS,25-9077,N,Y,61.1829901,-149.7861185
MLS Listing,,Single Family Residential,3600 Johnny Dr,Eagle River,AK,99577,450000,3,1.5,Anchorage Municipality,1338,133645,1977,14,336,,Active,,,https://www.redfin.com/AK/Eagle-River/3600-Johnny-Dr-99577/home/131512327,AKMLS,25-9092,N,Y,61.2529705,-149.4780802
MLS Listing,,Condo/Co-op,2022 E 73rd Ave #2,Anchorage,AK,99507,349900,4,2.0,Anchorage Municipality,1428,,2005,14,245,367,Active,August-3-2025 12:00 PM,August-3-2025 03:00 PM,https://www.redfin.com/AK/Anchorage/2022-E-73rd-Ave-99507/unit-2/home/131523457,AKMLS,25-9108,N,Y,61.1543482,-149.8443722
MLS Listing,,Single Family Residential,5875 Kennyhill Dr,Anchorage,AK,99504,475000,4,2.0,Anchorage Municipality,1824,8941,1974,14,260,,Active,,,https://www.redfin.com/AK/Anchorage/5875-Kennyhill-Dr-99504/home/131383433,AKMLS,25-8962,N,Y,61.1930824,-149.770737
MLS Listing,,Multi-Family (2-4 Unit),8033 E 6th Ave,Anchorage,AK,99504,440000,4,2.0,Anchorage Municipality,1800,10465,1968,14,244,,Active,,,https://www.redfin.com/AK/Anchorage/8033-E-6th-Ave-99504/home/131117895,AKMLS,25-9021,N,Y,61.2172485,-149.7298595
MLS Listing,,Single Family Residential,3121 Wiley Post Ave,Anchorage,AK,99517,435000,4,2.0,Anchorage Municipality,1924,9608,1973,15,226,,Active,,,https://www.redfin.com/AK/Anchorage/3121-Wiley-Post-Ave-99517/home/131604134,AKMLS,25-9111,N,Y,61.1876378,-149.9423302
MLS Listing,,Single Family Residential,8812 Turlock Dr,Eagle River,AK,99577,749900,3,3.0,Anchorage Municipality,2016,8147,2023,15,372,32,Active,,,https://www.redfin.com/AK/Eagle-River/8812-Turlock-Dr-99577/home/181992671,AKMLS,25-9105,N,Y,61.300268,-149.549074
MLS Listing,,Single Family Residential,3348 Leonard Cir,Anchorage,AK,99507,299000,3,1.5,Anchorage Municipality,1292,3092,1983,15,231,,Active,,,https://www.redfin.com/AK/Anchorage/3348-Leonard-Cir-99507/home/131186834,AKMLS,25-9099,N,Y,61.1632658,-149.8199695
MLS Listing,,Single Family Residential,19732 Second St,Eagle River,AK,99577,399000,3,3.0,Anchorage Municipality,2599,17820,1974,15,154,,Active,,,https://www.redfin.com/AK/Eagle-River/19732-Second-St-99577/home/131052802,AKMLS,25-9083,N,Y,61.3122467,-149.5144831
MLS Listing,,Condo/Co-op,2902 Qin Ct #7,Anchorage,AK,99507,400000,3,2.5,Anchorage Municipality,1675,,2015,15,239,360,Active,,,https://www.redfin.com/AK/Anchorage/2902-Qin-Ct-99507/unit-7/home/132505091,AKMLS,25-9071,N,Y,61.14942,-149.8282138
MLS Listing,,Single Family Residential,22035 Upper Canyon Dr,Eagle River,AK,99577,790000,3,3.5,Anchorage Municipality,2217,37503,1995,15,356,,Active,,,https://www.redfin.com/AK/Eagle-River/22035-Upper-Canyon-Dr-99577/home/131235996,AKMLS,25-8983,N,Y,61.3133621,-149.4710994
MLS Listing,,Condo/Co-op,11418 Moonrise Ridge Pl #19,Anchorage,AK,99516,550000,2,2.5,Anchorage Municipality,1750,,2014,15,314,375,Active,,,https://www.redfin.com/AK/Anchorage/11418-Moonrise-Ridge-Pl-99516/unit-19/home/132081218,AKMLS,25-8772,N,Y,61.117322,-149.8541734
MLS Listing,,Single Family Residential,635 E 74th Ave,Anchorage,AK,99518,360000,2,1.0,Anchorage Municipality,952,11135,1955,15,378,,Active,,,https://www.redfin.com/AK/Anchorage/635-E-74th-Ave-99518/home/131795393,AKMLS,25-9068,N,Y,61.1540484,-149.8703865
MLS Listing,,Condo/Co-op,2066 Cliffside Dr Unit 10-B2,Anchorage,AK,99501,375000,3,2.5,Anchorage Municipality,1567,,1975,16,239,432,Active,,,https://www.redfin.com/AK/Anchorage/2066-Cliffside-Dr-99501/unit-10-B2/home/196427997,AKMLS,25-8853,N,Y,61.2021333,-149.8432992
MLS Listing,,Condo/Co-op,184 Matthew Paul Way,Anchorage,AK,99504,267000,3,1.5,Anchorage Municipality,1282,,2009,16,208,451,Active,,,https://www.redfin.com/AK/Anchorage/184-Matthew-Paul-Way-99504/home/196452190,AKMLS,25-9048,N,Y,61.2231663,-149.76256
MLS Listing,,Condo/Co-op,7641 Lumbis Ave #107,Anchorage,AK,99518,189000,2,1.5,Anchorage Municipality,730,,1983,16,259,300,Active,,,https://www.redfin.com/AK/Anchorage/7641-Lumbis-Ave-99518/unit-107/home/131535769,AKMLS,25-9038,N,Y,61.1513439,-149.867042
MLS Listing,,Single Family Residential,18323 Kantishna Dr,Eagle River,AK,99577,515000,3,3.0,Anchorage Municipality,2883,11721,1980,16,179,,Active,,,https://www.redfin.com/AK/Eagle-River/18323-Kantishna-Dr-99577/home/131520747,AKMLS,25-9013,N,Y,61.320418,-149.540431
MLS Listing,,Vacant Land,240 W 106th Ave,Anchorage,AK,99515,1600000,,,Anchorage Municipality,,43560,,16,,,Active,,,https://www.redfin.com/AK/Anchorage/240-W-106th-Ave-99515/home/196449682,AKMLS,25-8994,N,Y,61.1248658,-149.8833711
MLS Listing,,Vacant Land,24121 Hearthstone,Chugiak,AK,99567,150000,,,Anchorage Municipality,,20194,,16,,,Active,,,https://www.redfin.com/AK/Chugiak/24121-Hearthstone-Dr-99567/home/131500035,AKMLS,25-8986,N,Y,61.4106109,-149.4321751
MLS Listing,,Condo/Co-op,165 Rusty Allen Pl #64,Anchorage,AK,99504,269900,3,1.5,Anchorage Municipality,1369,,2006,16,197,280,Active,,,https://www.redfin.com/AK/Anchorage/165-Rusty-Allen-Pl-99504/unit-64/home/131656784,AKMLS,25-8462,N,Y,61.223271,-149.760475
MLS Listing,,Single Family Residential,835 Hiland Rd,Eagle River,AK,99577,850000,2,2.0,Anchorage Municipality,2278,423545,2010,16,373,,Active,,,https://www.redfin.com/AK/Eagle-River/835-Hiland-Rd-99577/home/131500265,AKMLS,25-8938,N,Y,61.2291384,-149.4374942
MLS Listing,,Condo/Co-op,222 E 7th Ave #103,Anchorage,AK,99501,485000,2,2.5,Anchorage Municipality,1426,,2005,16,340,681,Active,,,https://www.redfin.com/AK/Anchorage/222-E-7th-Ave-99501/unit-103/home/131659019,AKMLS,25-8621,N,Y,61.2153108,-149.8799102
MLS Listing,,Condo/Co-op,1210 E 16th Ave #4,Anchorage,AK,99501,250000,2,2.0,Anchorage Municipality,1852,,1982,16,135,536,Active,,,https://www.redfin.com/AK/Anchorage/1210-E-16th-Ave-99501/unit-4/home/131767403,AKMLS,25-8242,N,Y,61.2058439,-149.8606815
MLS Listing,,Single Family Residential,4200 Rabbit Creek Rd,Anchorage,AK,99516,1065000,4,4.0,Anchorage Municipality,4904,67200,1964,16,217,,Active,,,https://www.redfin.com/AK/Anchorage/4200-Rabbit-Creek-Rd-99516/home/131800856,AKMLS,25-8675,N,Y,61.0828741,-149.8034433
MLS Listing,,Single Family Residential,2751 Pelican Dr,Anchorage,AK,99502,739000,3,2.5,Anchorage Municipality,2998,8050,1982,16,246,,Active,,,https://www.redfin.com/AK/Anchorage/2751-Pelican-Dr-99502/home/131618560,AKMLS,25-8967,N,Y,61.1342735,-149.9325275
MLS Listing,,Multi-Family (2-4 Unit),933 W 20th Ave,Anchorage,AK,99503,599000,6,4.0,Anchorage Municipality,3276,7000,1963,16,183,,Active,,,https://www.redfin.com/AK/Anchorage/933-W-20th-Ave-99503/home/131353428,AKMLS,25-8955,N,Y,61.2026478,-149.9012749
MLS Listing,,Multi-Family (2-4 Unit),2308 McKinley Ave,Anchorage,AK,99517,295000,3,2.0,Anchorage Municipality,1500,7000,1960,17,197,,Active,,,https://www.redfin.com/AK/Anchorage/2308-McKinley-Ave-99517/home/131719571,AKMLS,25-8976,N,Y,61.1837198,-149.9263088
MLS Listing,,Single Family Residential,4618 Klondike Ct,Anchorage,AK,99508,269000,3,2.0,Anchorage Municipality,1768,7100,1959,17,152,,Active,,,https://www.redfin.com/AK/Anchorage/4618-Klondike-Ct-99508/home/131544978,AKMLS,25-8975,N,Y,61.219456,-149.7945327
MLS Listing,,Multi-Family (2-4 Unit),4440 View Cir,Anchorage,AK,99507,359000,8,7.0,Anchorage Municipality,6398,16620,1978,17,56,,Active,,,https://www.redfin.com/AK/Anchorage/4440-View-Cir-99507/home/131696667,AKMLS,25-8973,N,Y,61.180262,-149.8178874
MLS Listing,,Condo/Co-op,6507 Kara Sue Loop #83,Anchorage,AK,99504,275000,3,1.5,Anchorage Municipality,1469,,2007,17,187,280,Active,,,https://www.redfin.com/AK/Anchorage/6507-Kara-Sue-Loop-99504/unit-83/home/131505643,AKMLS,25-8959,N,Y,61.2229336,-149.7597115
MLS Listing,,Vacant Land,374 E 87th Ave,Anchorage,AK,99515,2281122,,,Anchorage Municipality,,87120,,17,,,Active,,,https://www.redfin.com/AK/Anchorage/374-E-87th-Ave-99515/home/196427799,AKMLS,25-8958,N,Y,61.1415449,-149.8760389
MLS Listing,,Condo/Co-op,12229 Vista Ridge Loop,Eagle River,AK,99577,464000,3,2.5,Anchorage Municipality,1600,,2025,17,290,291,Active,,,https://www.redfin.com/AK/Eagle-River/12229-Vista-Ridge-Loop-99577/home/196427790,AKMLS,25-8956,N,Y,61.3311007,-149.5649105
MLS Listing,,Condo/Co-op,12227 Vista Ridge Loop,Eagle River,AK,99577,464000,3,2.5,Anchorage Municipality,1600,,2025,17,290,291,Active,,,https://www.redfin.com/AK/Eagle-River/12227-Vista-Ridge-Loop-99577/home/196427770,AKMLS,25-8954,N,Y,61.3311007,-149.5649105
MLS Listing,,Single Family Residential,21331 Original Ave,Chugiak,AK,99567,529000,3,2.5,Anchorage Municipality,1755,113599,2007,17,301,,Active,,,https://www.redfin.com/AK/Chugiak/21331-Original-Ave-99567/home/131434887,AKMLS,25-8953,N,Y,61.4248266,-149.485289
MLS Listing,,Single Family Residential,5991 Takotna Loop,Anchorage,AK,99504,529000,3,2.0,Anchorage Municipality,1483,3396,2025,17,357,57,Active,,,https://www.redfin.com/AK/Anchorage/5991-takotna-Loop-99504/home/196426937,AKMLS,25-8947,N,Y,61.221571,-149.7698101
MLS Listing,,Mobile/Manufactured Home,1908 Hillcrest Dr #17,Anchorage,AK,99517,100000,3,1.0,Anchorage Municipality,750,,1959,17,133,,Active,,,https://www.redfin.com/AK/Anchorage/1908-Hillcrest-Dr-99517/unit-17/home/190921969,AKMLS,25-8944,N,Y,61.2012137,-149.9245846
MLS Listing,,Multi-Family (2-4 Unit),318 W 10th Ave,Anchorage,AK,99501,595000,4,3.5,Anchorage Municipality,3200,7000,1953,17,186,,Active,,,https://www.redfin.com/AK/Anchorage/318-W-10th-Ave-99501/home/131354949,AKMLS,25-8941,N,Y,61.2123703,-149.8882502
MLS Listing,,Single Family Residential,326 W 10th Ave,Anchorage,AK,99501,495000,2,2.0,Anchorage Municipality,1850,7000,1940,17,268,,Active,,,https://www.redfin.com/AK/Anchorage/326-W-10th-Ave-99501/home/131023253,AKMLS,25-8939,N,Y,61.2123278,-149.8885702
MLS Listing,,Multi-Family (2-4 Unit),1544 State St,Anchorage,AK,99504,1149000,10,8.0,Anchorage Municipality,6656,11733,2002,17,173,,Active,,,https://www.redfin.com/AK/Anchorage/1544-State-St-99504/home/131275480,AKMLS,25-8927,N,Y,61.2067932,-149.7295973
MLS Listing,,Single Family Residential,3641 E Klatt Rd,Anchorage,AK,99516,1950000,6,3.5,Anchorage Municipality,4673,48984,2000,17,417,,Active,,,https://www.redfin.com/AK/Anchorage/3641-E-Klatt-Rd-99516/home/131487611,AKMLS,25-8925,N,Y,61.1162204,-149.8140087
MLS Listing,,Vacant Land,4300 Hayes St,Anchorage,AK,99503,99500,,,Anchorage Municipality,,6969,,17,,,Active,,,https://www.redfin.com/AK/Anchorage/4300-Hayes-St-99503/home/165914512,AKMLS,25-8919,N,Y,61.1816253,-149.9111307
MLS Listing,,Multi-Family (2-4 Unit),1911 Martha's Vineyard Cir,Anchorage,AK,99507,825000,9,5.0,Anchorage Municipality,3848,9078,1983,17,214,,Active,,,https://www.redfin.com/AK/Anchorage/1911-Marthas-Vineyard-Cir-99507/home/131495386,AKMLS,25-8918,N,Y,61.1274402,-149.8466325
MLS Listing,,Multi-Family (2-4 Unit),634 W 18th Ave,Anchorage,AK,99503,453000,4,2.0,Anchorage Municipality,1664,7700,1963,17,272,,Active,,,https://www.redfin.com/AK/Anchorage/634-W-18th-Ave-99503/home/131357501,AKMLS,25-8911,N,Y,61.2035978,-149.8953761
MLS Listing,,Single Family Residential,11361 Hideaway Trl,Anchorage,AK,99507,1500000,4,4.0,Anchorage Municipality,5622,49362,2000,17,267,,Active,,,https://www.redfin.com/AK/Anchorage/11361-Hideaway-Trl-99507/home/131648845,AKMLS,25-8848,N,Y,61.1179244,-149.7362276
MLS Listing,,Single Family Residential,5170 Merle Cir,Anchorage,AK,99507,425000,3,2.5,Anchorage Municipality,1576,4886,1992,17,270,,Active,,,https://www.redfin.com/AK/Anchorage/5170-Merle-Cir-99507/home/131556008,AKMLS,25-8694,N,Y,61.173731,-149.8300758
MLS Listing,,Vacant Land,2925 W 36th Ave,Anchorage,AK,99517,205000,,,Anchorage Municipality,,14600,,18,,,Active,,,https://www.redfin.com/AK/Anchorage/2925-W-36th-Ave-99517/home/196410225,AKMLS,25-8901,N,Y,61.1884617,-149.9377489
MLS Listing,,Condo/Co-op,3298 Montpelier Ct Unit 12F,Anchorage,AK,99503,275000,2,1.5,Anchorage Municipality,1253,,1976,18,219,485,Active,,,https://www.redfin.com/AK/Anchorage/3298-Montpelier-Ct-99503/unit-12F/home/131770020,AKMLS,25-8900,N,Y,61.1912544,-149.8937079
MLS Listing,,Single Family Residential,1334 K St,Anchorage,AK,99501,895000,5,4.5,Anchorage Municipality,3635,7000,1949,18,246,,Active,,,https://www.redfin.com/AK/Anchorage/1334-K-St-99501/home/131927345,AKMLS,25-8894,N,Y,61.2090051,-149.9023188
MLS Listing,,Multi-Family (2-4 Unit),3502 Wyoming Dr,Anchorage,AK,99517,549000,4,2.0,Anchorage Municipality,2436,7000,1977,18,225,,Active,,,https://www.redfin.com/AK/Anchorage/3502-Wyoming-Dr-99517/home/131016544,AKMLS,25-8895,N,Y,61.1886448,-149.9172303
MLS Listing,,Single Family Residential,19411 Klondike St,Chugiak,AK,99567,335000,3,2.5,Anchorage Municipality,1848,54450,1962,18,181,,Active,,,https://www.redfin.com/AK/Chugiak/19411-Klondike-St-99567/home/131917223,AKMLS,25-8881,N,Y,61.3819878,-149.5215151
MLS Listing,,Vacant Land,18936 Scenic Hill Dr,Anchorage,AK,99516,210000,,,Anchorage Municipality,,20029,,18,,,Active,,,https://www.redfin.com/AK/Anchorage/18936-Scenic-Hill-Cir-99516/home/166110079,AKMLS,25-8879,N,Y,61.0496229,-149.7805728
MLS Listing,,Condo/Co-op,2433 La Honda Dr,Anchorage,AK,99517,429000,2,2.5,Anchorage Municipality,1516,,1982,18,283,678,Active,,,https://www.redfin.com/AK/Anchorage/2433-La-Honda-Dr-99517/home/196371009,AKMLS,25-8774,N,Y,61.1983857,-149.9304284
MLS Listing,,Single Family Residential,11741 Mary Ave,Anchorage,AK,99515,669000,5,3.0,Anchorage Municipality,2860,13683,1993,19,234,,Active,,,https://www.redfin.com/AK/Anchorage/11741-Mary-Ave-99515/home/131239555,AKMLS,25-8704,N,Y,61.1143345,-149.888197
MLS Listing,,Single Family Residential,4060 Defiance St,Anchorage,AK,99504,469000,3,2.5,Anchorage Municipality,1600,4304,1992,20,293,,Active,,,https://www.redfin.com/AK/Anchorage/4060-Defiance-St-99504/home/131106225,AKMLS,25-8828,N,Y,61.183736,-149.7704362
MLS Listing,,Condo/Co-op,2904 W Northern Lights Blvd Unit 7F,Anchorage,AK,99517,159900,2,1.0,Anchorage Municipality,896,,1976,20,178,294,Active,,,https://www.redfin.com/AK/Anchorage/2904-W-Northern-Lights-Blvd-99517/unit-7F/home/131326857,AKMLS,25-2363,N,Y,61.1950171,-149.9382123
MLS Listing,,Condo/Co-op,1854 Buccaneer Pl,Anchorage,AK,99501,690000,2,2.5,Anchorage Municipality,1950,,1979,20,354,599,Active,,,https://www.redfin.com/AK/Anchorage/1854-Buccaneer-Pl-99501/home/179681364,AKMLS,25-8827,N,Y,61.2082016,-149.9195788
MLS Listing,,Condo/Co-op,133 Matthew Paul Way,Anchorage,AK,99504,267500,3,1.5,Anchorage Municipality,1282,,2009,20,209,401,Active,August-2-2025 01:00 PM,August-2-2025 03:00 PM,https://www.redfin.com/AK/Anchorage/133-Matthew-Paul-Way-99504/home/196376806,AKMLS,25-8822,N,Y,61.2231663,-149.76256
MLS Listing,,Single Family Residential,2330 Heatherbrook Cir,Anchorage,AK,99504,490000,3,2.5,Anchorage Municipality,2230,6119,2000,20,220,,Active,,,https://www.redfin.com/AK/Anchorage/2330-Heatherbrook-Cir-99504/home/131522019,AKMLS,25-8248,N,Y,61.199678,-149.7390673
MLS Listing,,Single Family Residential,290 Park St,Anchorage,AK,99508,329000,3,2.0,Anchorage Municipality,1150,6250,1962,20,286,,Active,,,https://www.redfin.com/AK/Anchorage/290-Park-St-99508/home/131552028,AKMLS,25-8691,N,Y,61.2206892,-149.8033413
MLS Listing,,Single Family Residential,2090 Dimond Dr,Anchorage,AK,99507,469000,3,2.0,Anchorage Municipality,2388,7000,1970,21,196,,Active,,,https://www.redfin.com/AK/Anchorage/2090-Dimond-Dr-99507/home/131294657,AKMLS,25-8803,N,Y,61.1764625,-149.8425065
MLS Listing,,Vacant Land,L14A B4H Viola Cir,Anchorage,AK,99516,62500,,,Anchorage Municipality,,24156,,21,,,Active,,,https://www.redfin.com/AK/Anchorage/L14A-B4H-Viola-Cir-99516/home/196372029,AKMLS,25-8802,N,Y,61.070147,-149.73498
MLS Listing,,Condo/Co-op,1414 W 7th Ave #2,Anchorage,AK,99501,799000,2,2.5,Anchorage Municipality,1627,,1991,21,491,573,Active,,,https://www.redfin.com/AK/Anchorage/1414-W-7th-Ave-99501/unit-2/home/196371669,AKMLS,25-8787,N,Y,61.2154591,-149.9104149
MLS Listing,,Multi-Family (2-4 Unit),420 E 14th Ave,Anchorage,AK,99501,1095000,26,9.0,Anchorage Municipality,7788,7000,1965,21,141,,Active,,,https://www.redfin.com/AK/Anchorage/420-E-14th-Ave-99501/home/131099868,AKMLS,25-8786,N,Y,61.2084142,-149.8762439
MLS Listing,,Condo/Co-op,1414 W 7th Ave #3,Anchorage,AK,99501,799000,2,2.5,Anchorage Municipality,1627,,1991,21,491,573,Active,,,https://www.redfin.com/AK/Anchorage/1414-W-7th-Ave-99501/unit-3/home/196371279,AKMLS,25-8784,N,Y,61.2154591,-149.9104149
MLS Listing,,Multi-Family (2-4 Unit),2350 &2356 Canary Ct,Anchorage,AK,99515,1275000,8,5.5,Anchorage Municipality,4410,12838,1977,21,289,,Active,,,https://www.redfin.com/AK/Anchorage/2350-Canary-Ct-99515/home/131904382,AKMLS,25-8785,N,Y,61.135835,-149.925079
MLS Listing,,Multi-Family (2-4 Unit),633 N Flower St,Anchorage,AK,99508,340000,8,6.0,Anchorage Municipality,3780,6098,1970,21,90,,Active,,,https://www.redfin.com/AK/Anchorage/633-N-Flower-St-99508/home/131566236,AKMLS,25-8782,N,Y,61.2292835,-149.8059124
MLS Listing,,Multi-Family (2-4 Unit),627 N Flower St,Anchorage,AK,99508,340000,8,6.0,Anchorage Municipality,3780,2614,1968,21,90,,Active,,,https://www.redfin.com/AK/Anchorage/627-N-Flower-St-99508/home/131551876,AKMLS,25-8780,N,Y,61.2291404,-149.8059292
MLS Listing,,Single Family Residential,19567 Mount Magnificent Cir,Eagle River,AK,99577,2195000,4,3.0,Anchorage Municipality,4111,112640,2017,21,534,118,Active,,,https://www.redfin.com/AK/Eagle-River/19567-Mount-Magnificent-Cir-99577/home/146475195,AKMLS,25-7554,N,Y,61.3236281,-149.5182911
MLS Listing,,Single Family Residential,1614 Kepner Dr,Anchorage,AK,99504,230000,2,1.0,Anchorage Municipality,916,5400,1963,21,251,,Active,,,https://www.redfin.com/AK/Anchorage/1614-Kepner-Dr-99504/home/131320290,AKMLS,25-8770,N,Y,61.2051444,-149.7684643
MLS Listing,,Vacant Land,1642 E Dowling Rd,Anchorage,AK,99507,1450000,,,Anchorage Municipality,,36900,,21,,,Active,,,https://www.redfin.com/AK/Anchorage/1642-E-Dowling-Rd-99507/home/194002352,AKMLS,25-8762,N,Y,61.1661443,-149.8519133
MLS Listing,,Vacant Land,20 BLK 2 LT 20 E 73rd Ave,Anchorage,AK,99502,90000,,,Anchorage Municipality,,12090,,21,,,Active,,,https://www.redfin.com/AK/Anchorage/20-E-73rd-Ave-Unknown/home/196369767,AKMLS,25-8760,N,Y,61.155122,-149.845994
MLS Listing,,Vacant Land,NHN Northwood,Anchorage,AK,99517,3500000,,,Anchorage Municipality,,392040,,21,,,Active,,,https://www.redfin.com/AK/Anchorage/NHN-Northwood-Dr-99517/home/196363123,AKMLS,25-8745,N,Y,61.180093,-149.929106
MLS Listing,,Single Family Residential,2201 Otter St,Anchorage,AK,99504,849900,4,3.0,Anchorage Municipality,4076,116028,1957,21,209,,Active,,,https://www.redfin.com/AK/Anchorage/2201-Otter-St-99504/home/131015462,AKMLS,25-8170,N,Y,61.199812,-149.7572224
MLS Listing,,Condo/Co-op,7997 Normanshire Ct,Anchorage,AK,99504,329900,3,2.0,Anchorage Municipality,1513,,2003,21,218,145,Active,,,https://www.redfin.com/AK/Anchorage/7997-Normanshire-Ct-99504/home/179537217,AKMLS,25-8744,N,Y,61.1995484,-149.7316794
MLS Listing,,Single Family Residential,2541 Lyvona Ln,Anchorage,AK,99502,379900,3,1.0,Anchorage Municipality,1198,8377,1978,21,317,,Active,,,https://www.redfin.com/AK/Anchorage/2541-Lyvona-Ln-99502/home/131509932,AKMLS,25-8736,N,Y,61.1442878,-149.9290071
MLS Listing,,Single Family Residential,9801 Whitefish Cir,Anchorage,AK,99515,375000,4,1.5,Anchorage Municipality,1494,7873,1972,21,251,,Active,,,https://www.redfin.com/AK/Anchorage/9801-Whitefish-Cir-99515/home/131193286,AKMLS,25-8692,N,Y,61.131892,-149.91656
MLS Listing,,Single Family Residential,2641 W 27th Ave,Anchorage,AK,99517,525000,3,2.0,Anchorage Municipality,1868,8100,1950,21,281,,Active,,,https://www.redfin.com/AK/Anchorage/2641-W-27th-Ave-99517/home/131817418,AKMLS,25-8636,N,Y,61.1965705,-149.9351886
MLS Listing,,Single Family Residential,1803 Parkside Dr,Anchorage,AK,99501,360000,3,2.5,Anchorage Municipality,1442,3368,1982,21,250,198,Active,,,https://www.redfin.com/AK/Anchorage/1803-Parkside-Dr-99501/home/131778805,AKMLS,25-8514,N,Y,61.2040938,-149.8450092
MLS Listing,,Single Family Residential,8683 Estates Cir,Anchorage,AK,99507,997000,5,3.0,Anchorage Municipality,3528,20483,2015,21,283,,Active,,,https://www.redfin.com/AK/Anchorage/8683-Estates-Cir-99507/home/132065257,AKMLS,25-8613,N,Y,61.1425673,-149.8142688
MLS Listing,,Single Family Residential,10711 Colville St,Eagle River,AK,99577,435000,4,2.0,Anchorage Municipality,1886,12719,1971,22,231,,Active,,,https://www.redfin.com/AK/Eagle-River/10711-Colville-St-99577/home/131622545,AKMLS,25-8546,N,Y,61.3173035,-149.5422377
MLS Listing,,Condo/Co-op,6314 Whispering Loop Unit 30A,Anchorage,AK,99504,340000,3,2.5,Anchorage Municipality,1545,,2005,22,220,185,Active,,,https://www.redfin.com/AK/Anchorage/6314-Whispering-Loop-99504/unit-30A/home/131283904,AKMLS,25-8689,N,Y,61.2219962,-149.7630486
MLS Listing,,Condo/Co-op,8641 Blackberry St Unit 6B,Anchorage,AK,99502,180000,2,1.0,Anchorage Municipality,880,,1982,22,205,303,Active,,,https://www.redfin.com/AK/Anchorage/8641-Blackberry-St-99502/unit-6B/home/131535200,AKMLS,25-8686,N,Y,61.1421692,-149.9433114
MLS Listing,,Condo/Co-op,7655 Stepping Stone Ln Unit Q2,Anchorage,AK,99504,385000,3,3.0,Anchorage Municipality,1806,,2009,22,213,375,Active,,,https://www.redfin.com/AK/Anchorage/7655-Stepping-Stone-Ln-99504/unit-Q2/home/131725079,AKMLS,25-8683,N,Y,61.2075274,-149.7381503
MLS Listing,,Multi-Family (2-4 Unit),330 N Bliss St,Anchorage,AK,99508,585000,9,4.0,Anchorage Municipality,4164,6250,1984,22,140,,Active,,,https://www.redfin.com/AK/Anchorage/330-N-Bliss-St-99508/home/131786361,AKMLS,25-8679,N,Y,61.2266641,-149.7957982
MLS Listing,,Single Family Residential,12145 Rainbow Ave,Anchorage,AK,99516,497000,4,2.0,Anchorage Municipality,2016,16100,1970,22,247,,Active,,,https://www.redfin.com/AK/Anchorage/12145-Rainbow-Ave-99516/home/131256857,AKMLS,25-8670,N,Y,61.1107129,-149.8411977
MLS Listing,,Single Family Residential,6324 Red Tree Cir,Anchorage,AK,99507,649000,4,3.0,Anchorage Municipality,2364,20469,1990,22,275,58,Active,,,https://www.redfin.com/AK/Anchorage/6324-Red-Tree-Cir-99507/home/131469006,AKMLS,25-8657,N,Y,61.1294369,-149.7639377
MLS Listing,,Single Family Residential,7000 Dickerson Dr,Anchorage,AK,99504,409000,4,2.0,Anchorage Municipality,1826,10922,1974,22,224,,Active,,,https://www.redfin.com/AK/Anchorage/7000-Dickerson-Dr-99504/home/131095299,AKMLS,25-8645,N,Y,61.2203279,-149.7511401
MLS Listing,,Single Family Residential,10300 Ridge Park Dr,Anchorage,AK,99507,464000,4,2.5,Anchorage Municipality,2588,3258,1999,22,179,,Active,,,https://www.redfin.com/AK/Anchorage/10300-Ridge-Park-Dr-99507/home/131264440,AKMLS,25-8643,N,Y,61.1277472,-149.8364654
MLS Listing,,Single Family Residential,22432 Glacier View Dr,Eagle River,AK,99577,579999,5,3.5,Anchorage Municipality,3718,23331,1973,22,156,,Active,,,https://www.redfin.com/AK/Eagle-River/22432-Glacier-View-Dr-99577/home/131509144,AKMLS,25-8642,N,Y,61.3062041,-149.4612804
MLS Listing,,Vacant Land,8650 Sultana Dr,Anchorage,AK,99516,200000,,,Anchorage Municipality,,43560,,22,,,Active,,,https://www.redfin.com/AK/Anchorage/8650-Sultana-Dr-99516/home/172159058,AKMLS,25-8631,N,Y,61.1092581,-149.7209474
MLS Listing,,Single Family Residential,14121 Sunview Dr,Anchorage,AK,99515,679000,3,3.0,Anchorage Municipality,2286,15500,1964,22,297,,Active,August-7-2025 04:00 PM,August-7-2025 07:00 PM,https://www.redfin.com/AK/Anchorage/14121-Sunview-Dr-99515/home/131800642,AKMLS,25-8628,N,Y,61.0926734,-149.8389478
MLS Listing,,Single Family Residential,9166 Eagle River Ln,Eagle River,AK,99577,520000,4,3.5,Anchorage Municipality,2360,4600,2011,22,220,26,Active,,,https://www.redfin.com/AK/Eagle-River/9166-Eagle-River-Ln-99577/home/131283505,AKMLS,25-8202,N,Y,61.3030801,-149.4990888
MLS Listing,,Single Family Residential,935 Timberline Dr,Girdwood,AK,99587,1300000,2,2.0,Anchorage Municipality,1858,15001,2007,22,700,,Active,,,https://www.redfin.com/AK/Girdwood/935-Timberline-Dr-99587/home/131671896,AKMLS,25-8425,N,Y,60.9511371,-149.1285716
MLS Listing,,Single Family Residential,7521 Labrador Cir,Anchorage,AK,99502,685000,3,3.5,Anchorage Municipality,3921,11025,1985,22,175,15,Active,,,https://www.redfin.com/AK/Anchorage/7521-Labrador-Cir-99502/home/131052041,AKMLS,25-8585,N,Y,61.1525586,-149.9729905
MLS Listing,,Single Family Residential,17969 Meadow Creek Dr,Eagle River,AK,99577,565000,4,3.0,Anchorage Municipality,1986,15951,1977,22,284,,Active,,,https://www.redfin.com/AK/Eagle-River/17969-Meadow-Creek-Dr-99577/home/131602276,AKMLS,25-8199,N,Y,61.3176208,-149.5467607
MLS Listing,,Single Family Residential,4733 Becharof St,Anchorage,AK,99507,464900,3,2.0,Anchorage Municipality,1806,7350,1969,22,257,,Active,,,https://www.redfin.com/AK/Anchorage/4733-Becharof-St-99507/home/131652699,AKMLS,25-8605,N,Y,61.1774931,-149.8578888
MLS Listing,,Single Family Residential,27628 Paramount Dr,Eagle River,AK,99577,1200000,4,4.0,Anchorage Municipality,4694,60641,2006,23,256,,Active,,,https://www.redfin.com/AK/Eagle-River/27628-Paramount-Dr-99577/home/131347177,AKMLS,25-8328,N,Y,61.2766061,-149.3666537
MLS Listing,,Single Family Residential,309 Stewart St,Anchorage,AK,99508,425000,5,2.0,Anchorage Municipality,2384,8400,1958,23,178,,Active,,,https://www.redfin.com/AK/Anchorage/309-Stewart-St-99508/home/131008231,AKMLS,25-7466,N,Y,61.2205604,-149.7873898
MLS Listing,,Condo/Co-op,11459 Moonrise Ridge Pl #7,Anchorage,AK,99516,540000,2,2.5,Anchorage Municipality,1640,,2014,23,329,375,Active,,,https://www.redfin.com/AK/Anchorage/11459-Moonrise-Ridge-Pl-99516/unit-7/home/132078042,AKMLS,25-8596,N,Y,61.1170491,-149.8541224
MLS Listing,,Condo/Co-op,114 Rusty Allen Pl #31,Anchorage,AK,99504,259000,3,1.5,Anchorage Municipality,1369,,2005,23,189,280,Active,,,https://www.redfin.com/AK/Anchorage/114-Rusty-Allen-Pl-99504/unit-31/home/131441261,AKMLS,25-8594,N,Y,61.223271,-149.760475
MLS Listing,,Single Family Residential,8821 Chalk Hill Loop,Anchorage,AK,99502,699900,4,2.5,Anchorage Municipality,2089,5162,2025,23,335,35,Active,,,https://www.redfin.com/AK/Anchorage/8821-Chalk-Hill-Loop-99502/home/191714370,AKMLS,25-8583,N,Y,61.14224,-149.983203
MLS Listing,,Mobile/Manufactured Home,7505 Boundary Ave #42,Anchorage,AK,99504,45000,3,2.0,Anchorage Municipality,1200,,1973,23,38,580,Active,,,https://www.redfin.com/AK/Anchorage/7505-Boundary-Ave-99504/unit-42/home/196258120,AKMLS,25-8318,N,Y,61.2256175,-149.7351412
MLS Listing,,Single Family Residential,2350 Ariel Cir,Anchorage,AK,99515,575000,4,2.5,Anchorage Municipality,2120,7047,1987,24,271,28,Active,,,https://www.redfin.com/AK/Anchorage/2350-Ariel-Cir-99515/home/130998804,AKMLS,25-6832,N,Y,61.125733,-149.9235603
MLS Listing,,Single Family Residential,4051 Twilight Ln,Anchorage,AK,99516,979999,3,3.0,Anchorage Municipality,3318,48989,2003,24,295,,Active,,,https://www.redfin.com/AK/Anchorage/4051-Twilight-Ln-99516/home/131636682,AKMLS,25-8530,N,Y,61.0875121,-149.8065054
MLS Listing,,Single Family Residential,12220 Shiloh Rd,Anchorage,AK,99516,589900,4,2.5,Anchorage Municipality,2508,20000,1981,24,235,,Active,,,https://www.redfin.com/AK/Anchorage/12220-Shiloh-Rd-99516/home/131625136,AKMLS,25-8447,N,Y,61.1100102,-149.8005111
MLS Listing,,Single Family Residential,9636 Nulato Cir,Eagle River,AK,99577,540000,4,3.0,Anchorage Municipality,2294,9508,1984,24,235,85,Active,,,https://www.redfin.com/AK/Eagle-River/9636-Nulato-Cir-99577/home/131654398,AKMLS,25-8173,N,Y,61.307466,-149.5249184
MLS Listing,,Single Family Residential,15201 Pollock Dr,Anchorage,AK,99516,524900,3,2.0,Anchorage Municipality,2984,22470,1983,24,176,,Active,,,https://www.redfin.com/AK/Anchorage/15201-Pollock-Dr-99516/home/131339710,AKMLS,25-8517,N,Y,61.0817316,-149.7877514
MLS Listing,,Multi-Family (2-4 Unit),1808 W 47th Ave,Anchorage,AK,99517,499000,4,2.0,Anchorage Municipality,1904,6718,1979,24,262,,Active,,,https://www.redfin.com/AK/Anchorage/1808-W-47th-Ave-99517/home/131151191,AKMLS,25-8516,N,Y,61.1779803,-149.9174338
MLS Listing,,Condo/Co-op,1615 Sitka St #102,Anchorage,AK,99501,184900,2,1.0,Anchorage Municipality,861,,1983,24,215,450,Active,,,https://www.redfin.com/AK/Anchorage/1615-Sitka-St-99501/unit-102/home/177939576,AKMLS,25-7837,N,Y,61.2058408,-149.8449319
MLS Listing,,Single Family Residential,15250 Evergreen Ridge St,Anchorage,AK,99516,1099000,5,3.5,Anchorage Municipality,3184,49833,1993,25,345,,Active,,,https://www.redfin.com/AK/Anchorage/15250-Evergreen-Ridge-St-99516/home/131423610,AKMLS,25-8259,N,Y,61.0821528,-149.7825401
MLS Listing,,Condo/Co-op,302 Sweetgale Ct #302,Anchorage,AK,99518,215000,2,1.5,Anchorage Municipality,1111,,1978,25,194,378,Active,,,https://www.redfin.com/AK/Anchorage/302-Sweetgale-Ct-99518/unit-302/home/131061644,AKMLS,25-8494,N,Y,61.159329,-149.8671623
MLS Listing,,Single Family Residential,1521 Cache Dr,Anchorage,AK,99507,475000,4,2.0,Anchorage Municipality,2308,7350,1970,25,206,,Active,,,https://www.redfin.com/AK/Anchorage/1521-Cache-Dr-99507/home/131395921,AKMLS,25-8463,N,Y,61.1760179,-149.8518176
MLS Listing,,Single Family Residential,6010 Staedem Dr,Anchorage,AK,99504,619900,4,3.5,Anchorage Municipality,3230,8580,1978,25,192,,Active,,,https://www.redfin.com/AK/Anchorage/6010-Staedem-Dr-99504/home/131369070,AKMLS,25-8460,N,Y,61.214668,-149.7674626
MLS Listing,,Single Family Residential,1340 Gram Cir,Anchorage,AK,99518,449000,4,3.0,Anchorage Municipality,1816,6075,1992,25,247,,Active,,,https://www.redfin.com/AK/Anchorage/1340-Gram-Cir-99518/home/131575724,AKMLS,25-7689,N,Y,61.1585305,-149.9051926
MLS Listing,,Single Family Residential,13600 Vasili Dr,Eagle River,AK,99577,765000,4,3.5,Anchorage Municipality,4114,10018,2003,25,186,13,Active,,,https://www.redfin.com/AK/Eagle-River/13600-Vasili-Dr-99577/home/131730642,AKMLS,25-8150,N,Y,61.3432245,-149.5770725
MLS Listing,,Single Family Residential,11524 Lower Sunny Cir,Eagle River,AK,99577,450000,4,2.0,Anchorage Municipality,1976,14600,1971,25,228,,Active,,,https://www.redfin.com/AK/Eagle-River/11524-Lower-Sunny-Cir-99577/home/131011766,AKMLS,25-7772,N,Y,61.3246802,-149.5661242
MLS Listing,,Single Family Residential,1801 Rebel Ridge Dr,Anchorage,AK,99504,469000,3,2.0,Anchorage Municipality,1902,8268,1982,25,247,,Active,,,https://www.redfin.com/AK/Anchorage/1801-Rebel-Ridge-Dr-99504/home/131637114,AKMLS,25-7925,N,Y,61.2046293,-149.7228899
MLS Listing,,Single Family Residential,19180 Beverly Ave,Chugiak,AK,99567,475000,4,3.0,Anchorage Municipality,1728,43303,2016,26,275,,Active,,,https://www.redfin.com/AK/Chugiak/19180-Beverly-Ave-99567/home/132792111,AKMLS,25-8176,N,Y,61.3880095,-149.5261426
MLS Listing,,Condo/Co-op,12297 Vista Ridge Loop #55,Eagle River,AK,99577,367000,3,2.5,Anchorage Municipality,1694,,2012,26,217,260,Active,,,https://www.redfin.com/AK/Eagle-River/12297-Vista-Ridge-Loop-99577/unit-55/home/131714828,AKMLS,25-8297,N,Y,61.3317018,-149.5617513
MLS Listing,,Single Family Residential,18699 Stonehill Dr,Eagle River,AK,99577,649000,3,3.0,Anchorage Municipality,3471,48372,2008,27,187,,Active,,,https://www.redfin.com/AK/Eagle-River/18699-Stonehill-Dr-99577/home/131258067,AKMLS,25-5246,N,Y,61.2894896,-149.5347401
MLS Listing,,Condo/Co-op,4502 Campbell Park Loop,Anchorage,AK,99507,265000,2,2.0,Anchorage Municipality,1300,,2013,27,204,325,Active,,,https://www.redfin.com/AK/Anchorage/4502-Campbell-Park-Loop-99507/home/196095921,AKMLS,25-7355,N,Y,61.1796549,-149.8348609
MLS Listing,,Vacant Land,L6 B2 Southpointe Ridge Drive Dr,Anchorage,AK,99516,270000,,,Anchorage Municipality,,43560,,27,,,Active,,,https://www.redfin.com/AK/Anchorage/L6-B2-Southpointe-Ridge-Dr-99516/home/172168223,AKMLS,25-8345,N,Y,61.042447,-149.764394
MLS Listing,,Single Family Residential,7821 Charlotte Cir,Anchorage,AK,99502,534900,4,2.5,Anchorage Municipality,1826,8276,1993,28,293,12,Active,,,https://www.redfin.com/AK/Anchorage/7821-Charlotte-Cir-99502/home/131880769,AKMLS,25-7792,N,Y,61.1494215,-149.9577544
MLS Listing,,Single Family Residential,3223 Madison Way,Anchorage,AK,99508,479000,5,2.5,Anchorage Municipality,1924,9208,1968,28,249,,Active,,,https://www.redfin.com/AK/Anchorage/3223-Madison-Way-99508/home/131568409,AKMLS,25-8415,N,Y,61.1904887,-149.8485789
MLS Listing,,Single Family Residential,1677 Circlewood Dr,Anchorage,AK,99516,765000,3,3.0,Anchorage Municipality,2571,8040,2010,28,298,,Active,,,https://www.redfin.com/AK/Anchorage/1677-Circlewood-Dr-99516/home/131312193,AKMLS,25-8404,N,Y,61.1110754,-149.8478715
MLS Listing,,Single Family Residential,311 Alpine Meadows Ave,Girdwood,AK,99587,1300000,6,4.0,Anchorage Municipality,2996,13887,1985,28,434,,Active,,,https://www.redfin.com/AK/Girdwood/311-Alpine-Mdws-Ave-99587/home/131724357,AKMLS,25-8218,N,Y,60.9535617,-149.1222029
MLS Listing,,Single Family Residential,2441 Scarborough Dr,Anchorage,AK,99504,699000,4,3.5,Anchorage Municipality,3563,8321,2001,28,196,,Active,August-3-2025 03:00 PM,August-3-2025 05:00 PM,https://www.redfin.com/AK/Anchorage/2441-Scarborough-Dr-99504/home/131111106,AKMLS,25-7748,N,Y,61.1980853,-149.7517569
MLS Listing,,Condo/Co-op,141 Matthew Paul Way #50,Anchorage,AK,99504,272500,3,1.5,Anchorage Municipality,1282,,2010,28,213,401,Active,,,https://www.redfin.com/AK/Anchorage/141-Matthew-Paul-Way-99504/unit-50/home/131351745,AKMLS,25-8383,N,Y,61.223263,-149.762549
MLS Listing,,Single Family Residential,16528 Kings Way Dr,Anchorage,AK,99516,1175000,6,6.5,Anchorage Municipality,7553,591109,2002,28,156,,Active,,,https://www.redfin.com/AK/Anchorage/16528-Kings-Way-Dr-99516/home/131842503,AKMLS,25-8141,N,Y,61.0705592,-149.7187056
MLS Listing,,Single Family Residential,17345 Meadow Creek Dr,Eagle River,AK,99577,445000,4,2.0,Anchorage Municipality,2036,7405,1976,28,219,,Active,,,https://www.redfin.com/AK/Eagle-River/17345-Meadow-Creek-Dr-99577/home/131588360,AKMLS,25-8157,N,Y,61.3161655,-149.5586701
MLS Listing,,Vacant Land,6405 Old Seward Hwy,Anchorage,AK,99518,3200000,,,Anchorage Municipality,,130680,,29,,,Active,,,https://www.redfin.com/AK/Anchorage/6405-Old-Seward-Hwy-99518/home/172132486,AKMLS,25-8397,N,Y,61.1622147,-149.8621773
MLS Listing,,Single Family Residential,250 Botanical Cir,Anchorage,AK,99515,775000,4,2.5,Anchorage Municipality,2727,14543,1993,29,284,46,Active,,,https://www.redfin.com/AK/Anchorage/250-Botanical-Cir-99515/home/131187714,AKMLS,25-8359,N,Y,61.1084061,-149.8831742
MLS Listing,,Condo/Co-op,221 McCarrey St #6,Anchorage,AK,99508,143000,2,1.0,Anchorage Municipality,806,,1981,29,177,336,Active,,,https://www.redfin.com/AK/Anchorage/221-McCarrey-St-99508/unit-6/home/177703682,AKMLS,25-8355,N,Y,61.2218449,-149.7909
MLS Listing,,Single Family Residential,7921 Viola Cir,Anchorage,AK,99516,825000,4,2.5,Anchorage Municipality,2268,27406,2025,29,364,,Active,,,https://www.redfin.com/AK/Anchorage/7921-Viola-Cir-99516/home/172146301,AKMLS,25-8354,N,Y,61.0703817,-149.733913
MLS Listing,,Single Family Residential,7811 Kiana Cir,Anchorage,AK,99507,278250,3,2.0,Anchorage Municipality,960,7405,1982,29,290,,Active,,,https://www.redfin.com/AK/Anchorage/7811-Kiana-Cir-99507/home/131193010,AKMLS,25-8344,N,Y,61.1500277,-149.8105602
MLS Listing,,Single Family Residential,9191 Chapelle Cir,Anchorage,AK,99518,760000,3,2.5,Anchorage Municipality,1576,6591,2025,29,482,,Active,,,https://www.redfin.com/AK/Anchorage/9191-Chapelle-Cir-99507/home/172263734,AKMLS,25-8337,N,Y,61.137852,-149.812549
MLS Listing,,Single Family Residential,3840 Delwood Pl,Anchorage,AK,99504,845000,4,3.5,Anchorage Municipality,4556,7200,1975,30,185,,Active,,,https://www.redfin.com/AK/Anchorage/3840-Delwood-Pl-99504/home/131096211,AKMLS,25-8325,N,Y,61.1854123,-149.7686405
MLS Listing,,Condo/Co-op,3265 Montclaire Ct Unit 17E,Anchorage,AK,99503,310000,3,2.5,Anchorage Municipality,1421,,1976,30,218,515,Active,,,https://www.redfin.com/AK/Anchorage/3265-Montclaire-Ct-99503/unit-17E/home/131149376,AKMLS,25-8321,N,Y,61.1906866,-149.8944489
MLS Listing,,Single Family Residential,3607 Oregon Dr,Anchorage,AK,99517,520000,3,2.5,Anchorage Municipality,2260,8400,2008,30,230,,Active,August-2-2025 01:00 PM,August-2-2025 04:00 PM,https://www.redfin.com/AK/Anchorage/3607-Oregon-Dr-99517/home/131504721,AKMLS,25-8145,N,Y,61.1871475,-149.9176248
MLS Listing,,Single Family Residential,18041 Spain Dr,Anchorage,AK,99516,885000,3,3.5,Anchorage Municipality,2431,19055,1986,30,364,,Active,,,https://www.redfin.com/AK/Anchorage/18041-Spain-Dr-99516/home/131454738,AKMLS,25-8274,N,Y,61.0572081,-149.765081
MLS Listing,,Single Family Residential,618 I St,Anchorage,AK,99501,699000,3,1.5,Anchorage Municipality,2166,7000,1942,30,323,,Active,,,https://www.redfin.com/AK/Anchorage/618-I-St-99501/home/131480565,AKMLS,25-8271,N,Y,61.2162158,-149.8999226
MLS Listing,,Vacant Land,0000 Wesleyan Dr,Anchorage,AK,99503,419000,,,Anchorage Municipality,,43560,,30,,,Active,,,https://www.redfin.com/AK/Anchorage/Wesleyan-Dr-99508/home/172173135,AKMLS,25-8266,N,Y,61.197683,-149.790517
MLS Listing,,Condo/Co-op,4430 View Cir #1,Anchorage,AK,99507,205000,2,1.0,Anchorage Municipality,749,,1975,30,274,250,Active,,,https://www.redfin.com/AK/Anchorage/4430-View-Cir-99507/unit-1/home/131485698,AKMLS,25-8262,N,Y,61.1800838,-149.8184954
MLS Listing,,Single Family Residential,1251 Elegante Ln,Anchorage,AK,99501,241000,3,1.5,Anchorage Municipality,1320,2178,1977,31,183,,Active,,,https://www.redfin.com/AK/Anchorage/1251-Elegante-Ln-99501/home/131030322,AKMLS,25-8258,N,Y,61.2056222,-149.8597223
MLS Listing,,Condo/Co-op,305 Donna Dr #31,Anchorage,AK,99504,155000,2,1.0,Anchorage Municipality,796,,1983,31,195,436,Active,,,https://www.redfin.com/AK/Anchorage/305-Donna-Dr-99504/unit-31/home/131368219,AKMLS,25-8255,N,Y,61.2202415,-149.75795
MLS Listing,,Single Family Residential,24444 Reese Rd,Chugiak,AK,99567,570000,3,3.0,Anchorage Municipality,2704,15000,1982,31,211,,Active,,,https://www.redfin.com/AK/Chugiak/24444-Reese-Rd-99567/home/131422870,AKMLS,25-8224,N,Y,61.4259419,-149.4259781
MLS Listing,,Single Family Residential,10213 Preuss Ln,Eagle River,AK,99577,610000,4,3.0,Anchorage Municipality,3033,19711,1976,31,201,,Active,,,https://www.redfin.com/AK/Eagle-River/10213-Preuss-Ln-99577/home/131211014,AKMLS,25-7806,N,Y,61.3128931,-149.4951639
MLS Listing,,Multi-Family (2-4 Unit),4450 Trapline Dr,Anchorage,AK,99516,1100000,7,5.0,Anchorage Municipality,5810,23449,1972,31,189,,Active,,,https://www.redfin.com/AK/Anchorage/4450-Trapline-Dr-99516/home/131926910,AKMLS,25-8080,N,Y,61.117951,-149.8005261
MLS Listing,,Condo/Co-op,6712 Lunar Dr Unit K2,Anchorage,AK,99504,379900,4,2.5,Anchorage Municipality,1887,,1982,31,201,471,Active,,,https://www.redfin.com/AK/Anchorage/6712-Lunar-Dr-99504/unit-K2/home/131386203,AKMLS,25-8060,N,Y,61.182795,-149.754914
MLS Listing,,Single Family Residential,1710 Rierie Dr,Anchorage,AK,99507,440000,3,2.0,Anchorage Municipality,1840,6008,1996,31,239,,Active,,,https://www.redfin.com/AK/Anchorage/1710-Rierie-Dr-99507/home/131606465,AKMLS,25-8071,N,Y,61.1688796,-149.8501124
MLS Listing,,Condo/Co-op,2100 Minverva Way Unit A21,Anchorage,AK,99515,133000,1,1.0,Anchorage Municipality,605,,1981,32,220,424,Active,,,https://www.redfin.com/AK/Anchorage/2100-Minerva-Way-99515/unit-21A/home/172174520,AKMLS,25-6029,N,Y,61.1344266,-149.9197379
MLS Listing,,Vacant Land,16345 Snow Bear Dr,Anchorage,AK,99516,149000,,,Anchorage Municipality,,43560,,32,,25,Active,,,https://www.redfin.com/AK/Anchorage/16345-Snow-Bear-Dr-99516/home/196240546,AKMLS,25-8189,N,Y,61.07282,-149.690721
MLS Listing,,Single Family Residential,8260 Pokey Cir,Anchorage,AK,99507,319000,2,2.0,Anchorage Municipality,1295,9619,1975,32,246,,Active,,,https://www.redfin.com/AK/Anchorage/8260-Pokey-Cir-99507/home/131835861,AKMLS,25-8148,N,Y,61.1460745,-149.8317648
MLS Listing,,Vacant Land,168 Meskenik Way,Girdwood,AK,99587,815000,,,Anchorage Municipality,,21707,,32,,,Active,,,https://www.redfin.com/AK/Girdwood/168-Meskenik-Way-99587/home/186011655,AKMLS,25-8185,N,Y,60.9533303,-149.1633715
MLS Listing,,Vacant Land,4835 Arctic Blvd,Anchorage,AK,99503,3348000,,,Anchorage Municipality,,348480,,32,,,Active,,,https://www.redfin.com/AK/Anchorage/4835-Arctic-Blvd-99503/home/196238299,AKMLS,25-8168,N,Y,61.1769117,-149.8960869
MLS Listing,,Single Family Residential,15051 Echo Canyon Rd,Anchorage,AK,99516,2125000,5,4.0,Anchorage Municipality,3603,388104,1998,32,590,,Active,,,https://www.redfin.com/AK/Anchorage/15051-Echo-Canyon-Rd-99516/home/131520711,AKMLS,25-8167,N,Y,61.0854365,-149.6923168
MLS Listing,,Multi-Family (2-4 Unit),1507 W 47th Ave,Anchorage,AK,99503,800000,8,4.0,Anchorage Municipality,3156,15000,1978,32,253,,Active,,,https://www.redfin.com/AK/Anchorage/1507-W-47th-Ave-99503/home/179682059,AKMLS,25-7709,N,Y,61.1780624,-149.9119562
MLS Listing,,Single Family Residential,17311 Bonasila Cir,Eagle River,AK,99577,525000,3,3.0,Anchorage Municipality,2046,10731,1981,32,257,,Active,,,https://www.redfin.com/AK/Eagle-River/17311-Bonasila-Cir-99577/home/131426442,AKMLS,25-7751,N,Y,61.3200894,-149.559059
MLS Listing,,Single Family Residential,22135 Aurora Borealis Rd,Chugiak,AK,99567,885000,5,5.5,Anchorage Municipality,5327,108900,1976,32,166,,Active,,,https://www.redfin.com/AK/Chugiak/22135-Aurora-Borealis-Rd-99567/home/166653044,AKMLS,25-7523,N,Y,61.4072952,-149.4679428
MLS Listing,,Single Family Residential,15100 Old Seward Hwy,Anchorage,AK,99516,795000,3,2.0,Anchorage Municipality,3932,35784,1974,33,202,,Active,,,https://www.redfin.com/AK/Anchorage/15100-Old-Seward-Hwy-99516/home/131061367,AKMLS,25-8132,N,Y,61.0840362,-149.8296983
MLS Listing,,Condo/Co-op,7766 Boundary Ave Unit G3,Anchorage,AK,99504,176900,2,1.5,Anchorage Municipality,936,,1978,33,189,312,Active,,,https://www.redfin.com/AK/Anchorage/7766-Boundary-Ave-99504/unit-G3/home/131768515,AKMLS,25-7127,N,Y,61.22286,-149.735889
MLS Listing,,Single Family Residential,19235 Second St,Eagle River,AK,99577,265000,2,1.0,Anchorage Municipality,828,17820,1976,34,320,,Active,,,https://www.redfin.com/AK/Eagle-River/19235-Second-St-99577/home/131709507,AKMLS,25-8120,N,Y,61.3126929,-149.5235699
MLS Listing,,Condo/Co-op,7068 Weimer Rd #3,Anchorage,AK,99502,184500,2,1.0,Anchorage Municipality,750,,1982,34,246,275,Active,,,https://www.redfin.com/AK/Anchorage/7068-Weimer-Rd-99502/unit-3/home/177941072,AKMLS,25-8105,N,Y,61.1565652,-149.9498746
MLS Listing,,Single Family Residential,2107 Sorbus Way,Anchorage,AK,99508,710000,4,4.5,Anchorage Municipality,4404,2337,1980,35,161,121,Active,,,https://www.redfin.com/AK/Anchorage/2107-Sorbus-Way-99508/home/131117222,AKMLS,25-8073,N,Y,61.1987624,-149.8433197
MLS Listing,,Condo/Co-op,2210 Sentry Dr Unit B-18,Anchorage,AK,99507,160000,1,1.0,Anchorage Municipality,600,,1982,35,267,257,Active,,,https://www.redfin.com/AK/Anchorage/2210-Sentry-Dr-99507/unit-B18/home/131507605,AKMLS,25-7577,N,Y,61.1348574,-149.8405982
MLS Listing,,Single Family Residential,17718 Shasta Cir,Eagle River,AK,99577,699000,4,2.5,Anchorage Municipality,2678,10016,2012,35,261,21,Active,,,https://www.redfin.com/AK/Eagle-River/17718-Shasta-Cir-99577/home/131644066,AKMLS,25-8050,N,Y,61.2988664,-149.551518
MLS Listing,,Condo/Co-op,1612 Woodcutter Ct #57,Anchorage,AK,99507,360000,3,2.0,Anchorage Municipality,1365,2015,2004,35,264,126,Active,,,https://www.redfin.com/AK/Anchorage/1612-Woodcutter-Ct-99507/unit-57/home/131439770,AKMLS,25-8048,N,Y,61.168569,-149.852349
MLS Listing,,Vacant Land,513 E 4th Ave,Anchorage,AK,99501,399000,,,Anchorage Municipality,,17550,,35,,,Active,,,https://www.redfin.com/AK/Anchorage/513-E-4th-Ave-99501/home/172166548,AKMLS,25-8047,N,Y,61.2187976,-149.8748523
MLS Listing,,Single Family Residential,13331 Brant Way,Anchorage,AK,99515,450000,4,2.0,Anchorage Municipality,2080,8000,1967,35,216,,Active,,,https://www.redfin.com/AK/Anchorage/13331-Brant-Way-99515/home/131841899,AKMLS,25-8026,N,Y,61.1000284,-149.8496976
MLS Listing,,Single Family Residential,19237 Beverly Ave,Chugiak,AK,99567,350000,3,1.0,Anchorage Municipality,1229,23088,1968,35,285,,Active,,,https://www.redfin.com/AK/Chugiak/19237-Beverly-Ave-99567/home/131652288,AKMLS,25-7784,N,Y,61.3885329,-149.5239175
MLS Listing,,Condo/Co-op,2598 Brookshire Loop #27,Anchorage,AK,99504,319900,3,2.0,Anchorage Municipality,1369,,2003,35,234,145,Active,,,https://www.redfin.com/AK/Anchorage/2598-Brookshire-Loop-99504/unit-27/home/131946663,AKMLS,25-7843,N,Y,61.199002,-149.731623
MLS Listing,,Single Family Residential,2831 Bennett Ave,Anchorage,AK,99517,685000,4,4.0,Anchorage Municipality,2862,8855,1975,35,239,,Active,,,https://www.redfin.com/AK/Anchorage/2831-Bennett-Ave-99517/home/131156951,AKMLS,25-8020,N,Y,61.1859742,-149.9370993
MLS Listing,,Vacant Land,9130 Golovin St,Anchorage,AK,99507,660000,,,Anchorage Municipality,,19651,,36,,,Active,,,https://www.redfin.com/AK/Anchorage/9130-Golovin-St-99507/home/166648835,AKMLS,25-7996,N,Y,61.1377906,-149.838033
MLS Listing,,Single Family Residential,2701 Kempton Hills Dr,Anchorage,AK,99516,684000,4,2.5,Anchorage Municipality,2708,10897,1983,36,253,25,Active,,,https://www.redfin.com/AK/Anchorage/2701-Kempton-Hills-Dr-99516/home/131640968,AKMLS,25-7993,N,Y,61.103405,-149.8315947
MLS Listing,,Multi-Family (2-4 Unit),1918 Juneau Dr,Anchorage,AK,99501,479900,4,2.0,Anchorage Municipality,1520,14800,1974,36,316,,Active,,,https://www.redfin.com/AK/Anchorage/1918-Juneau-Dr-99501/home/131354386,AKMLS,25-7884,N,Y,61.2029881,-149.8668313
MLS Listing,,Single Family Residential,3211 Shamrock St,Anchorage,AK,99504,499900,3,2.0,Anchorage Municipality,1950,9100,1981,37,256,,Active,,,https://www.redfin.com/AK/Anchorage/3211-Shamrock-St-99504/home/131105777,AKMLS,25-7128,N,Y,61.1910311,-149.718969
MLS Listing,,Single Family Residential,10845 Anvik Cir,Eagle River,AK,99577,473000,4,2.0,Anchorage Municipality,1748,22224,1980,37,271,,Active,,,https://www.redfin.com/AK/Eagle-River/10845-Anvik-Cir-99577/home/131665988,AKMLS,25-7913,N,Y,61.3189258,-149.5400645
MLS Listing,,Vacant Land,L6 B8 Spartan Dr,Anchorage,AK,99515,20000,,,Anchorage Municipality,,10313,,37,,,Active,,,https://www.redfin.com/AK/Anchorage/L6-B8-Zamarello-AVE-99515/home/196187237,AKMLS,25-7905,N,Y,61.127711,-149.92006
MLS Listing,,Vacant Land,L5 B8 Spartan Dr,Anchorage,AK,99515,20000,,,Anchorage Municipality,,10313,,37,,,Active,,,https://www.redfin.com/AK/Anchorage/L5-B8-99515/home/172194541,AKMLS,25-7904,N,Y,61.127816,-149.919006
MLS Listing,,Single Family Residential,1120 Turpin St,Anchorage,AK,99504,160000,3,2.0,Anchorage Municipality,1865,8712,1954,37,86,,Active,,,https://www.redfin.com/AK/Anchorage/1120-Turpin-St-99504/home/131374655,AKMLS,24-9923,N,Y,61.2110037,-149.7563096
MLS Listing,,Single Family Residential,19343 Alma Ave,Chugiak,AK,99567,497500,3,2.0,Anchorage Municipality,1630,17039,2010,37,305,,Active,,,https://www.redfin.com/AK/Chugiak/19343-Alma-Ave-99567/home/131652334,AKMLS,25-7890,N,Y,61.3839563,-149.5227161
MLS Listing,,Condo/Co-op,11351 Discovery View Dr #106,Anchorage,AK,99515,405000,2,2.0,Anchorage Municipality,1125,,2006,37,360,512,Active,,,https://www.redfin.com/AK/Anchorage/11351-Discovery-View-Dr-99515/unit-106/home/172163573,AKMLS,25-7883,N,Y,61.1190382,-149.9296627
MLS Listing,,Single Family Residential,5410 Trena St,Anchorage,AK,99507,429000,4,2.0,Anchorage Municipality,1976,7040,1972,38,217,,Active,,,https://www.redfin.com/AK/Anchorage/5410-Trena-St-99507/home/131665660,AKMLS,25-7829,N,Y,61.1716993,-149.8498131
MLS Listing,,Condo/Co-op,3141 W 35th Ave Unit 6A3A,Anchorage,AK,99517,259000,2,1.5,Anchorage Municipality,1228,,1975,38,211,437,Active,,,https://www.redfin.com/AK/Anchorage/3141-W-35th-Ave-99517/unit-6A3A/home/131149833,AKMLS,25-7827,N,Y,61.1892772,-149.9419722
MLS Listing,,Single Family Residential,23324 Greatland Dr,Chugiak,AK,99577,775000,2,2.5,Anchorage Municipality,3398,90169,1973,38,228,,Active,,,https://www.redfin.com/AK/Chugiak/23324-Greatland-Dr-99567/home/131433097,AKMLS,25-7821,N,Y,61.4033778,-149.4478674
MLS Listing,,Single Family Residential,811 K St,Anchorage,AK,99501,1750000,4,4.0,Anchorage Municipality,3520,14000,1943,39,497,,Active,,,https://www.redfin.com/AK/Anchorage/811-K-St-99501/home/131028500,AKMLS,25-7795,N,Y,61.2143727,-149.9013311
MLS Listing,,Single Family Residential,11411 Snowline Dr,Anchorage,AK,99507,990000,3,2.5,Anchorage Municipality,3042,53758,1983,39,325,,Active,,,https://www.redfin.com/AK/Anchorage/11411-Snowline-Dr-99507/home/130999930,AKMLS,25-7778,N,Y,61.1170032,-149.7320534
MLS Listing,,Single Family Residential,3890 Janet Lee Cir,Anchorage,AK,99516,779000,4,3.5,Anchorage Municipality,3800,71722,1962,39,205,,Active,August-2-2025 02:00 PM,August-2-2025 04:00 PM,https://www.redfin.com/AK/Anchorage/3890-Janet-Lee-Cir-99516/home/131239158,AKMLS,25-7775,N,Y,61.1224536,-149.8082511
