SALE TYPE,SOLD DATE,PROPERTY TYPE,ADDRESS,CITY,STATE OR PROVINCE,ZIP OR POSTAL CODE,PRICE,BEDS,BATHS,LOCATION,SQUARE FEET,LOT SIZE,YEAR BUILT,DAYS ON MARKET,$/SQUARE FEET,HOA/MONTH,STATUS,NEXT OPEN HOUSE START TIME,NEXT OPEN HOUSE END TIME,URL (SEE https://www.redfin.com/buy-a-home/comparative-market-analysis FOR INFO ON PRICING),SOURCE,MLS#,FAVORITE,INTERESTED,LATITUDE,LONGITUDE
"In accordance with local MLS rules, some MLS listings are not included in the download"
MLS Listing,,Condo/Co-op,56 Park Vale Ave #4,Boston,MA,02134,385000,1,1.0,Allston,470,470,1920,8,819,389,Active,,,https://www.redfin.com/MA/Allston/56-Park-Vale-Ave-02134/unit-4/home/8984812,MLS PIN,73408236,N,Y,42.3528712,-71.1334375
MLS Listing,,Multi-Family (2-4 Unit),61 Neponset Ave,Boston,MA,02136,999900,7,3.5,Hyde Park's Fairmount,2605,6588,2013,9,384,,Active,,,https://www.redfin.com/MA/Hyde-Park/61-Neponset-Ave-02136/home/11835601,MLS PIN,73407954,N,Y,42.2480126,-71.1186595
MLS Listing,,Multi-Family (2-4 Unit),27 Brinsley St,Boston,MA,02121,1199900,8,3.0,Boston,3368,4050,1905,14,356,,Active,,,https://www.redfin.com/MA/Dorchester/27-Brinsley-St-02121/home/9074327,MLS PIN,73406338,N,Y,42.3056082,-71.0784037
MLS Listing,,Condo/Co-op,464 Hanover St #7,Boston,MA,02113,729000,2,1.0,North End,808,808,1920,21,902,911,Active,,,https://www.redfin.com/MA/Boston/464-Hanover-St-02113/unit-7/home/9304822,MLS PIN,73402474,N,Y,42.3670912,-71.0527946
MLS Listing,,Condo/Co-op,8-10 Howell St #4,Boston,MA,02125,645000,2,1.5,Boston,1032,1032,2001,22,625,224,Active,August-2-2025 11:00 AM,August-2-2025 12:30 PM,https://www.redfin.com/MA/Dorchester/8-10-Howell-St-02125/unit-4/home/9311755,MLS PIN,73401496,N,Y,42.324746,-71.0570712
MLS Listing,,Condo/Co-op,6 Hayes Rd #16,Boston,MA,02131,385000,2,1.0,Boston,795,795,1964,31,484,478,Active,,,https://www.redfin.com/MA/Roslindale/6-Hayes-Rd-02131/unit-16/home/9173063,MLS PIN,73398332,N,Y,42.2827778,-71.1325541
MLS Listing,,Condo/Co-op,31 Division St #3,Chelsea,MA,02150,424700,2,1.0,Chelsea,600,,1900,36,708,144,Active,August-1-2025 05:00 PM,August-1-2025 06:30 PM,https://www.redfin.com/MA/Chelsea/31-Division-St-02150/unit-3/home/191980766,MLS PIN,73396668,N,Y,42.3883219,-71.0389798
MLS Listing,,Condo/Co-op,1313 Washington St #309,Boston,MA,02118,725000,1,1.0,Boston,788,788,2002,41,920,830,Active,August-2-2025 10:00 AM,August-2-2025 11:30 AM,https://www.redfin.com/MA/Roxbury/1313-Washington-St-02118/unit-309/home/9316558,MLS PIN,73394397,N,Y,42.3419606,-71.0684083
MLS Listing,,Single Family Residential,29 Paine St,Boston,MA,02131,1199000,4,2.5,Boston,4022,11635,2021,71,298,,Active,,,https://www.redfin.com/MA/Boston/29-Paine-St-02131/home/171472147,MLS PIN,73378180,N,Y,42.2860498,-71.1066712
MLS Listing,,Condo/Co-op,120 Mountfort St #302,Boston,MA,02215,1219000,3,2.0,The Fenway,1200,1200,1960,76,1016,898,Active,,,https://www.redfin.com/MA/Boston/120-Mountfort-St-02215/unit-302/home/11838527,MLS PIN,73376341,N,Y,42.3483069,-71.1067406
MLS Listing,,Condo/Co-op,120 Fulton St Unit DE,Boston,MA,02109,849999,2,1.0,Boston,1035,,1978,77,821,417,Active,,,https://www.redfin.com/MA/Boston/120-Fulton-St-02109/unit-DE/home/145082118,MLS PIN,73376046,N,Y,42.3631416,-71.0527018
MLS Listing,,Multi-Family (2-4 Unit),47 Torrey St,Boston,MA,02124,720000,5,2.0,Dorchester,1565,1565,1920,80,460,,Active,,,https://www.redfin.com/MA/Dorchester/47-Torrey-St-02124/home/194067651,MLS PIN,73371711,N,Y,42.2873485,-71.0735393
MLS Listing,,Condo/Co-op,492 Massachusetts Ave #63,Boston,MA,02118,829000,3,1.0,Boston,1086,1086,1910,87,763,723,Active,,,https://www.redfin.com/MA/Roxbury/492-Massachusetts-Ave-02118/unit-63/home/11837765,MLS PIN,73366100,N,Y,42.3395801,-71.0803721
MLS Listing,,Condo/Co-op,186 Havre St #1,Boston,MA,02128,645000,2,2.0,East Boston,1036,,2017,93,623,297,Active,,,https://www.redfin.com/MA/East-Boston/186-Havre-St-02128/unit-1/home/113380253,MLS PIN,73365967,N,Y,42.3743882,-71.0367137
MLS Listing,,Condo/Co-op,121-123 Beach St #801,Boston,MA,02111,1400000,2,2.0,Boston,1536,1536,1899,94,911,752,Active,,,https://www.redfin.com/MA/Boston/121-Beach-St-02111/unit-801/home/187182386,MLS PIN,73365481,N,Y,42.3505039,-71.0578089
MLS Listing,,Multi-Family (2-4 Unit),88 Trenton St,Boston,MA,02128,1150000,8,2.0,Boston,3624,2500,1880,98,317,,Active,August-2-2025 02:00 PM,August-2-2025 03:30 PM,https://www.redfin.com/MA/East-Boston/88-Trenton-St-02128/home/11506118,MLS PIN,73364180,N,Y,42.3791129,-71.0361962
MLS Listing,,Condo/Co-op,268 Dudley St #4,Boston,MA,02119,399000,2,1.0,Boston,1071,1054,1988,133,373,365,Active,,,https://www.redfin.com/MA/Roxbury/268-Dudley-St-02119/unit-4/home/9285984,MLS PIN,73347944,N,Y,42.3285449,-71.0787328
MLS Listing,,Condo/Co-op,8 Garrison St #104,Boston,MA,02116,1580000,2,2.0,Back Bay,1250,1250,1910,289,1264,819,Active,August-2-2025 11:00 AM,August-2-2025 12:30 PM,https://www.redfin.com/MA/Boston/8-Garrison-St-02116/unit-104/home/9272796,MLS PIN,73302183,N,Y,42.3461367,-71.0796293
MLS Listing,,Condo/Co-op,39 A St #16,Boston,MA,02127,949000,2,2.0,South Boston,1109,,2018,1,856,449,Active,,,https://www.redfin.com/MA/South-Boston/39-A-St-02127/unit-16/home/145078993,MLS PIN,73412140,N,Y,42.3412699,-71.0558468
MLS Listing,,Multi-Family (2-4 Unit),22 Ronan St,Boston,MA,02125,1600000,11,3.0,Boston,3924,5000,1906,1,408,,Active,,,https://www.redfin.com/MA/Dorchester/22-Ronan-St-02125/home/9072870,MLS PIN,73412124,N,Y,42.3110326,-71.0664211
MLS Listing,,Condo/Co-op,328 Commercial St #52,Boston,MA,02109,649000,1,1.0,North End,633,,1900,1,1025,304,Active,,,https://www.redfin.com/MA/Boston/328-Commercial-St-02109/unit-52/home/187140408,MLS PIN,73412121,N,Y,42.3654186,-71.0513872
MLS Listing,,Condo/Co-op,14 Heron St #108,Boston,MA,02132,399900,2,1.0,West Roxbury,883,,1925,1,453,625,Active,August-2-2025 10:30 AM,August-2-2025 12:00 PM,https://www.redfin.com/MA/West-Roxbury/14-Heron-St-02132/unit-108/home/9200482,MLS PIN,73411992,N,Y,42.269322,-71.1496377
MLS Listing,,Vacant Land,163 Howard Ave,Boston,MA,02125,120000,,,Dorchester,,3517,,1,,,Active,,,https://www.redfin.com/MA/Boston/163-Howard-Ave-02125/home/196753283,MLS PIN,73411985,N,Y,42.314637,-71.075523
MLS Listing,,Single Family Residential,9 Carroll St,Boston,MA,02132,579900,3,2.0,West Roxbury,1464,5000,1928,1,396,,Active,August-3-2025 01:00 PM,August-3-2025 03:00 PM,https://www.redfin.com/MA/West-Roxbury/9-Carroll-St-02132/home/9212677,MLS PIN,73411944,N,Y,42.2867044,-71.167266
MLS Listing,,Condo/Co-op,31 Division Unit 1st Floor,Chelsea,MA,02150,399000,2,1.0,Chelsea,691,,1900,1,577,250,Active,August-3-2025 12:30 PM,August-3-2025 01:30 PM,https://www.redfin.com/MA/Chelsea/31-Division-St-02150/home/9004767,MLS PIN,73411942,N,Y,42.3882668,-71.0390231
MLS Listing,,Townhouse,19 Worcester Sq #1,Boston,MA,02118,1595000,2,2.5,Boston,1625,1625,1910,1,982,695,Active,,,https://www.redfin.com/MA/Roxbury/19-Worcester-Sq-02118/unit-1/home/21718306,MLS PIN,73411884,N,Y,42.3364111,-71.0748874
MLS Listing,,Condo/Co-op,133 Seaport Blvd #2017,Boston,MA,02210,999000,1,1.0,Seaport District,590,,2019,1,1693,1281,Active,August-7-2025 12:00 PM,August-7-2025 01:30 PM,https://www.redfin.com/MA/Boston/133-Seaport-Blvd-02210/unit-2017/home/175645072,MLS PIN,73411881,N,Y,42.3505079,-71.0436145
MLS Listing,,Condo/Co-op,126 Salem St #1,Boston,MA,02113,682000,1,1.0,North End,397,,2020,1,1718,250,Active,August-3-2025 12:00 PM,August-3-2025 01:00 PM,https://www.redfin.com/MA/Boston/126-Salem-St-02113/unit-1/home/144351051,MLS PIN,73411871,N,Y,42.3649022,-71.055621
MLS Listing,,Condo/Co-op,455 Massachusetts Ave #1,Boston,MA,02118,1200000,2,2.5,South End,1470,,1899,1,816,560,Active,August-2-2025 11:00 AM,August-2-2025 01:00 PM,https://www.redfin.com/MA/Roxbury/455-Massachusetts-Ave-02118/unit-1/home/9301445,MLS PIN,73411853,N,Y,42.3401848,-71.0815603
MLS Listing,,Condo/Co-op,1 Dalton St Unit 5801/5802,Boston,MA,02199,38000000,5,7.0,Back Bay,7848,,2020,1,4842,25712,Active,,,https://www.redfin.com/MA/Boston/1-Dalton-St-02199/unit-5801-5802/home/196189636,MLS PIN,73411842,N,Y,42.345665,-71.0840364
MLS Listing,,Vacant Land,243 D Savin Hill Ave,Boston,MA,02125,749000,,,Boston,,10075,,1,,,Active,,,https://www.redfin.com/MA/Dorchester/243-D-Savin-Hill-Ave-02125/home/192616853,MLS PIN,73411829,N,Y,42.3099786,-71.0463105
MLS Listing,,Single Family Residential,7 Grimes St,Boston,MA,02127,719000,4,1.0,South Boston,1170,780,1890,1,615,,Active,August-3-2025 11:30 AM,August-3-2025 01:00 PM,https://www.redfin.com/MA/South-Boston/7-Grimes-St-02127/home/9195630,MLS PIN,73411769,N,Y,42.334106,-71.0514714
MLS Listing,,Condo/Co-op,10 Coffey St #25,Boston,MA,02122,360000,2,1.0,Dorchester's Neponset,779,779,1965,1,462,455,Active,August-2-2025 12:00 PM,August-2-2025 02:00 PM,https://www.redfin.com/MA/Dorchester/10-Coffey-St-02122/unit-25/home/9064203,MLS PIN,73411744,N,Y,42.2890212,-71.0505654
MLS Listing,,Condo/Co-op,30 Fenway Unit 2nd/3rd FL,Boston,MA,02215,3135000,3,3.0,Back Bay,3005,,1895,1,1043,1235,Active,,,https://www.redfin.com/MA/Boston/30-Fenway-02215/unit-2nd-3rd-FL/home/196735419,MLS PIN,73411726,N,Y,42.3455885,-71.0902082
MLS Listing,,Condo/Co-op,153 Everett St #2,Boston,MA,02128,535000,2,1.0,Boston,661,,1910,1,809,277,Active,August-2-2025 10:30 AM,August-2-2025 11:30 AM,https://www.redfin.com/MA/Boston/153-Everett-St-02128/unit-2/home/180069351,MLS PIN,73411631,N,Y,42.3663816,-71.0324607
MLS Listing,,Townhouse,20 Haynes St #102,Boston,MA,02128,799900,2,2.0,Boston,1038,,2020,1,771,560,Active,August-2-2025 11:00 AM,August-2-2025 01:00 PM,https://www.redfin.com/MA/Boston/20-Haynes-St-02128/unit-102/home/180069341,MLS PIN,73411605,N,Y,42.3668623,-71.0380509
MLS Listing,,Single Family Residential,65 Magnolia St,Boston,MA,02125,849500,9,3.5,Boston,3184,4803,1905,1,267,,Active,August-2-2025 11:30 AM,August-2-2025 01:00 PM,https://www.redfin.com/MA/Boston/65-Magnolia-St-02125/home/196718789,MLS PIN,73411594,N,Y,42.3163491,-71.0710978
MLS Listing,,Multi-Family (2-4 Unit),163 W 8th St,Boston,MA,02127,1299000,5,3.0,South Boston,1890,1971,1900,1,687,,Active,,,https://www.redfin.com/MA/South-Boston/163-W-8th-St-02127/home/9190106,MLS PIN,73411509,N,Y,42.3342081,-71.0529919
MLS Listing,,Single Family Residential,142 Norwell St,Boston,MA,02121,695000,4,3.0,Dorchester,2320,3553,2001,1,300,,Active,August-2-2025 11:00 AM,August-2-2025 12:30 PM,https://www.redfin.com/MA/Dorchester/142-Norwell-St-02121/home/9087670,MLS PIN,73411497,N,Y,42.2975107,-71.0784042
MLS Listing,,Condo/Co-op,69 Lubec St #201,Boston,MA,02128,810000,2,2.0,East Boston's Jeffries Point,1080,,2021,1,750,353,Active,August-1-2025 04:00 PM,August-1-2025 06:00 PM,https://www.redfin.com/MA/Boston/69-Lubec-St-02128/unit-201/home/181883495,MLS PIN,73411498,N,Y,42.370392,-71.03316
MLS Listing,,Condo/Co-op,151 Tremont St Unit 7N,Boston,MA,02111,969000,1,1.0,Boston,770,770,1968,1,1258,721,Active,August-2-2025 12:00 PM,August-2-2025 01:30 PM,https://www.redfin.com/MA/Boston/151-Tremont-St-02111/unit-7N/home/9279348,MLS PIN,73411488,N,Y,42.3544996,-71.0633802
MLS Listing,,Multi-Family (2-4 Unit),66 Union St,Boston,MA,02135,2250000,12,3.0,Boston,4182,5000,1917,1,538,,Active,,,https://www.redfin.com/MA/Brighton/66-Union-St-02135/home/9017604,MLS PIN,73411472,N,Y,42.3454128,-71.1504913
MLS Listing,,Condo/Co-op,249 Corey Rd #306,Boston,MA,02135,1037500,2,1.0,Brighton,940,,2025,1,1104,713,Active,August-1-2025 04:30 PM,August-1-2025 06:00 PM,https://www.redfin.com/MA/Boston/249-Corey-Rd-02135/unit-306/home/196698309,MLS PIN,73411465,N,Y,42.344705,-71.1371283
MLS Listing,,Condo/Co-op,249 Corey Rd #308,Boston,MA,02135,675000,1,1.0,Brighton,786,,2025,1,859,540,Active,August-1-2025 04:30 PM,August-1-2025 06:00 PM,https://www.redfin.com/MA/Boston/249-Corey-Rd-02135/unit-308/home/196698308,MLS PIN,73411463,N,Y,42.344705,-71.1371283
MLS Listing,,Condo/Co-op,249 Corey Rd Unit 403PH,Boston,MA,02135,1049000,1,1.0,Brighton,760,,2025,1,1380,638,Active,August-1-2025 04:30 PM,August-1-2025 06:00 PM,https://www.redfin.com/MA/Boston/249-Corey-Rd-02135/unit-403/home/194242514,MLS PIN,73411461,N,Y,42.3446796,-71.1370682
MLS Listing,,Condo/Co-op,249 Corey Rd Unit 407PH,Boston,MA,02135,1299000,2,2.0,Brighton,1166,,2025,1,1114,846,Active,August-1-2025 04:30 PM,August-1-2025 06:00 PM,https://www.redfin.com/MA/Boston/249-Corey-Rd-02135/unit-407PH/home/196697847,MLS PIN,73411459,N,Y,42.344705,-71.1371283
MLS Listing,,Condo/Co-op,249 Corey #103,Boston,MA,02135,1349000,2,2.0,Brighton,1125,,2025,1,1199,850,Active,August-1-2025 04:30 PM,August-1-2025 06:00 PM,https://www.redfin.com/MA/Boston/249-Corey-Rd-02135/unit-103/home/196697634,MLS PIN,73411454,N,Y,42.344705,-71.1371283
MLS Listing,,Townhouse,2 Seminary #2,Boston,MA,02129,650000,1,1.0,Charlestown,665,,1900,1,977,445,Active,August-2-2025 10:00 AM,August-2-2025 12:00 PM,https://www.redfin.com/MA/Boston/2-Seminary-St-02129/unit-2/home/113226616,MLS PIN,73411446,N,Y,42.374745,-71.064498
MLS Listing,,Multi-Family (2-4 Unit),243-245 Minot St,Boston,MA,02124,999000,5,3.0,Dorchester,2704,4494,1900,1,369,,Active,August-3-2025 01:30 PM,August-3-2025 03:00 PM,https://www.redfin.com/MA/Boston/243-245-Minot-St-02124/home/196696092,MLS PIN,73411350,N,Y,42.2837099,-71.0576258
MLS Listing,,Condo/Co-op,130 Sutherland Rd #1,Boston,MA,02135,529000,2,1.0,Brighton,727,,1947,1,728,633,Active,August-2-2025 01:00 PM,August-2-2025 02:30 PM,https://www.redfin.com/MA/Brighton/130-Sutherland-Rd-02135/unit-1/home/9021908,MLS PIN,73411355,N,Y,42.3404677,-71.1478574
MLS Listing,,Condo/Co-op,28 Hansborough St Unit 4R,Boston,MA,02124,469999,2,1.0,Dorchester's Dorchester Center,897,,2024,1,524,268,Active,August-2-2025 11:00 AM,August-2-2025 12:30 PM,https://www.redfin.com/MA/Dorchester/28-Hansborough-St-02124/unit-4R/home/196695986,MLS PIN,73411336,N,Y,42.2879779,-71.0917151
MLS Listing,,Townhouse,602 Canterbury #5,Boston,MA,02131,565000,2,1.5,Roslindale,1251,,2025,1,452,417,Active,August-3-2025 10:00 AM,August-3-2025 11:30 AM,https://www.redfin.com/MA/Roslindale/602-Canterbury-St-02131/unit-5/home/191041889,MLS PIN,73411335,N,Y,42.2876,-71.1092244
MLS Listing,,Single Family Residential,113 Saratoga St,Boston,MA,02128,899000,4,1.5,East Boston,2024,1629,1880,1,444,,Active,August-2-2025 11:00 AM,August-2-2025 12:30 PM,https://www.redfin.com/MA/East-Boston/113-Saratoga-St-02128/home/9117533,MLS PIN,73411280,N,Y,42.3766955,-71.0356738
MLS Listing,,Condo/Co-op,335-337 Meridian St #4,Boston,MA,02128,484000,2,1.0,Boston,791,791,1910,1,612,293,Active,August-2-2025 12:00 PM,August-2-2025 02:00 PM,https://www.redfin.com/MA/Boston/335-Meridian-St-02128/unit-4/home/187146174,MLS PIN,73411239,N,Y,42.3782248,-71.0390284
MLS Listing,,Single Family Residential,527 E 8th St,Boston,MA,02127,2399000,5,4.0,South Boston,2762,2246,1900,1,869,,Active,August-2-2025 11:00 AM,August-2-2025 01:00 PM,https://www.redfin.com/MA/South-Boston/527-E-8th-St-02127/home/9194769,MLS PIN,73411193,N,Y,42.3312379,-71.0405618
MLS Listing,,Multi-Family (2-4 Unit),61 Saratoga St,Boston,MA,02128,849900,5,2.0,East Boston,2096,1805,1900,1,405,,Active,August-2-2025 01:00 PM,August-2-2025 02:00 PM,https://www.redfin.com/MA/East-Boston/61-Saratoga-St-02128/home/9117355,MLS PIN,73411157,N,Y,42.3763233,-71.0368635
MLS Listing,,Single Family Residential,43 Delano Park,Boston,MA,02131,699000,2,1.0,Roslindale,912,3200,1925,1,766,,Active,August-2-2025 11:30 AM,August-2-2025 01:00 PM,https://www.redfin.com/MA/Roslindale/43-Delano-Park-02131/home/9174666,MLS PIN,73411152,N,Y,42.279612,-71.1269117
MLS Listing,,Condo/Co-op,197 8th St #501,Boston,MA,02129,750000,1,1.0,Charlestown's Navy Yard,776,,1989,1,966,1038,Active,August-2-2025 11:30 AM,August-2-2025 01:00 PM,https://www.redfin.com/MA/Charlestown/197-8th-St-02129/unit-501/home/9050618,MLS PIN,73411133,N,Y,42.3734076,-71.0521911
MLS Listing,,Multi-Family (2-4 Unit),263 Princeton St,Boston,MA,02128,1890000,13,5.0,East Boston's Eagle Hill,3873,2933,1900,1,488,,Active,August-3-2025 11:00 AM,August-3-2025 12:00 PM,https://www.redfin.com/MA/East-Boston/263-Princeton-St-02128/home/9106777,MLS PIN,73411123,N,Y,42.3797071,-71.0296959
MLS Listing,,Townhouse,704 Columbia Rd #704,Boston,MA,02125,499900,3,1.0,Dorchester,1136,1136,2000,1,440,380,Active,August-2-2025 11:00 AM,August-2-2025 12:30 PM,https://www.redfin.com/MA/Boston/704-Columbia-Rd-02125/unit-704/home/137551823,MLS PIN,73411118,N,Y,42.3204079,-71.0620801
MLS Listing,,Condo/Co-op,15 Vinton St #2,Boston,MA,02127,515000,1,1.0,South Boston,569,435,1890,1,905,105,Active,August-2-2025 12:00 PM,August-2-2025 02:00 PM,https://www.redfin.com/MA/South-Boston/15-Vinton-St-02127/unit-2/home/11740380,MLS PIN,73411040,N,Y,42.3302677,-71.0537605
MLS Listing,,Condo/Co-op,88 Strathmore #7,Boston,MA,02135,649000,2,1.0,Brighton,877,,1941,1,740,492,Active,August-2-2025 01:00 PM,August-2-2025 02:30 PM,https://www.redfin.com/MA/Brighton/88-Strathmore-Rd-02135/unit-7/home/9026205,MLS PIN,73411008,N,Y,42.3388203,-71.150125
MLS Listing,,Single Family Residential,6 Fairfax St,Boston,MA,02124,1375000,5,3.5,Ashmont Adams,3625,10542,1885,1,379,,Active,August-2-2025 12:00 PM,August-2-2025 01:30 PM,https://www.redfin.com/MA/Dorchester/6-Fairfax-St-02124/home/9097257,MLS PIN,73410954,N,Y,42.2842589,-71.059782
MLS Listing,,Condo/Co-op,285 Corey Rd #7,Boston,MA,02135,639000,2,1.0,Boston,916,,1930,1,698,589,Active,August-2-2025 11:00 AM,August-2-2025 01:00 PM,https://www.redfin.com/MA/Brighton/285-Corey-Rd-02135/unit-7/home/9223447,MLS PIN,73410944,N,Y,42.345750789,-71.13602399
MLS Listing,,Condo/Co-op,5 Braemore Rd #10,Boston,MA,02135,329000,1,1.0,Brighton's Cleveland Circle,385,,1930,2,855,335,Active,,,https://www.redfin.com/MA/Brighton/5-Braemore-Rd-02135/unit-10/home/9308549,MLS PIN,73410934,N,Y,42.3383472,-71.1522277
MLS Listing,,Condo/Co-op,37 Bay State Rd #4,Boston,MA,02215,1250000,2,1.5,Back Bay,1065,1065,1890,2,1174,682,Active,August-2-2025 12:00 PM,August-2-2025 02:00 PM,https://www.redfin.com/MA/Boston/37-Bay-State-Rd-02215/unit-4/home/9268982,MLS PIN,73410933,N,Y,42.3501333,-71.0945164
MLS Listing,,Condo/Co-op,116 Thorndike St #1,Brookline,MA,02446,2700000,4,3.5,Brookline,3000,6000,1895,2,900,,Active,August-3-2025 11:00 AM,August-3-2025 12:00 PM,https://www.redfin.com/MA/Brookline/116-Thorndike-St-02446/unit-1/home/196090954,MLS PIN,73410922,N,Y,42.3481233,-71.1271416
MLS Listing,,Single Family Residential,80 Hamilton St,Boston,MA,02136,824900,3,1.5,Hyde Park's Readville,1834,6000,1900,2,450,,Active,August-2-2025 11:30 AM,August-2-2025 01:00 PM,https://www.redfin.com/MA/Hyde-Park/80-Hamilton-St-02136/home/9134318,MLS PIN,73410905,N,Y,42.2328166,-71.1326203
MLS Listing,,Condo/Co-op,26 Stillman St Unit 3-2,Boston,MA,02113,1479000,2,2.0,Boston,1336,1336,1899,2,1107,1296,Active,August-2-2025 01:30 PM,August-2-2025 03:00 PM,https://www.redfin.com/MA/Boston/26-Stillman-St-02113/unit-3-2/home/9312263,MLS PIN,73410865,N,Y,42.3637073,-71.0568803
MLS Listing,,Condo/Co-op,106 Moore #204,Boston,MA,02128,649000,2,2.0,East Boston,1035,,2025,2,627,350,Active,,,https://www.redfin.com/MA/East-Boston/106-Moore-St-02128/unit-204/home/196686881,MLS PIN,73410850,N,Y,42.381373,-71.0177637
MLS Listing,,Condo/Co-op,101 Sawyer Ave #1,Boston,MA,02125,649000,2,1.0,Boston,1041,1041,1900,2,623,220,Active,August-2-2025 11:00 AM,August-2-2025 12:30 PM,https://www.redfin.com/MA/Dorchester/101-Sawyer-Ave-02125/unit-1/home/11837993,MLS PIN,73410816,N,Y,42.3131118,-71.0629424
MLS Listing,,Single Family Residential,9 Downing Rd,Brookline,MA,02445,2995000,8,5.0,Salisbury Road - Corey Farm,5803,13055,1900,2,516,,Active,,,https://www.redfin.com/MA/Brookline/9-Downing-Rd-02445/home/11455105,MLS PIN,73410787,N,Y,42.3411205,-71.139427
MLS Listing,,Condo/Co-op,110 Broad St #901,Boston,MA,02110,3400000,3,3.5,Boston,2405,,2018,2,1414,2058,Active,August-2-2025 10:30 AM,August-2-2025 12:00 PM,https://www.redfin.com/MA/Boston/110-Broad-St-02110/unit-901/home/145264406,MLS PIN,73410766,N,Y,42.3573892,-71.0520322
MLS Listing,,Single Family Residential,21 Upcrest Rd,Boston,MA,02135,950000,4,1.5,Brighton,1906,4050,1906,2,498,,Active,August-2-2025 11:00 AM,August-2-2025 12:30 PM,https://www.redfin.com/MA/Brighton/21-Upcrest-Rd-02135/home/9030922,MLS PIN,73410751,N,Y,42.3532616,-71.1643358
MLS Listing,,Condo/Co-op,110 Sudbury St #3601,Boston,MA,02114,4995000,4,3.5,Waterfront,2766,,2021,2,1806,3954,Active,,,https://www.redfin.com/MA/Boston/110-Sudbury-St-02114/unit-3601/home/184579621,MLS PIN,73410753,N,Y,42.3622469,-71.0591862
MLS Listing,,Single Family Residential,22 Brimmer St,Boston,MA,02108,11495000,4,5.5,Beacon Hil,6138,2339,1899,2,1873,,Active,,,https://www.redfin.com/MA/Boston/22-Brimmer-St-02108/home/11509614,MLS PIN,73410749,N,Y,42.3581386,-71.0715505
MLS Listing,,Condo/Co-op,115 W 7th St #3,Boston,MA,02127,499999,1,1.0,Boston,550,2178,1890,2,909,150,Active,August-2-2025 11:30 AM,August-2-2025 01:00 PM,https://www.redfin.com/MA/South-Boston/115-W-7th-St-02127/unit-3/home/9184778,MLS PIN,73410717,N,Y,42.3358578,-71.0535761
MLS Listing,,Vacant Land,124 Leyden,Boston,MA,02128,899999,,,East Boston's Orient Heights,,3400,,2,,,Active,,,https://www.redfin.com/MA/East-Boston/124-Leyden-St-02128/home/192763090,MLS PIN,73410707,N,Y,42.3891486,-71.0074205
MLS Listing,,Condo/Co-op,19 Howes St #1,Boston,MA,02125,569900,3,1.0,Dorchester's Savin Hill,958,958,1910,2,595,300,Active,August-3-2025 12:00 PM,August-3-2025 01:00 PM,https://www.redfin.com/MA/Dorchester/19-Howes-St-02125/unit-1/home/12518234,MLS PIN,73410709,N,Y,42.3115613,-71.064464
MLS Listing,,Condo/Co-op,60 Roslin St #2,Boston,MA,02124,800000,4,2.5,Dorchester's Ashmont,2149,,1900,2,372,75,Active,August-2-2025 12:30 PM,August-2-2025 02:00 PM,https://www.redfin.com/MA/Dorchester/60-Roslin-St-02124/unit-2/home/176726058,MLS PIN,73410691,N,Y,42.286893,-71.0684668
MLS Listing,,Single Family Residential,76 Cliff Rd,Milton,MA,02186,1975000,5,4.5,Columbine/Cliff,4244,13038,1930,2,465,,Active,August-2-2025 11:30 AM,August-2-2025 01:00 PM,https://www.redfin.com/MA/Milton/76-Cliff-Rd-02186/home/11712767,MLS PIN,73410628,N,Y,42.2674104,-71.0894714
MLS Listing,,Condo/Co-op,116 Riverway #14,Boston,MA,02215,569000,1,1.0,The Fenway,613,613,1915,2,928,421,Active,August-2-2025 10:00 AM,August-2-2025 12:00 PM,https://www.redfin.com/MA/Boston/116-Riverway-02215/unit-14/home/9262177,MLS PIN,73410607,N,Y,42.3428486,-71.1039706
MLS Listing,,Condo/Co-op,545 E 7th St #3,Boston,MA,02127,579000,1,1.0,South Boston,626,626,1900,2,925,132,Active,August-1-2025 12:00 PM,August-1-2025 01:00 PM,https://www.redfin.com/MA/South-Boston/545-E-7th-St-02127/unit-3/home/17163985,MLS PIN,73410578,N,Y,42.3320635,-71.038657
MLS Listing,,Single Family Residential,178 H St,Boston,MA,02127,1200000,5,2.5,Boston,1845,,1905,2,650,,Active,,,https://www.redfin.com/MA/South-Boston/178-H-St-02127/home/9194600,MLS PIN,73410574,N,Y,42.3317587,-71.0412105
MLS Listing,,Multi-Family (2-4 Unit),9 Beryl St,Boston,MA,02131,1049000,6,3.0,Roslindale,2527,6050,1900,2,415,,Active,August-2-2025 12:30 PM,August-2-2025 02:00 PM,https://www.redfin.com/MA/Roslindale/9-Beryl-St-02131/home/9173710,MLS PIN,73410534,N,Y,42.282277,-71.1391244
MLS Listing,,Condo/Co-op,9 Eden St #3,Boston,MA,02129,1799900,3,2.0,Boston,1607,,1880,2,1120,353,Active,August-2-2025 11:30 AM,August-2-2025 12:30 PM,https://www.redfin.com/MA/Charlestown/9-Eden-St-02129/unit-3/home/196674715,MLS PIN,73410508,N,Y,42.3790663,-71.0680461
MLS Listing,,Townhouse,38 Colonial #1,Boston,MA,02124,639900,3,2.0,Boston,1300,,2019,2,492,259,Active,August-2-2025 11:00 AM,August-2-2025 01:00 PM,https://www.redfin.com/MA/Boston/38-Colonial-Ave-02124/unit-1/home/171793271,MLS PIN,73410503,N,Y,42.2906821,-71.0754444
MLS Listing,,Condo/Co-op,240 Devonshire St #3802,Boston,MA,02110,4680000,2,3.0,Midtown,2212,,2023,3,2116,3413,Active,,,https://www.redfin.com/MA/Boston/240-Devonshire-St-02110/unit-3802/home/182279530,MLS PIN,73410429,N,Y,42.3545795,-71.0571124
MLS Listing,,Multi-Family (2-4 Unit),4 Ruthven St,Boston,MA,02121,699000,4,3.0,Boston,3117,3471,1900,3,224,,Active,August-1-2025 11:00 AM,August-1-2025 01:00 PM,https://www.redfin.com/MA/Dorchester/4-Ruthven-St-02121/home/9092341,MLS PIN,73410401,N,Y,42.3144709,-71.0932972
MLS Listing,,Condo/Co-op,243 Condor St #304,Boston,MA,02128,799900,2,2.5,East Boston's Eagle Hill,1379,,2021,3,580,349,Active,August-2-2025 11:00 AM,August-2-2025 12:00 PM,https://www.redfin.com/MA/Boston/243-Condor-St-02128/unit-304/home/196664757,MLS PIN,73410389,N,Y,42.3823985,-71.0315639
MLS Listing,,Multi-Family (2-4 Unit),49 Greaton Rd,Boston,MA,02132,1125000,5,2.0,West Roxbury,2790,5000,1920,3,403,,Active,August-2-2025 12:00 PM,August-2-2025 01:30 PM,https://www.redfin.com/MA/West-Roxbury/49-Greaton-Rd-02132/home/9203176,MLS PIN,73410385,N,Y,42.2897703,-71.1504089
MLS Listing,,Condo/Co-op,164 Ruthven St #1,Boston,MA,02121,629900,3,2.0,Boston,1768,1768,1925,3,356,423,Active,August-2-2025 12:00 PM,August-2-2025 01:30 PM,https://www.redfin.com/MA/Dorchester/164-Ruthven-St-02121/unit-1/home/12431474,MLS PIN,73410378,N,Y,42.3118219,-71.0875912
MLS Listing,,Condo/Co-op,100 Lovejoy Wharf Unit 11K,Boston,MA,02114,1425000,2,2.0,Waterfront,1350,,2017,3,1056,1760,Active,August-3-2025 12:00 PM,August-3-2025 02:00 PM,https://www.redfin.com/MA/Boston/100-Lovejoy-Wharf-02114/unit-11K/home/160464048,MLS PIN,73410337,N,Y,42.3667952,-71.060099
MLS Listing,,Vacant Land,9-45 Vale St,Boston,MA,02119,5000000,,,Roxbury,,86422,,3,,,Active,,,https://www.redfin.com/MA/Roxbury/9-45-Vale-St-02119/home/9292717,MLS PIN,73410305,N,Y,42.3222221,-71.0936344
MLS Listing,,Multi-Family (2-4 Unit),14-16 Hurlcroft Ave,Boston,MA,02124,1050000,5,3.0,Dorchester's Ashmont,3628,4739,1935,3,289,,Active,,,https://www.redfin.com/MA/Boston/14-16-Hurlcroft-Ave-02124/home/196650510,MLS PIN,73410236,N,Y,42.2818145,-71.066157
MLS Listing,,Condo/Co-op,7 Segel St #2,Boston,MA,02130,475000,1,1.0,Jamaica Plain,820,,1930,3,579,376,Active,August-2-2025 12:00 PM,August-2-2025 02:00 PM,https://www.redfin.com/MA/Jamaica-Plain/7-Segel-St-02130/unit-2/home/9139184,MLS PIN,73410232,N,Y,42.3136338,-71.109302
MLS Listing,,Condo/Co-op,59 Aldrich St #2,Boston,MA,02131,650000,3,1.5,Roslindale,1649,4237,1910,3,394,330,Active,August-2-2025 12:00 PM,August-2-2025 01:00 PM,https://www.redfin.com/MA/Roslindale/59-Aldrich-St-02131/unit-2/home/175645647,MLS PIN,73410161,N,Y,42.2846196,-71.1413006
MLS Listing,,Condo/Co-op,33 Sleeper St #404,Boston,MA,02210,1850000,2,2.0,Seaport District,1260,1260,1911,3,1468,1110,Active,August-1-2025 11:00 AM,August-1-2025 12:30 PM,https://www.redfin.com/MA/Boston/33-Sleeper-St-02210/unit-404/home/9252837,MLS PIN,73410139,N,Y,42.3522602,-71.0487553
MLS Listing,,Condo/Co-op,181 Salem St Unit 18F,Boston,MA,02113,500000,1,1.0,North End,530,,1899,3,943,287,Active,August-3-2025 11:00 AM,August-3-2025 12:00 PM,https://www.redfin.com/MA/Boston/181-Salem-St-02113/unit-18F/home/196640070,MLS PIN,73410112,N,Y,42.3661469,-71.0546518
MLS Listing,,Multi-Family (5+ Unit),13 Pierce St,Boston,MA,02136,2189000,13,5.0,Hyde Park,5000,4950,1910,3,438,,Active,,,https://www.redfin.com/MA/Hyde-Park/13-Pierce-St-02136/home/196639452,MLS PIN,73410095,N,Y,42.2549486,-71.1193806
MLS Listing,,Condo/Co-op,159 St. Botolph #1,Boston,MA,02115,1075000,2,1.5,Back Bay,1110,,1890,3,968,200,Active,August-3-2025 01:00 PM,August-3-2025 02:00 PM,https://www.redfin.com/MA/Boston/159-Saint-Botolph-St-02115/unit-1/home/9234942,MLS PIN,73410093,N,Y,42.3434768,-71.082853
MLS Listing,,Condo/Co-op,300 Pier 4 Blvd Unit 5C,Boston,MA,02210,6995000,3,2.5,Seaport District,2020,,2019,3,3463,4651,Active,August-2-2025 12:00 PM,August-2-2025 01:30 PM,https://www.redfin.com/MA/Boston/300-Pier-4-Blvd-02210/unit-5C/home/175645126,MLS PIN,73410090,N,Y,42.3525698,-71.0423642
MLS Listing,,Condo/Co-op,80 Broad #302,Boston,MA,02110,1375000,2,2.0,Waterfront,1405,,2006,3,979,1387,Active,,,https://www.redfin.com/MA/Boston/80-Broad-St-02110/unit-302/home/12439532,MLS PIN,73410060,N,Y,42.3576872,-71.0528178
MLS Listing,,Townhouse,55 Mcbride St Unit 1,Boston,MA,02130,925000,3,2.0,Jamaica Plain,1500,4827,1890,4,617,250,Active,,,https://www.redfin.com/MA/Jamaica-Plain/55-McBride-St-02130/unit-1/home/196626194,MLS PIN,73409969,N,Y,42.3058886,-71.1130906
MLS Listing,,Condo/Co-op,133 Seaport Blvd #807,Boston,MA,02210,1100000,1,1.0,Seaport District,686,,2018,4,1603,1040,Active,,,https://www.redfin.com/MA/Boston/133-Seaport-Blvd-02210/unit-807/home/175645011,MLS PIN,73409966,N,Y,42.3505079,-71.0436145
MLS Listing,,Vacant Land,24 Waterman Rd,Boston,MA,02131,395000,,,Boston,,3000,,5,,,Active,,,https://www.redfin.com/MA/Boston/24-Waterman-Rd-02131/home/148504567,MLS PIN,73409861,N,Y,42.2870761,-71.1130179
MLS Listing,,Condo/Co-op,77 E Berkeley St #4,Boston,MA,02118,539900,1,1.0,Boston,581,,1900,5,929,418,Active,,,https://www.redfin.com/MA/Roxbury/77-E-Berkeley-St-02118/unit-4/home/9281439,MLS PIN,73409856,N,Y,42.3440191,-71.0666736
MLS Listing,,Single Family Residential,7 Rambler Rd,Boston,MA,02130,645000,2,1.5,Jamaica Plain,1035,8900,1935,5,623,,Active,August-3-2025 12:00 PM,August-3-2025 01:30 PM,https://www.redfin.com/MA/Jamaica-Plain/7-Rambler-Rd-02130/home/9150858,MLS PIN,73409848,N,Y,42.3047367,-71.125611
MLS Listing,,Condo/Co-op,197 Havre St #1,Boston,MA,02128,679000,1,1.0,East Boston,823,2500,2025,5,825,120,Active,,,https://www.redfin.com/MA/East-Boston/197-Havre-St-02128/unit-1/home/196622163,MLS PIN,73409802,N,Y,42.3743746,-71.0363596
MLS Listing,,Condo/Co-op,11 Unity St #8,Boston,MA,02113,515000,0,1.0,North End,385,385,1900,6,1338,237,Active,,,https://www.redfin.com/MA/Boston/11-Unity-St-02113/unit-8/home/9278232,MLS PIN,73409727,N,Y,42.3662514,-71.0540682
MLS Listing,,Condo/Co-op,11 Unity St #7,Boston,MA,02113,455000,1,1.0,North End,310,310,1900,6,1468,187,Active,,,https://www.redfin.com/MA/Boston/11-Unity-St-02113/unit-7/home/9278230,MLS PIN,73409728,N,Y,42.3662514,-71.0540682
MLS Listing,,Condo/Co-op,4-6 Henchman St Unit 4-6,Boston,MA,02113,1390000,3,3.0,North End,2319,,1900,6,599,790,Active,August-2-2025 11:00 AM,August-2-2025 12:00 PM,https://www.redfin.com/MA/Boston/4-6-Henchman-St-02113/unit-4-6/home/114036874,MLS PIN,73409691,N,Y,42.3670578,-71.0539703
MLS Listing,,Multi-Family (2-4 Unit),498 Hyde Park Ave,Boston,MA,02131,949999,4,2.0,Roslindale,2376,4860,1868,6,400,,Active,,,https://www.redfin.com/MA/Roslindale/498-Hyde-Park-Ave-02131/home/9181786,MLS PIN,73409638,N,Y,42.2834213,-71.1187307
MLS Listing,,Condo/Co-op,692 Tremont St #6,Boston,MA,02118,949900,2,1.0,South End,870,870,1899,6,1092,556,Active,August-2-2025 11:00 AM,August-2-2025 01:00 PM,https://www.redfin.com/MA/Boston/692-Tremont-St-02118/unit-6/home/12542601,MLS PIN,73409603,N,Y,42.3407904,-71.0769765
MLS Listing,,Condo/Co-op,857 Beacon St #22,Boston,MA,02215,600000,1,1.0,The Fenway,719,,1900,6,834,372,Active,,,https://www.redfin.com/MA/Boston/857-Beacon-St-02215/unit-22/home/9246648,MLS PIN,73409586,N,Y,42.3466745,-71.103793
MLS Listing,,Condo/Co-op,343 South Huntington #7,Boston,MA,02130,499990,2,1.0,Boston,834,,1920,6,600,430,Active,,,https://www.redfin.com/MA/Jamaica-Plain/343-S-Huntington-Ave-02130/unit-7/home/9242014,MLS PIN,73404800,N,Y,42.3233643,-71.1124076
MLS Listing,,Condo/Co-op,340 West 2nd St #13,Boston,MA,02127,929000,2,2.0,South Boston,1016,,2019,6,914,452,Active,,,https://www.redfin.com/MA/Boston/340-W-2nd-St-02127/unit-13/home/167181802,MLS PIN,73409454,N,Y,42.3388226,-71.0467604
MLS Listing,,Condo/Co-op,193 W Canton St #2,Boston,MA,02116,765000,1,1.0,South End,594,435,1890,6,1288,220,Active,,,https://www.redfin.com/MA/Boston/193-W-Canton-St-02116/unit-2/home/9253349,MLS PIN,73409440,N,Y,42.3445501,-71.076043
MLS Listing,,Condo/Co-op,1515 Commonwealth Ave #415,Boston,MA,02135,849000,1,1.0,Brighton,909,,2025,6,934,889,Active,,,https://www.redfin.com/MA/Boston/1515-Commonwealth-Ave-02135/unit-415/home/196611022,MLS PIN,73409438,N,Y,42.3464715,-71.1419737
MLS Listing,,Parking,135 W 2nd,Boston,MA,02127,419999,,,Boston,,3017,,6,,,Active,,,https://www.redfin.com/MA/Boston/135-W-2nd-St-02127/home/179519204,MLS PIN,73409400,N,Y,42.3421771,-71.0528275
MLS Listing,,Condo/Co-op,34 Woodford St #1,Boston,MA,02125,610000,2,2.0,Dorchester,1200,,2025,7,508,278,Active,August-2-2025 12:15 PM,August-2-2025 02:30 PM,https://www.redfin.com/MA/Boston/34-Woodford-St-02125/unit-1/home/194826402,MLS PIN,73409382,N,Y,42.3182358,-71.0707279
MLS Listing,,Condo/Co-op,85 E India Row Unit 31AB,Boston,MA,02110,2495000,3,3.0,Waterfront,2385,,1970,7,1046,3502,Active,,,https://www.redfin.com/MA/Boston/85-E-India-Row-02110/unit-31A-B/home/25720451,MLS PIN,73409348,N,Y,42.3581217,-71.0498232
MLS Listing,,Condo/Co-op,77 Pond Ave #1207,Brookline,MA,02445,585000,1,1.0,Brookline,860,,1970,7,680,847,Active,August-2-2025 10:30 AM,August-2-2025 11:45 AM,https://www.redfin.com/MA/Brookline/77-Pond-Ave-02445/unit-1207/home/11487840,MLS PIN,73409345,N,Y,42.3302303,-71.1152824
MLS Listing,,Condo/Co-op,38 Hancock St #6,Boston,MA,02114,1750000,3,2.0,Beacon Hill,1580,,1890,7,1108,475,Active,,,https://www.redfin.com/MA/Boston/38-Hancock-St-02114/unit-6/home/9276281,MLS PIN,73409344,N,Y,42.3598084,-71.0641462
MLS Listing,,Multi-Family (5+ Unit),476 Warren St,Boston,MA,02121,6200000,22,22.0,Dorchester's Grove Hall,10089,9999,2025,7,615,,Active,,,https://www.redfin.com/MA/Dorchester/476-Warren-St-02121/home/9223939,MLS PIN,73409298,N,Y,42.3148905,-71.0832256
MLS Listing,,Condo/Co-op,99 Gove St #1,Boston,MA,02128,799000,2,1.0,East Boston's Jeffries Point,895,,1900,7,893,344,Active,,,https://www.redfin.com/MA/Boston/99-Gove-St-02128/unit-1/home/137953725,MLS PIN,73409270,N,Y,42.3702572,-71.035163
MLS Listing,,Condo/Co-op,1 Nassau St #1308,Boston,MA,02111,550920,2,2.0,Chinatown,967,,2004,7,570,574,Active,,,https://www.redfin.com/MA/Boston/1-Nassau-St-02111/unit-1308/home/9326138,MLS PIN,73409268,N,Y,42.3487275,-71.0629888
MLS Listing,,Multi-Family (5+ Unit),152 Salem St,Boston,MA,02113,5750000,20,9.5,North End,5400,1601,1920,7,1065,,Active,,,https://www.redfin.com/MA/Boston/152-Salem-St-02113/home/9277899,MLS PIN,73409255,N,Y,42.3657026,-71.0553435
MLS Listing,,Condo/Co-op,110 Stuart St Unit 18A,Boston,MA,02116,949900,1,1.0,Boston,878,,2009,7,1082,1151,Active,,,https://www.redfin.com/MA/Boston/110-Stuart-St-02116/unit-18A/home/25675362,MLS PIN,73409252,N,Y,42.3509348,-71.0655937
MLS Listing,,Condo/Co-op,267 Old Colony #302,Boston,MA,02127,925000,2,2.0,South Boston,995,,2025,7,930,408,Active,,,https://www.redfin.com/MA/South-Boston/267-Old-Colony-Ave-02127/unit-302/home/192332031,MLS PIN,73409240,N,Y,42.3309821,-71.0531911
MLS Listing,,Townhouse,9 Sydney #5,Boston,MA,02125,1099000,3,2.0,Dorchester's Savin Hill,1471,,2025,7,747,250,Active,,,https://www.redfin.com/MA/Boston/9-Sydney-St-02125/unit-5/home/196591409,MLS PIN,73409228,N,Y,42.311903,-71.053315
MLS Listing,,Condo/Co-op,12 Stoneholm St #423,Boston,MA,02115,619000,1,1.0,The Fenway,612,612,1976,7,1011,581,Active,August-3-2025 11:00 AM,August-3-2025 12:30 PM,https://www.redfin.com/MA/Boston/12-Stoneholm-St-02115/unit-423/home/12440010,MLS PIN,73409203,N,Y,42.345835,-71.0886193
MLS Listing,,Condo/Co-op,8 Concord Sq #1,Boston,MA,02118,1695000,2,2.0,South End,1454,1454,1899,7,1166,830,Active,August-3-2025 11:00 AM,August-3-2025 12:00 PM,https://www.redfin.com/MA/Roxbury/8-Concord-Sq-02118/unit-1/home/9327128,MLS PIN,73409116,N,Y,42.3408617,-71.0786892
MLS Listing,,Multi-Family (2-4 Unit),10 Brenton St,Boston,MA,02121,1545000,8,4.0,Dorchester's Ashmont,3395,4000,1915,7,455,,Active,,,https://www.redfin.com/MA/Dorchester/10-Brenton-St-02121/home/9085358,MLS PIN,73409115,N,Y,42.2977102,-71.0804431
MLS Listing,,Multi-Family (2-4 Unit),726 Columbia Rd,Boston,MA,02125,1050000,6,3.0,Boston,4628,4161,1910,7,227,,Active,,,https://www.redfin.com/MA/Dorchester/726-Columbia-Rd-02125/home/9100825,MLS PIN,73409083,N,Y,42.3204222,-71.0604768
MLS Listing,,Condo/Co-op,33 Sleeper St #508,Boston,MA,02210,1625000,1,1.0,Seaport District,1320,1320,1911,7,1231,734,Active,,,https://www.redfin.com/MA/Boston/33-Sleeper-St-02210/unit-508/home/9252873,MLS PIN,73409080,N,Y,42.3522602,-71.0487553
MLS Listing,,Single Family Residential,19 Johnson St,Boston,MA,02132,659900,3,1.5,West Roxbury,1067,4200,1925,7,618,,Active,,,https://www.redfin.com/MA/West-Roxbury/19-Johnson-St-02132/home/9217533,MLS PIN,73409053,N,Y,42.2728495,-71.1634549
MLS Listing,,Condo/Co-op,15 Grant St #2,Boston,MA,02125,525000,2,1.0,Dorchester's Savin Hill,900,,1922,7,583,200,Active,,,https://www.redfin.com/MA/Boston/15-Grant-St-02125/unit-2/home/196573094,MLS PIN,73409027,N,Y,42.3181811,-71.0555859
MLS Listing,,Condo/Co-op,15 Grant St #1,Boston,MA,02125,499000,1,1.0,Dorchester's Savin Hill,900,,1922,7,554,200,Active,,,https://www.redfin.com/MA/Boston/15-Grant-St-02125/unit-1/home/196572873,MLS PIN,73409012,N,Y,42.3181811,-71.0555859
MLS Listing,,Single Family Residential,180 Dent St,Boston,MA,02132,1089000,4,3.5,West Roxbury,2099,4000,1962,7,519,,Active,August-3-2025 12:00 PM,August-3-2025 01:00 PM,https://www.redfin.com/MA/West-Roxbury/180-Dent-St-02132/home/9212831,MLS PIN,73409005,N,Y,42.2857718,-71.1664773
MLS Listing,,Single Family Residential,68 Carroll St,Boston,MA,02132,699000,4,2.0,West Roxbury,1753,5500,1920,7,399,,Active,,,https://www.redfin.com/MA/West-Roxbury/68-Carroll-St-02132/home/9212408,MLS PIN,73408990,N,Y,42.2880304,-71.1694755
MLS Listing,,Condo/Co-op,214 Market St #201,Boston,MA,02135,848000,2,2.0,Brighton,1201,,2019,7,706,745,Active,,,https://www.redfin.com/MA/Boston/214-Market-St-02135/unit-201/home/162419141,MLS PIN,73408978,N,Y,42.3552089,-71.1494541
MLS Listing,,Condo/Co-op,85 East India Row Unit 25H,Boston,MA,02110,859000,1,1.0,Waterfront,882,,1972,7,974,1132,Active,,,https://www.redfin.com/MA/Boston/85-E-India-Row-02110/unit-25H/home/11836927,MLS PIN,73408950,N,Y,42.3581217,-71.0498232
MLS Listing,,Townhouse,329 Commonwealth Ave Unit One,Boston,MA,02115,2295000,3,2.0,Back Bay,1633,365,2018,7,1405,866,Active,,,https://www.redfin.com/MA/Boston/329-Commonwealth-Ave-02115/unit-1/home/9243382,MLS PIN,73408945,N,Y,42.3498989,-71.0873226
MLS Listing,,Condo/Co-op,52 Lithgow St #2,Boston,MA,02124,689000,3,2.0,Dorchester's Dorchester Center,1033,,1920,7,667,300,Active,August-3-2025 01:00 PM,August-3-2025 02:00 PM,https://www.redfin.com/MA/Dorchester/52-Lithgow-St-02124/unit-2/home/171395572,MLS PIN,73408930,N,Y,42.2904933,-71.0686496
MLS Listing,,Condo/Co-op,27 Dix St #1,Boston,MA,02122,550000,3,1.0,Boston,1332,,1905,7,413,422,Active,,,https://www.redfin.com/MA/Dorchester/27-Dix-St-02122/unit-1/home/11837989,MLS PIN,73408906,N,Y,42.2950944,-71.0602918
MLS Listing,,Multi-Family (2-4 Unit),31 Old Morton St,Boston,MA,02126,1200000,5,3.0,Dorchester's Lower Mills,2849,4865,1925,7,421,,Active,,,https://www.redfin.com/MA/Mattapan/31-Old-Morton-St-02126/home/9160353,MLS PIN,73408890,N,Y,42.2738489,-71.0720257
MLS Listing,,Single Family Residential,931 Lagrange St #931,Boston,MA,02132,875000,3,2.5,West Roxbury's Chestnut Hill,2375,2475,2000,7,368,,Active,,,https://www.redfin.com/MA/Boston/931-Lagrange-St-02132/unit-931/home/138117799,MLS PIN,73408874,N,Y,42.2958927,-71.1713321
MLS Listing,,Condo/Co-op,38-RA Charter St #6,Boston,MA,02113,550000,1,1.0,North End,471,471,1850,7,1168,238,Active,,,https://www.redfin.com/MA/Boston/38-Charter-St-02113/unit-6/home/9278151,MLS PIN,73408866,N,Y,42.3668726,-71.0540567
MLS Listing,,Multi-Family (2-4 Unit),230 Fuller St,Boston,MA,02124,1095000,4,2.0,Dorchester's Lower Mills,2442,5970,1920,7,448,,Active,,,https://www.redfin.com/MA/Dorchester/230-Fuller-St-02124/home/9089783,MLS PIN,73408850,N,Y,42.2806771,-71.0766813
MLS Listing,,Condo/Co-op,99 Sumner St #514,Boston,MA,02128,779000,1,1.0,East Boston,716,,2020,8,1088,903,Active,,,https://www.redfin.com/MA/Boston/99-Sumner-St-02128/unit-514/home/168652215,MLS PIN,73408829,N,Y,42.3697844,-71.0422881
MLS Listing,,Condo/Co-op,146 Kittredge St #2,Boston,MA,02131,699999,3,2.0,Roslindale,1719,,1910,8,407,300,Active,,,https://www.redfin.com/MA/Boston/146-Kittredge-St-02131/unit-2/home/181476897,MLS PIN,73408804,N,Y,42.2804346,-71.1309028
MLS Listing,,Condo/Co-op,240 Devonshire St Unit U4702,Boston,MA,02110,4610000,2,2.5,Midtown,1920,,2023,8,2401,3204,Active,,,https://www.redfin.com/MA/Boston/240-Devonshire-St-02110/unit-U4702/home/196563093,MLS PIN,73408780,N,Y,42.3547086,-71.0572005
MLS Listing,,Condo/Co-op,172 Boylston #3,Boston,MA,02130,895000,3,2.0,Jamaica Plain,1542,,1900,8,580,336,Active,August-3-2025 12:00 PM,August-3-2025 01:00 PM,https://www.redfin.com/MA/Boston/172-Boylston-St-02130/unit-3/home/192971527,MLS PIN,73408749,N,Y,42.3153773,-71.1021224
MLS Listing,,Single Family Residential,34 Salman St,Boston,MA,02132,749000,4,1.5,West Roxbury,2134,4483,1953,8,351,,Active,August-2-2025 10:00 AM,August-2-2025 12:00 PM,https://www.redfin.com/MA/West-Roxbury/34-Salman-St-02132/home/9220463,MLS PIN,73408723,N,Y,42.2653801,-71.1652981
MLS Listing,,Condo/Co-op,26 Isabella St #9,Boston,MA,02116,860000,2,1.0,Bay Village,815,,1900,8,1055,316,Active,,,https://www.redfin.com/MA/Boston/26-Isabella-St-02116/unit-9/home/9320050,MLS PIN,73408720,N,Y,42.3485872,-71.0704986
MLS Listing,,Multi-Family (5+ Unit),18 Hosmer,Boston,MA,02126,1500000,16,6.0,Mattapan,7095,5663,1910,8,211,,Active,,,https://www.redfin.com/MA/Mattapan/18-Hosmer-St-02126/home/9161523,MLS PIN,73408681,N,Y,42.2812313,-71.0908048
MLS Listing,,Condo/Co-op,12 Stoneholm St Unit PKG: 38,Boston,MA,02115,110000,0,,Boston,160,160,2006,8,688,25,Active,,,https://www.redfin.com/MA/Boston/12-Stoneholm-St-02115/unit-PKG-38/home/196561230,MLS PIN,73408642,N,Y,42.345835,-71.0886193
MLS Listing,,Condo/Co-op,87 Sunnyside St #87,Boston,MA,02136,819000,3,2.5,Boston,2025,,2018,8,404,462,Active,,,https://www.redfin.com/MA/Hyde-Park/87-Sunnyside-St-02136/unit-87/home/171788280,MLS PIN,73408633,N,Y,42.2495985,-71.1350099
MLS Listing,,Multi-Family (5+ Unit),4-16 Humboldt Pl,Boston,MA,02127,6300000,13,12.0,South Boston,9756,9300,1920,8,646,,Active,,,https://www.redfin.com/MA/Boston/4-Humboldt-Pl-02127/home/196560731,MLS PIN,73408606,N,Y,42.3307024,-71.0572004
MLS Listing,,Condo/Co-op,277 Border Unit 401A,Boston,MA,02128,594900,1,1.0,East Boston,620,,2022,8,960,356,Active,,,https://www.redfin.com/MA/East-Boston/277-Border-St-02128/unit-401A/home/196560007,MLS PIN,73408573,N,Y,42.3774028,-71.0396605
MLS Listing,,Condo/Co-op,1945 Commonwealth Ave #65,Boston,MA,02135,435000,1,1.0,Brighton,620,,1932,8,702,364,Active,,,https://www.redfin.com/MA/Brighton/1945-Commonwealth-Ave-02135/unit-65/home/9242460,MLS PIN,73408529,N,Y,42.3395417,-71.1562744
MLS Listing,,Condo/Co-op,511 Beacon St #11,Boston,MA,02215,625000,1,1.0,Back Bay,496,496,1910,8,1260,536,Active,,,https://www.redfin.com/MA/Boston/511-Beacon-St-02215/unit-11/home/9270517,MLS PIN,73408523,N,Y,42.3503862,-71.0902838
MLS Listing,,Condo/Co-op,34 Clark St #7,Boston,MA,02109,779000,2,1.0,North End,722,,1915,8,1079,386,Active,August-2-2025 11:00 AM,August-2-2025 12:00 PM,https://www.redfin.com/MA/Boston/34-Clark-St-02109/unit-7/home/11838550,MLS PIN,73408488,N,Y,42.3652307,-71.0522188
MLS Listing,,Condo/Co-op,8-12 Museum Way #614,Cambridge,MA,02141,659000,1,1.0,Cambridge,655,,1998,8,1006,840,Active,,,https://www.redfin.com/MA/Cambridge/8-Museum-Way-02141/unit-614/home/187177439,MLS PIN,73408478,N,Y,42.3696712,-71.0717223
MLS Listing,,Condo/Co-op,300 Boylston St #909,Boston,MA,02116,2295000,1,1.5,Boston,1310,1310,1988,8,1752,1929,Active,,,https://www.redfin.com/MA/Boston/300-Boylston-St-02116/unit-909/home/9235957,MLS PIN,73408441,N,Y,42.3518637,-71.0698248
MLS Listing,,Condo/Co-op,100 Belvidere St Unit 8F,Boston,MA,02199,1395000,1,1.0,Back Bay,837,,2001,8,1667,1511,Active,,,https://www.redfin.com/MA/Boston/100-Belvidere-St-02199/unit-8F/home/9317212,MLS PIN,73408394,N,Y,42.3458546,-71.0822309
MLS Listing,,Townhouse,62 Clifford St Unit A,Boston,MA,02119,649000,3,2.5,Roxbury,1845,2368,1905,8,352,293,Active,,,https://www.redfin.com/MA/Roxbury/62-Clifford-St-02119/unit-A/home/44594517,MLS PIN,73408366,N,Y,42.319561,-71.0784541
MLS Listing,,Condo/Co-op,62 Romsey St #2,Boston,MA,02125,595000,3,1.0,Dorchester's Savin Hill,1255,,1915,8,474,162,Active,August-3-2025 12:00 PM,August-3-2025 01:30 PM,https://www.redfin.com/MA/Dorchester/62-Romsey-St-02125/unit-2/home/11838289,MLS PIN,73408352,N,Y,42.3159603,-71.0537143
MLS Listing,,Condo/Co-op,365 Faneuil St #2,Boston,MA,02135,349500,1,1.0,Brighton,590,,1973,8,592,244,Active,,,https://www.redfin.com/MA/Brighton/365-Faneuil-St-02135/unit-2/home/9008161,MLS PIN,73408337,N,Y,42.3519775,-71.1658916
MLS Listing,,Condo/Co-op,30 N Munroe Ter #2,Boston,MA,02122,745000,3,1.5,Dorchester,2104,2104,1915,8,354,300,Active,,,https://www.redfin.com/MA/Dorchester/30-North-Munroe-Ter-02122/unit-2/home/11838473,MLS PIN,73408295,N,Y,42.2924246,-71.0525397
MLS Listing,,Condo/Co-op,41 Hawthorne St #2,Boston,MA,02131,589900,2,1.0,Roslindale,1148,1148,1966,8,514,287,Active,August-3-2025 11:00 AM,August-3-2025 01:00 PM,https://www.redfin.com/MA/Roslindale/41-Hawthorne-St-02131/unit-2/home/9300516,MLS PIN,73408259,N,Y,42.2834728,-71.1269118
MLS Listing,,Condo/Co-op,40 Stockton St #2,Boston,MA,02124,625000,3,2.0,Dorchester,1017,,1905,8,615,275,Active,,,https://www.redfin.com/MA/Dorchester/40-Stockton-St-02124/unit-2/home/167702748,MLS PIN,73408191,N,Y,42.2825245,-71.0735708
MLS Listing,,Condo/Co-op,1 Dalton St #3108,Boston,MA,02115,3750000,2,2.5,Boston,1363,33030,2015,9,2751,,Active,,,https://www.redfin.com/MA/Boston/1-Dalton-St-02115/unit-3108/home/175644733,MLS PIN,73408140,N,Y,42.345665,-71.0840364
MLS Listing,,Single Family Residential,12 Westmoreland St,Boston,MA,02124,1150000,5,1.5,Dorchester's Ashmont,1822,6000,1915,9,631,,Active,August-2-2025 12:00 PM,August-2-2025 01:30 PM,https://www.redfin.com/MA/Dorchester/12-Westmoreland-St-02124/home/9097366,MLS PIN,73408139,N,Y,42.2846673,-71.0566797
MLS Listing,,Condo/Co-op,56 Belmont St #1,Boston,MA,02129,2399000,4,3.5,Charlestown,2745,4245,2019,9,874,550,Active,,,https://www.redfin.com/MA/Charlestown/56-Belmont-St-02129/unit-1/home/148722963,MLS PIN,73408099,N,Y,42.3820226,-71.0649355
MLS Listing,,Condo/Co-op,42 8th St #5505,Boston,MA,02129,585000,1,1.0,Charlestown's Navy Yard,625,,1899,9,936,767,Active,,,https://www.redfin.com/MA/Charlestown/42-8th-St-02129/unit-5505/home/9328213,MLS PIN,73408033,N,Y,42.3750453,-71.0526553
MLS Listing,,Single Family Residential,45 Temple St Unit A,Boston,MA,02126,699000,3,2.5,Dorchester's Lower Mills,1469,1997,2004,9,476,,Active,August-2-2025 11:30 AM,August-2-2025 01:00 PM,https://www.redfin.com/MA/Mattapan/45-Temple-St-02126/unit-A/home/21719441,MLS PIN,73408003,N,Y,42.2735177,-71.0724112
MLS Listing,,Condo/Co-op,25 Alpine St #7,Boston,MA,02136,339000,1,1.0,Hyde Park,602,602,1970,9,563,314,Active,,,https://www.redfin.com/MA/Hyde-Park/25-Alpine-St-02136/unit-7/home/9328776,MLS PIN,73407996,N,Y,42.2650358,-71.1017274
MLS Listing,,Condo/Co-op,60 Commonwealth Ave #4,Boston,MA,02116,829000,1,1.0,Back Bay,649,649,1890,9,1277,470,Active,,,https://www.redfin.com/MA/Boston/60-Commonwealth-Ave-02116/unit-4/home/9264254,MLS PIN,73407983,N,Y,42.352437,-71.0744529
MLS Listing,,Condo/Co-op,4 Crossman St #4,Boston,MA,02126,799000,4,3.0,Boston,2430,,2020,9,329,306,Active,,,https://www.redfin.com/MA/Boston/4-Crossman-St-02126/unit-4/home/173627052,MLS PIN,73407949,N,Y,42.2742122,-71.0915624
MLS Listing,,Townhouse,2 Mount Pleasant Pl #2,Boston,MA,02119,549999,3,2.0,Roxbury,1218,,1920,9,452,,Active,,,https://www.redfin.com/MA/Boston/2-Mount-Pleasant-Pl-02119/unit-2/home/113232163,MLS PIN,73407936,N,Y,42.327797,-71.0781167
MLS Listing,,Single Family Residential,12 Eagle St,Boston,MA,02132,1155000,3,2.0,West Roxbury,2325,6000,1985,9,497,,Active,August-3-2025 12:00 PM,August-3-2025 01:30 PM,https://www.redfin.com/MA/West-Roxbury/12-Eagle-St-02132/home/9216026,MLS PIN,73407937,N,Y,42.2711626,-71.1516053
MLS Listing,,Condo/Co-op,3 Parley Vale Unit 1R,Boston,MA,02130,1025000,2,2.0,Jamaica Plain,1913,1913,1895,9,536,500,Active,August-2-2025 02:00 PM,August-2-2025 04:00 PM,https://www.redfin.com/MA/Jamaica-Plain/3-Parley-Vale-02130/unit-1R/home/9144179,MLS PIN,73407933,N,Y,42.3148657,-71.1119473
MLS Listing,,Multi-Family (2-4 Unit),13 Gates St,Boston,MA,02127,1550000,6,3.0,South Boston,3051,1870,1880,9,508,,Active,,,https://www.redfin.com/MA/South-Boston/13-Gates-St-02127/home/9190894,MLS PIN,73407841,N,Y,42.3334789,-71.0484566
MLS Listing,,Condo/Co-op,421 Marlborough St #4,Boston,MA,02115,699900,2,1.0,Boston,690,690,1899,9,1014,526,Active,,,https://www.redfin.com/MA/Boston/421-Marlborough-St-02115/unit-4/home/9270342,MLS PIN,73407836,N,Y,42.3501592,-71.0894121
MLS Listing,,Condo/Co-op,59-61 Havre St #3,Boston,MA,02128,699000,2,2.0,East Boston,928,,2017,9,753,300,Active,August-2-2025 11:00 AM,August-2-2025 01:00 PM,https://www.redfin.com/MA/Boston/61-Havre-St-02128/unit-3/home/113155232,MLS PIN,73407772,N,Y,42.371148,-71.0397247
MLS Listing,,Townhouse,1 Finch St #1,Boston,MA,02126,670000,3,2.0,Mattapan,1270,,2025,9,528,455,Active,,,https://www.redfin.com/MA/Mattapan/1-Finch-St-02126/unit-1/home/196533495,MLS PIN,73407759,N,Y,42.2870382,-71.0991056
MLS Listing,,Condo/Co-op,99 Grove St #4,Boston,MA,02132,375000,1,1.0,Boston,605,605,1969,9,620,310,Active,,,https://www.redfin.com/MA/West-Roxbury/99-Grove-St-02132/unit-4/home/9222658,MLS PIN,73407746,N,Y,42.2658392,-71.1597146
MLS Listing,,Multi-Family (2-4 Unit),1789 Commonwealth,Boston,MA,02135,3995000,14,6.0,Boston,6206,21521,1900,9,644,,Active,,,https://www.redfin.com/MA/Brighton/1789-Commonwealth-Ave-02135/home/11833385,MLS PIN,73407711,N,Y,42.340815,-71.151367
MLS Listing,,Townhouse,1307 Lagrange #1307,Boston,MA,02467,750000,2,2.5,Chestnut Hill,2035,,1985,9,369,532,Active,,,https://www.redfin.com/MA/Boston/1307-Lagrange-St-02132/unit-1307/home/196531357,MLS PIN,73407683,N,Y,42.2981603,-71.172654
MLS Listing,,Condo/Co-op,280 W 5th St #201,Boston,MA,02127,1675000,3,2.5,South Boston,1770,,2017,9,946,295,Active,,,https://www.redfin.com/MA/South-Boston/280-W-5th-St-02127/unit-201/home/141866999,MLS PIN,73407643,N,Y,42.3350967,-71.0483607
MLS Listing,,Single Family Residential,1-3 Rock Ter #1,Boston,MA,02121,699900,3,2.5,Dorchester's Meeting House Hill,1400,4896,2025,9,500,,Active,,,https://www.redfin.com/MA/Dorchester/1-Rock-Ter-02121/unit-1/home/196482364,MLS PIN,73407641,N,Y,42.306074,-71.0716939
MLS Listing,,Multi-Family (2-4 Unit),5 Burrill Pl,Boston,MA,02127,1375000,3,3.0,Boston,1740,1087,1890,9,790,,Active,,,https://www.redfin.com/MA/South-Boston/5-Burrill-Pl-02127/home/11734912,MLS PIN,73407631,N,Y,42.3326258,-71.0402163
MLS Listing,,Condo/Co-op,3305-3309 Washington St #102,Boston,MA,02130,429000,1,1.0,Jamaica Plain,535,,2022,9,802,206,Active,August-2-2025 11:00 AM,August-2-2025 01:00 PM,https://www.redfin.com/MA/Jamaica-Plain/3305-Washington-St-02130/unit-102/home/182295095,MLS PIN,73405394,N,Y,42.3105829,-71.1038064
MLS Listing,,Condo/Co-op,1395 Washington St #201,Boston,MA,02118,699000,1,1.0,South End,567,,2025,10,1233,362,Active,,,https://www.redfin.com/MA/Boston/1395-Washington-St-02118/unit-201/home/195416708,MLS PIN,73407567,N,Y,42.3413429,-71.0702513
MLS Listing,,Condo/Co-op,85 East India Row Unit 18A,Boston,MA,02110,595000,1,1.0,Waterfront,755,,1972,10,788,936,Active,,,https://www.redfin.com/MA/Boston/85-E-India-Row-02110/unit-18A/home/9261537,MLS PIN,73407566,N,Y,42.3581217,-71.0498232
MLS Listing,,Condo/Co-op,15 N Beacon St #104,Boston,MA,02134,545000,2,1.5,Boston,778,,1989,10,701,844,Active,,,https://www.redfin.com/MA/Allston/15-North-Beacon-St-02134/unit-104/home/8987746,MLS PIN,73407535,N,Y,42.3541397,-71.1379353
MLS Listing,,Single Family Residential,22 Bonad Rd,Boston,MA,02026,749000,4,2.0,Located On the Dedham Line,1836,5967,1942,10,408,,Active,August-2-2025 10:00 AM,August-2-2025 12:00 PM,https://www.redfin.com/MA/Dedham/22-Bonad-Rd-02026/home/196622717,MLS PIN,73407527,N,Y,42.2584627,-71.1625216
MLS Listing,,Single Family Residential,104 Salman St,Boston,MA,02132,799000,3,1.5,West Roxbury,1404,4410,1959,10,569,,Active,August-2-2025 11:00 AM,August-2-2025 01:00 PM,https://www.redfin.com/MA/West-Roxbury/104-Salman-St-02132/home/9220782,MLS PIN,73407519,N,Y,42.262765,-71.1656694
MLS Listing,,Condo/Co-op,55 Maple St Unit B,Milton,MA,02186,499000,2,1.0,Milton,1046,6534,1900,10,477,240,Active,,,https://www.redfin.com/MA/Milton/55-Maple-St-02186/unit-B/home/8912402,MLS PIN,73407510,N,Y,42.2684957,-71.076542
MLS Listing,,Multi-Family (2-4 Unit),15 Quincefield St,Boston,MA,02125,849000,5,3.0,Dorchester,2910,3215,1910,10,292,,Active,,,https://www.redfin.com/MA/Dorchester/15-Quincefield-St-02125/home/9064675,MLS PIN,73407499,N,Y,42.3185538,-71.0665111
MLS Listing,,Townhouse,40 Elmont St #02,Boston,MA,02121,775000,3,2.5,Boston,2382,,2025,10,325,325,Active,August-2-2025 12:00 PM,August-2-2025 01:30 PM,https://www.redfin.com/MA/Dorchester/40-Elmont-St-02121/unit-2/home/195155298,MLS PIN,73407487,N,Y,42.2988706,-71.0777429
MLS Listing,,Condo/Co-op,175 Clare Ave Unit B4,Boston,MA,02136,249900,1,1.0,Boston,595,595,1960,10,420,400,Active,August-2-2025 11:00 AM,August-2-2025 12:30 PM,https://www.redfin.com/MA/Hyde-Park/175-Clare-Ave-02136/unit-B4/home/9136206,MLS PIN,73407446,N,Y,42.271983,-71.1193689
MLS Listing,,Condo/Co-op,240 Devonshire St Unit U5401,Boston,MA,02110,6675000,3,3.5,Midtown,2369,,2023,10,2818,4506,Active,,,https://www.redfin.com/MA/Boston/240-Devonshire-St-02110/unit-U5401/home/196518187,MLS PIN,73407444,N,Y,42.3547086,-71.0572005
MLS Listing,,Condo/Co-op,2 Hillside Ave #2,Boston,MA,02130,515000,1,1.0,Jamaica Plain's Forest Hills,897,897,1890,10,574,300,Active,August-2-2025 12:00 PM,August-2-2025 01:00 PM,https://www.redfin.com/MA/Boston/2-Hillside-Ave-02130/unit-2/home/138399624,MLS PIN,73407424,N,Y,42.2977853,-71.1131727
MLS Listing,,Multi-Family (2-4 Unit),14-18 Fabyan St,Boston,MA,02124,1399000,13,3.0,Dorchester,4062,5081,1900,10,344,,Active,,,https://www.redfin.com/MA/Dorchester/14-Fabyan-St-02124/home/9096450,MLS PIN,73407401,N,Y,42.2892612,-71.0906048
MLS Listing,,Condo/Co-op,1241-1251 Adams St Unit F309,Boston,MA,02124,499900,1,1.0,Boston,802,802,1900,10,623,619,Active,,,https://www.redfin.com/MA/Dorchester/1241-1251-Adams-St-02124/unit-F309/home/9064495,MLS PIN,73407277,N,Y,42.2713267,-71.0694396
MLS Listing,,Condo/Co-op,294 Newbury St Unit 3D,Boston,MA,02115,1075000,1,1.0,Back Bay,735,,1900,10,1463,526,Active,,,https://www.redfin.com/MA/Boston/294-Newbury-St-02115/unit-3D/home/18982425,MLS PIN,73407198,N,Y,42.3487579,-71.084707
MLS Listing,,Condo/Co-op,1408 Commonwealth Ave Unit 8-15,Boston,MA,02135,444900,1,1.0,Brighton,685,,1910,10,649,448,Active,,,https://www.redfin.com/MA/Boston/1408-Commonwealth-Ave-02134/unit-8-15/home/196511089,MLS PIN,73407195,N,Y,42.3484137,-71.1386548
MLS Listing,,Condo/Co-op,1395 Washington St #505,Boston,MA,02118,1285000,2,1.5,South End,871,,2025,10,1475,665,Active,,,https://www.redfin.com/MA/Boston/1395-Washington-St-02118/unit-505/home/195462953,MLS PIN,73407174,N,Y,42.3413429,-71.0702513
MLS Listing,,Multi-Family (2-4 Unit),977-979 Adams,Boston,MA,02124,1149000,5,2.0,Dorchester's Lower Mills,2612,5079,1920,10,440,,Active,,,https://www.redfin.com/MA/Boston/977-979-Adams-St-02124/home/196510717,MLS PIN,73407172,N,Y,42.277476,-71.0604404
MLS Listing,,Condo/Co-op,301 Border St #507,Boston,MA,02128,899000,3,2.0,Boston,1268,,2024,10,709,956,Active,,,https://www.redfin.com/MA/Boston/301-Border-St-02128/unit-507/home/176378081,MLS PIN,73407056,N,Y,42.3779292,-71.0397945
MLS Listing,,Multi-Family (2-4 Unit),411 Adams St,Boston,MA,02122,1500000,4,5.0,Dorchester,3600,1570,2020,12,417,,Active,,,https://www.redfin.com/MA/Dorchester/411-Adams-St-02122/home/175640902,MLS PIN,73406980,N,Y,42.295241,-71.056455
MLS Listing,,Condo/Co-op,70 Leo M Birmingham Pkwy #504,Boston,MA,02135,739000,1,1.0,Brighton,673,,2023,12,1098,570,Active,,,https://www.redfin.com/MA/Brighton/70-Leo-M-Birmingham-Pkwy-02135/unit-504/home/188851952,MLS PIN,73381666,N,Y,42.3591454,-71.1468476
MLS Listing,,Condo/Co-op,100 Shawmut Ave #506,Boston,MA,02118,799000,1,1.0,South End,658,,2021,12,1214,636,Active,,,https://www.redfin.com/MA/Roxbury/100-Shawmut-Ave-02118/unit-506/home/175742632,MLS PIN,73406871,N,Y,42.3466841,-71.0656551
MLS Listing,,Vacant Land,69 Woolson St,Boston,MA,02126,375000,,,Mattapan,,4073,,13,,,Active,,,https://www.redfin.com/MA/Mattapan/69-Woolson-St-02126/home/85681569,MLS PIN,73406859,N,Y,42.28058,-71.088585
MLS Listing,,Condo/Co-op,25R Rockland St #6,Boston,MA,02132,359900,2,1.5,Boston,965,,1984,13,373,320,Active,,,https://www.redfin.com/MA/West-Roxbury/25r-Rockland-St-02132/unit-6/home/196499552,MLS PIN,73406729,N,Y,42.2580904,-71.1593036
MLS Listing,,Condo/Co-op,220 Boylston St #9017,Boston,MA,02116,6950000,3,2.5,Back Bay,2199,2200,1985,13,3161,6227,Active,,,https://www.redfin.com/MA/Boston/220-Boylston-St-02116/unit-9017/home/9263407,MLS PIN,73406725,N,Y,42.3521477,-71.0683014
MLS Listing,,Condo/Co-op,6 Whittier Pl Unit 7E,Boston,MA,02114,785000,2,2.0,West End,1268,1268,1964,13,619,1374,Active,,,https://www.redfin.com/MA/Boston/6-Whittier-Pl-02114/unit-7E/home/9228215,MLS PIN,73406704,N,Y,42.365702,-71.066702
MLS Listing,,Multi-Family (2-4 Unit),17 M St,Boston,MA,02127,3149000,12,4.0,South Boston,3297,1600,1905,13,955,,Active,,,https://www.redfin.com/MA/South-Boston/17-M-St-02127/home/9197945,MLS PIN,73406661,N,Y,42.3376583,-71.0335961
MLS Listing,,Condo/Co-op,50 Commonwealth Ave #505,Boston,MA,02116,1195000,1,1.0,Back Bay,860,,1900,13,1390,627,Active,,,https://www.redfin.com/MA/Boston/50-Commonwealth-Ave-02116/unit-505/home/9264403,MLS PIN,73406649,N,Y,42.3525275,-71.0738958
MLS Listing,,Condo/Co-op,100 Lincoln St #207,Boston,MA,02135,829000,2,2.0,Brighton,903,,2024,13,918,715,Active,August-3-2025 11:00 AM,August-3-2025 12:00 PM,https://www.redfin.com/MA/Brighton/100-Lincoln-St-02135/unit-207/home/196490264,MLS PIN,73406612,N,Y,42.3584169,-71.142345
MLS Listing,,Condo/Co-op,45 Bartlett Cres #101,Brookline,MA,02446,1384200,2,2.0,Brookline,1091,,2025,13,1269,616,Active,,,https://www.redfin.com/MA/Brookline/45-Bartlett-Cres-02446/unit-101/home/193363281,MLS PIN,73406576,N,Y,42.3424846,-71.1393999
MLS Listing,,Multi-Family (2-4 Unit),59 Washington,Boston,MA,02129,2300000,5,2.0,Charlestown,3031,2160,1870,13,759,,Active,,,https://www.redfin.com/MA/Charlestown/59-Washington-St-02129/home/196488846,MLS PIN,73406570,N,Y,42.3735886,-71.0656405
MLS Listing,,Condo/Co-op,316 Princeton #2,Boston,MA,02128,624900,2,2.0,East Boston's Eagle Hill,894,,2024,13,699,340,Active,,,https://www.redfin.com/MA/East-Boston/316-Princeton-St-02128/unit-2/home/193361381,MLS PIN,73406511,N,Y,42.3804842,-71.0283951
MLS Listing,,Condo/Co-op,210 South St Unit 2-4,Boston,MA,02111,1030000,2,2.0,Leather District,1708,1708,1920,13,603,897,Active,,,https://www.redfin.com/MA/Boston/210-South-St-02111/unit-24/home/17393082,MLS PIN,73406489,N,Y,42.3498598,-71.0572982
MLS Listing,,Single Family Residential,15 Hallron St,Boston,MA,02136,559000,2,1.0,Boston,1100,4500,1940,13,508,,Active,,,https://www.redfin.com/MA/Hyde-Park/15-Hallron-St-02136/home/9123358,MLS PIN,73406460,N,Y,42.2679768,-71.129313
MLS Listing,,Condo/Co-op,1776 Commonwealth Ave Unit B1,Boston,MA,02135,475000,2,1.0,Boston,727,727,2003,13,653,240,Active,,,https://www.redfin.com/MA/Brighton/1776-Commonwealth-Ave-02135/unit-B1/home/9321867,MLS PIN,73406433,N,Y,42.3405081,-71.1502592
MLS Listing,,Condo/Co-op,13 Bowdoin St Unit 3AB,Boston,MA,02114,1180000,2,2.0,Boston,954,,1890,14,1237,,Active,,,https://www.redfin.com/MA/Boston/13-Bowdoin-St-02114/unit-3A-B/home/113226168,MLS PIN,73406423,N,Y,42.3608936,-71.0631136
MLS Listing,,Condo/Co-op,1 Dalton #3506,Boston,MA,02115,2250000,1,1.5,Boston,897,,2019,14,2508,2688,Active,,,https://www.redfin.com/MA/Boston/1-Dalton-St-02115/unit-3506/home/175644756,MLS PIN,73406421,N,Y,42.345665,-71.0840364
MLS Listing,,Condo/Co-op,190 Salem St #2,Boston,MA,02113,1150000,2,2.0,North End,1103,,2024,14,1043,198,Active,August-1-2025 12:30 PM,August-1-2025 01:30 PM,https://www.redfin.com/MA/Boston/190A-Salem-St-02113/unit-2/home/191320437,MLS PIN,73406389,N,Y,42.3667858,-71.0546221
MLS Listing,,Condo/Co-op,667 Tremont St,Boston,MA,02118,2549000,3,2.5,South End,1686,,2025,14,1512,194,Active,August-2-2025 11:00 AM,August-2-2025 12:00 PM,https://www.redfin.com/MA/Boston/667-Tremont-St-02118/Ph/home/192868697,MLS PIN,73406368,N,Y,42.3419239,-71.0759385
MLS Listing,,Condo/Co-op,667 Tremont St #3,Boston,MA,02118,1150000,2,1.0,South End,738,,2024,14,1558,160,Active,August-2-2025 11:00 AM,August-2-2025 12:00 PM,https://www.redfin.com/MA/Boston/667-Tremont-St-02118/unit-3/home/193968881,MLS PIN,73406359,N,Y,42.3419239,-71.0759385
MLS Listing,,Condo/Co-op,272 Paris St #3,Boston,MA,02128,625000,1,1.0,East Boston,788,,2023,14,793,202,Active,August-2-2025 01:30 PM,August-2-2025 02:30 PM,https://www.redfin.com/MA/East-Boston/272-Paris-St-02128/unit-3/home/196480786,MLS PIN,73406357,N,Y,42.3762649,-71.033503
MLS Listing,,Condo/Co-op,460 Massachusetts Ave Unit B,Boston,MA,02118,1050000,3,1.5,South End,1525,,1899,14,689,267,Active,,,https://www.redfin.com/MA/Boston/460-Massachusetts-Ave-02118/unit-B/home/196480237,MLS PIN,73406316,N,Y,42.3404067,-71.081046
MLS Listing,,Single Family Residential,113 Dakota St,Boston,MA,02124,985000,5,3.5,Boston,2127,4214,1910,14,463,,Active,August-2-2025 02:00 PM,August-2-2025 03:30 PM,https://www.redfin.com/MA/Dorchester/113-Dakota-St-02124/home/9065699,MLS PIN,73406276,N,Y,42.2998051,-71.0676709
MLS Listing,,Multi-Family (2-4 Unit),200 Norfolk St,Boston,MA,02124,1390000,8,3.0,Boston,3546,3295,1899,14,392,,Active,,,https://www.redfin.com/MA/Dorchester/200-Norfolk-St-02124/home/9080123,MLS PIN,73406271,N,Y,42.2858737,-71.0797497
MLS Listing,,Condo/Co-op,40 Fay St #302,Boston,MA,02118,819000,1,1.0,South End,886,886,2006,14,924,727,Active,August-3-2025 01:30 PM,August-3-2025 02:30 PM,https://www.redfin.com/MA/Boston/40-Fay-St-02118/unit-302/home/21717863,MLS PIN,73406263,N,Y,42.3433259,-71.0647962
MLS Listing,,Condo/Co-op,55 South St #3,Boston,MA,02130,749000,3,1.0,Boston,1350,1216,1900,14,555,200,Active,,,https://www.redfin.com/MA/Jamaica-Plain/55-South-St-02130/unit-3/home/9139497,MLS PIN,73406249,N,Y,42.3079588,-71.1157234
MLS Listing,,Condo/Co-op,107 South St Unit 2A,Boston,MA,02111,1450000,2,2.0,Leather District,2169,,1897,14,669,705,Active,,,https://www.redfin.com/MA/Boston/107-South-St-02111/unit-2A/home/12435511,MLS PIN,73406210,N,Y,42.3514081,-71.0576696
MLS Listing,,Townhouse,602 Canterbury #8,Boston,MA,02131,579000,2,1.5,Roslindale,1174,,2025,14,493,493,Active,August-3-2025 10:00 AM,August-3-2025 11:30 AM,https://www.redfin.com/MA/Roslindale/602-Canterbury-St-02131/unit-8/home/196478356,MLS PIN,73406180,N,Y,42.2873458,-71.1089866
MLS Listing,,Condo/Co-op,33 Pearl St Unit C,Boston,MA,02125,910000,2,2.0,Dorchester's Savin Hill,1430,9750,2025,14,636,350,Active,,,https://www.redfin.com/MA/Dorchester/33-Pearl-St-02125/unit-C/home/196478229,MLS PIN,73406175,N,Y,42.3152125,-71.0584261
MLS Listing,,Single Family Residential,8 Marshall Block,Boston,MA,02129,925000,2,1.5,Charlestown,1113,660,1870,14,831,,Active,,,https://www.redfin.com/MA/Charlestown/8-Marshall-Block-02129/home/9054953,MLS PIN,73406178,N,Y,42.3832982,-71.0688877
MLS Listing,,Condo/Co-op,36 Bryon Rd #5,Boston,MA,02467,399900,2,1.0,Chestnut Hill,780,,1955,14,513,465,Active,August-3-2025 02:00 PM,August-3-2025 03:30 PM,https://www.redfin.com/MA/Chestnut-Hill/36-Bryon-Rd-02467/unit-5/home/9204542,MLS PIN,73406146,N,Y,42.3016839,-71.1674201
MLS Listing,,Multi-Family (2-4 Unit),87-89 Bennett St,Boston,MA,02135,1200000,2,1.0,Brighton,2316,7260,1890,14,518,,Active,,,https://www.redfin.com/MA/Brighton/87-89-Bennett-St-02135/home/196477555,MLS PIN,73406115,N,Y,42.3521091,-71.1578699
MLS Listing,,Single Family Residential,100 Keith St,Boston,MA,02132,599000,4,1.0,West Roxbury,1400,4637,1920,14,428,,Active,,,https://www.redfin.com/MA/West-Roxbury/100-Keith-St-02132/home/9212595,MLS PIN,73406102,N,Y,42.2858569,-71.1700324
MLS Listing,,Condo/Co-op,197 Havre St #2,Boston,MA,02128,787500,2,1.0,East Boston,781,,2025,14,1008,172,Active,,,https://www.redfin.com/MA/East-Boston/197-Havre-St-02128/unit-2/home/196477277,MLS PIN,73406072,N,Y,42.3743746,-71.0363596
MLS Listing,,Multi-Family (2-4 Unit),39 Union St,Boston,MA,02135,2099000,9,3.0,Brighton,3615,6876,1890,14,581,,Active,,,https://www.redfin.com/MA/Brighton/39-Union-St-02135/home/11731842,MLS PIN,73406061,N,Y,42.3454361,-71.1490988
MLS Listing,,Multi-Family (2-4 Unit),105 Erie St,Boston,MA,02121,1025000,8,3.0,Dorchester,2490,1726,1920,14,412,,Active,,,https://www.redfin.com/MA/Dorchester/105-Erie-St-02121/home/9083146,MLS PIN,73406045,N,Y,42.3016003,-71.0827929
MLS Listing,,Condo/Co-op,170 Tremont St #905,Boston,MA,02111,745000,1,1.0,Boston,674,,1989,14,1105,831,Active,,,https://www.redfin.com/MA/Boston/170-Tremont-St-02111/unit-905/home/9232305,MLS PIN,73406031,N,Y,42.353688,-71.0638444
MLS Listing,,Condo/Co-op,1154 Washington St Unit 3/1A,Boston,MA,02118,2695000,3,3.5,South End,2661,2661,1899,14,1013,1095,Active,,,https://www.redfin.com/MA/Roxbury/1154-Washington-St-02118/unit-3/home/9281479,MLS PIN,73405990,N,Y,42.3434194,-71.0658872
MLS Listing,,Multi-Family (2-4 Unit),139 Chelsea St,Boston,MA,02128,1150000,7,3.0,East Boston,2818,1400,1910,14,408,,Active,August-3-2025 11:00 AM,August-3-2025 12:30 PM,https://www.redfin.com/MA/East-Boston/139-Chelsea-St-02128/home/9116792,MLS PIN,73405969,N,Y,42.3731747,-71.0346323
MLS Listing,,Townhouse,602 Canterbury #9,Boston,MA,02131,535000,2,1.5,Roslindale,1060,,2025,14,505,403,Active,August-3-2025 10:00 AM,August-3-2025 11:30 AM,https://www.redfin.com/MA/Roslindale/602-Canterbury-St-02131/unit-9/home/191042188,MLS PIN,73405966,N,Y,42.2876,-71.1092244
MLS Listing,,Parking,457 West Broadway,Boston,MA,02127,35000,,,Boston,,9999,,14,,,Active,,,https://www.redfin.com/MA/Boston/457-W-Broadway-02127/home/190493789,MLS PIN,73405961,N,Y,42.3358642,-71.0465192
MLS Listing,,Condo/Co-op,68 Perkins St #1,Boston,MA,02130,659000,1,1.0,Jamaica Plain,1128,,1940,14,584,293,Active,,,https://www.redfin.com/MA/Jamaica-Plain/68-Perkins-St-02130/unit-1/home/196475841,MLS PIN,73405942,N,Y,42.3211597,-71.1133613
MLS Listing,,Single Family Residential,1 Washington Pl,Boston,MA,02129,1699000,4,1.5,Thompson Square,2467,4296,1835,14,689,,Active,,,https://www.redfin.com/MA/Charlestown/1-Washington-Pl-02129/home/9057768,MLS PIN,73405907,N,Y,42.3735786,-71.0647737
MLS Listing,,Condo/Co-op,319 A St #208,Boston,MA,02210,1199000,2,2.0,Fort Point,1043,,1913,14,1150,1185,Active,,,https://www.redfin.com/MA/Boston/319-A-St-02210/unit-208/home/145285805,MLS PIN,73405903,N,Y,42.3488895,-71.0488567
MLS Listing,,Condo/Co-op,55 West Broadway #5,Boston,MA,02127,1159000,2,2.0,South Boston,1299,,1900,14,892,747,Active,,,https://www.redfin.com/MA/South-Boston/55-W-Broadway-02127/unit-5/home/9318499,MLS PIN,73405890,N,Y,42.3419537,-71.0561137
MLS Listing,,Single Family Residential,57 Rockland St,Boston,MA,02132,949999,3,3.0,West Roxbury,2391,11250,1900,14,397,,Active,,,https://www.redfin.com/MA/West-Roxbury/57-Rockland-St-02132/home/9221205,MLS PIN,73405833,N,Y,42.2572666,-71.1582081
MLS Listing,,Condo/Co-op,70 Saint Rose St #2,Boston,MA,02130,950000,4,2.0,Jamaica Plain,1300,3600,1910,14,731,,Active,August-3-2025 12:00 PM,August-3-2025 01:30 PM,https://www.redfin.com/MA/Boston/70-Saint-Rose-St-02130/unit-2/home/189782650,MLS PIN,73405819,N,Y,42.3045138,-71.1175338
MLS Listing,,Townhouse,28 Woodbine St #1,Boston,MA,02119,779000,3,2.5,Roxbury,1940,3231,1890,14,402,,Active,,,https://www.redfin.com/MA/Boston/28-Woodbine-St-02119/unit-1/home/196456257,MLS PIN,73405817,N,Y,42.3192616,-71.0797882
MLS Listing,,Condo/Co-op,256 Dorchester St #507,Boston,MA,02127,1315000,2,2.0,South Boston,1086,,2024,14,1211,495,Active,,,https://www.redfin.com/MA/Boston/256-Dorchester-St-02127/unit-507/home/191089546,MLS PIN,73405791,N,Y,42.3324046,-71.0514018
MLS Listing,,Single Family Residential,40 Doncaster,Boston,MA,02131,1149900,4,3.5,Roslindale,2108,4547,1900,14,545,,Active,August-2-2025 12:30 PM,August-2-2025 02:30 PM,https://www.redfin.com/MA/Boston/40-Doncaster-St-02131/home/196452718,MLS PIN,73405494,N,Y,42.2742273,-71.1262642
MLS Listing,,Condo/Co-op,6 View South Ave #3,Boston,MA,02130,669000,3,1.0,Jamaica Plain,1142,3484,1929,14,586,300,Active,,,https://www.redfin.com/MA/Jamaica-Plain/6-View-South-Ave-02130/unit-3/home/196189023,MLS PIN,73397099,N,Y,42.3042616,-71.115734
MLS Listing,,Multi-Family (2-4 Unit),23 Garfield Ave,Boston,MA,02136,879999,4,2.0,Boston,2029,6250,1900,15,434,,Active,,,https://www.redfin.com/MA/Hyde-Park/23-Garfield-Ave-02136/home/9131092,MLS PIN,73405670,N,Y,42.2480614,-71.1229161
MLS Listing,,Condo/Co-op,546 Saratoga #3,Boston,MA,02128,649000,2,2.5,Boston,960,,2025,15,676,,Active,August-2-2025 11:00 AM,August-2-2025 01:00 PM,https://www.redfin.com/MA/East-Boston/546-Saratoga-St-02128/unit-3/home/196451463,MLS PIN,73405647,N,Y,42.3809733,-71.025168
MLS Listing,,Multi-Family (2-4 Unit),239 Northampton St,Boston,MA,02118,2000000,3,3.0,Boston,2327,1645,1875,15,859,,Active,,,https://www.redfin.com/MA/Roxbury/239-Northampton-St-02118/home/9290585,MLS PIN,73405640,N,Y,42.3387338,-71.0806953
MLS Listing,,Condo/Co-op,68 Armandine St #2,Boston,MA,02124,629900,3,2.0,Dorchester's Ashmont,1195,,2022,15,527,275,Active,August-2-2025 12:00 PM,August-2-2025 01:00 PM,https://www.redfin.com/MA/Boston/68-Armandine-St-02124/unit-2/home/180727494,MLS PIN,73405618,N,Y,42.2841289,-71.0739836
MLS Listing,,Townhouse,78 Fort Ave #78,Boston,MA,02119,1149000,3,2.5,Roxbury's Fort Hill,1647,,2020,15,698,405,Active,August-2-2025 11:00 AM,August-2-2025 12:30 PM,https://www.redfin.com/MA/Roxbury/78-80-Fort-Ave-02119/unit-78/home/196211854,MLS PIN,73405530,N,Y,42.326771,-71.096215
MLS Listing,,Condo/Co-op,150 Dorchester Ave #612,Boston,MA,02127,1269000,2,2.0,South Boston,1422,,2016,15,892,837,Active,August-1-2025 06:00 PM,August-1-2025 07:00 PM,https://www.redfin.com/MA/South-Boston/150-Dorchester-Ave-02127/unit-612/home/105952290,MLS PIN,73405516,N,Y,42.3418472,-71.0568803
MLS Listing,,Condo/Co-op,45 Lewis St #214,Boston,MA,02128,1174999,2,2.0,East Boston's Jeffries Point,1090,,2021,15,1078,915,Active,August-6-2025 05:30 PM,August-6-2025 07:00 PM,https://www.redfin.com/MA/Boston/45-Lewis-St-02128/unit-214/home/169895466,MLS PIN,73405503,N,Y,42.3668738,-71.0415936
MLS Listing,,Condo/Co-op,240 Devonshire St #4206,Boston,MA,02110,4050000,2,2.5,Midtown,1755,,2023,15,2308,2972,Active,,,https://www.redfin.com/MA/Boston/240-Devonshire-St-02110/unit-4206/home/196449001,MLS PIN,73405473,N,Y,42.3547086,-71.0572005
MLS Listing,,Condo/Co-op,88 Maverick St #5,Boston,MA,02128,625000,1,1.5,East Boston's Jeffries Point,719,,1900,15,869,113,Active,,,https://www.redfin.com/MA/East-Boston/88-Maverick-St-02128/unit-5/home/196448923,MLS PIN,73405463,N,Y,42.370785,-71.0400063
MLS Listing,,Condo/Co-op,1 Huntington Ave #603,Boston,MA,02116,3975000,3,3.0,Back Bay,2702,2702,1999,15,1471,3598,Active,,,https://www.redfin.com/MA/Boston/1-Huntington-Ave-02116/unit-603/home/9303843,MLS PIN,73405430,N,Y,42.3486982,-71.0782134
MLS Listing,,Condo/Co-op,342-344 North St Unit 1A,Boston,MA,02113,529000,1,1.0,North End,407,,1900,15,1300,200,Active,August-2-2025 12:00 PM,August-2-2025 01:00 PM,https://www.redfin.com/MA/Boston/342-344-North-St-02113/unit-1A/home/9304689,MLS PIN,73405426,N,Y,42.3651738,-71.0520266
MLS Listing,,Condo/Co-op,135 Seaport Blvd #1903,Boston,MA,02210,1999000,2,2.0,Boston,1044,,2018,15,1915,2125,Active,,,https://www.redfin.com/MA/Boston/135-Seaport-Blvd-02210/unit-1903/home/176546416,MLS PIN,73405404,N,Y,42.3499752,-71.0435321
MLS Listing,,Condo/Co-op,106 Moore,Boston,MA,02128,774900,2,2.0,East Boston,1050,,2025,15,738,370,Active,,,https://www.redfin.com/MA/East-Boston/106-Moore-St-02128/home/9108652,MLS PIN,73405296,N,Y,42.3813447,-71.0178085
MLS Listing,,Condo/Co-op,90 Boylston St #1,Boston,MA,02130,849900,2,2.0,Jamaica Plain,1538,,1998,15,553,250,Active,August-3-2025 10:30 AM,August-3-2025 12:30 PM,https://www.redfin.com/MA/Jamaica-Plain/90-Boylston-St-02130/unit-1/home/9299874,MLS PIN,73405288,N,Y,42.3172407,-71.1050004
MLS Listing,,Multi-Family (2-4 Unit),28 Wabon St,Boston,MA,02121,890000,5,2.0,Boston,1790,4175,1910,15,497,,Active,,,https://www.redfin.com/MA/Dorchester/28-Wabon-St-02121/home/9087602,MLS PIN,73405283,N,Y,42.3145614,-71.08666
MLS Listing,,Condo/Co-op,7 Fox St #1,Boston,MA,02122,675000,3,2.0,Dorchester,1450,,2006,15,466,300,Active,August-2-2025 11:00 AM,August-2-2025 12:00 PM,https://www.redfin.com/MA/Dorchester/7-Fox-St-02122/unit-1/home/18995614,MLS PIN,73405249,N,Y,42.3067196,-71.062894
MLS Listing,,Condo/Co-op,910 Beacon St #4,Boston,MA,02215,1249000,2,2.0,Boston,1276,,2004,15,979,659,Active,,,https://www.redfin.com/MA/Boston/910-Beacon-St-02215/unit-4/home/12439744,MLS PIN,73405215,N,Y,42.3467359,-71.1061141
MLS Listing,,Condo/Co-op,2 Clarendon St #606,Boston,MA,02116,998000,1,1.0,South End,749,749,1988,15,1332,1012,Active,,,https://www.redfin.com/MA/Boston/2-Clarendon-St-02116/unit-606/home/9233009,MLS PIN,73405176,N,Y,42.344266,-71.072464
MLS Listing,,Townhouse,596 Tremont St #2,Boston,MA,02118,1050000,1,1.0,South End,880,,1870,15,1193,333,Active,August-2-2025 12:00 PM,August-2-2025 01:00 PM,https://www.redfin.com/MA/Boston/596-Tremont-St-02118/unit-2/home/9327233,MLS PIN,73405159,N,Y,42.3428593,-71.073153
MLS Listing,,Multi-Family (5+ Unit),134-140 Smith St,Boston,MA,02120,2100000,11,7.0,Mission Hill,4682,2113,1960,15,449,,Active,,,https://www.redfin.com/MA/Mission-Hill/134-140-Smith-St-02120/home/196434557,MLS PIN,73405137,N,Y,42.334743,-71.102118
MLS Listing,,Condo/Co-op,420 West Broadway #409,Boston,MA,02127,949000,2,2.0,South Boston,1063,,2020,15,893,545,Active,August-2-2025 11:00 AM,August-2-2025 12:30 PM,https://www.redfin.com/MA/Boston/420-W-Broadway-02127/unit-409/home/174224683,MLS PIN,73405126,N,Y,42.3367406,-71.0472268
MLS Listing,,Condo/Co-op,43 Withington St #7,Boston,MA,02124,645000,2,2.0,Boston,1100,,2023,15,586,565,Active,August-2-2025 11:00 AM,August-2-2025 12:00 PM,https://www.redfin.com/MA/Boston/43-Withington-St-02124/unit-7/home/189049645,MLS PIN,73405059,N,Y,42.2880732,-71.0729157
MLS Listing,,Condo/Co-op,519 Columbus Ave #1,Boston,MA,02118,820000,2,1.0,Boston,771,771,1900,15,1064,225,Active,August-3-2025 02:00 PM,August-3-2025 03:30 PM,https://www.redfin.com/MA/Roxbury/519-Columbus-Ave-02118/unit-1/home/9309014,MLS PIN,73405019,N,Y,42.3421769,-71.080134
MLS Listing,,Condo/Co-op,256 Dorchester St #303,Boston,MA,02127,868000,2,2.0,South Boston,1103,,2025,15,787,450,Active,,,https://www.redfin.com/MA/Boston/256-Dorchester-St-02127/unit-303/home/190115039,MLS PIN,73405004,N,Y,42.3324046,-71.0514018
MLS Listing,,Condo/Co-op,1104 Adams St #2,Boston,MA,02124,674000,2,2.0,Boston,885,,1925,16,762,236,Active,August-2-2025 11:30 AM,August-2-2025 12:30 PM,https://www.redfin.com/MA/Dorchester/1104-Adams-St-02124/unit-2/home/170266242,MLS PIN,73404996,N,Y,42.2736756,-71.0630836
MLS Listing,,Condo/Co-op,156 Everett #1,Boston,MA,02128,349000,1,1.0,East Boston's Jeffries Point,550,,1899,16,635,150,Active,,,https://www.redfin.com/MA/Boston/156-Everett-St-02128/unit-1/home/196428288,MLS PIN,73404985,N,Y,42.3666018,-71.0322496
MLS Listing,,Multi-Family (2-4 Unit),156 Everett,Boston,MA,02128,1095000,3,3.0,East Boston,2308,823,1899,16,474,,Active,,,https://www.redfin.com/MA/Boston/156-Everett-St-02128/home/177433012,MLS PIN,73404980,N,Y,42.3666018,-71.0322496
MLS Listing,,Condo/Co-op,229 Kelton St #1,Boston,MA,02134,429000,1,1.0,Brighton,560,560,1890,16,766,409,Active,,,https://www.redfin.com/MA/Allston/229-Kelton-St-02134/unit-1/home/9298634,MLS PIN,73404943,N,Y,42.3465369,-71.13672
MLS Listing,,Condo/Co-op,237 Trenton St Unit A,Boston,MA,02128,719000,3,2.0,East Boston,1224,1224,1991,16,587,250,Active,August-2-2025 10:30 AM,August-2-2025 12:15 PM,https://www.redfin.com/MA/East-Boston/237-Trenton-St-02128/unit-A/home/9113943,MLS PIN,73404930,N,Y,42.381055,-71.0301749
MLS Listing,,Condo/Co-op,100 Lovejoy Wharf Unit 11N,Boston,MA,02114,799000,1,1.0,Waterfront,736,,2017,16,1086,974,Active,,,https://www.redfin.com/MA/Boston/100-Lovejoy-Wharf-02114/unit-11N/home/167701794,MLS PIN,73404922,N,Y,42.3667952,-71.060099
MLS Listing,,Multi-Family (2-4 Unit),116 Evans St,Boston,MA,02124,1680000,11,6.0,Dorchester,3420,5100,2024,16,491,,Active,,,https://www.redfin.com/MA/Dorchester/116-Evans-St-02124/home/9084888,MLS PIN,73404912,N,Y,42.2814275,-71.0832648
MLS Listing,,Multi-Family (2-4 Unit),34 Norton St,Boston,MA,02125,1399999,10,3.0,Boston,3384,2770,1905,16,414,,Active,,,https://www.redfin.com/MA/Dorchester/34-Norton-St-02125/home/9071388,MLS PIN,73404905,N,Y,42.3067319,-71.0686496
MLS Listing,,Multi-Family (2-4 Unit),80 Mount Pleasant Ave,Boston,MA,02119,1300000,8,4.0,Boston,3256,1600,1890,16,399,,Active,,,https://www.redfin.com/MA/Roxbury/80-Mount-Pleasant-Ave-02119/home/9296463,MLS PIN,73404883,N,Y,42.3258773,-71.0780126
MLS Listing,,Condo/Co-op,388 Marlborough St #5,Boston,MA,02115,699000,1,1.0,Back Bay,554,554,1880,16,1262,511,Active,,,https://www.redfin.com/MA/Boston/388-Marlborough-St-02115/unit-5/home/9243633,MLS PIN,73404859,N,Y,42.3502027,-71.087684
MLS Listing,,Condo/Co-op,2420 Beacon #402,Boston,MA,02467,1899900,2,2.5,Boston,1900,,1890,16,1000,2014,Active,,,https://www.redfin.com/MA/Chestnut-Hill/2420-Beacon-St-02467/unit-402/home/21718931,MLS PIN,73404834,N,Y,42.3328616,-71.1539045
MLS Listing,,Condo/Co-op,1395 Washington St #404,Boston,MA,02118,1475000,2,1.5,South End,1041,,2025,16,1417,764,Active,,,https://www.redfin.com/MA/Boston/1395-Washington-St-02118/unit-404/home/196426943,MLS PIN,73404828,N,Y,42.3413429,-71.0702513
MLS Listing,,Condo/Co-op,8 Enterprise St #1,Boston,MA,02125,975000,3,3.0,South Boston,1810,,2018,16,539,500,Active,,,https://www.redfin.com/MA/Dorchester/8-Enterprise-St-02125/unit-1/home/184647015,MLS PIN,73404820,N,Y,42.3229309,-71.061525
MLS Listing,,Condo/Co-op,180 Commonwealth Ave #14,Boston,MA,02116,1399000,2,2.0,Back Bay,1035,,1924,16,1352,942,Active,August-3-2025 12:00 PM,August-3-2025 01:00 PM,https://www.redfin.com/MA/Boston/180-Commonwealth-Ave-02116/unit-14/home/9265025,MLS PIN,73404795,N,Y,42.3510958,-71.0795365
MLS Listing,,Condo/Co-op,7 Wordsworth #101,Boston,MA,02128,525000,1,1.0,East Boston,671,,2023,16,782,274,Active,,,https://www.redfin.com/MA/Boston/7-Wordsworth-St-02128/unit-101/home/196426027,MLS PIN,73404784,N,Y,42.3852308,-71.0194675
MLS Listing,,Condo/Co-op,360 Newbury St Ph 807,Boston,MA,02115,2399000,2,2.0,Back Bay,2062,,1918,16,1163,2519,Active,August-2-2025 01:30 PM,August-2-2025 03:00 PM,https://www.redfin.com/MA/Boston/360-Newbury-St-02115/unit-807/home/12439783,MLS PIN,73404761,N,Y,42.3479336,-71.0877545
MLS Listing,,Single Family Residential,52 Wren St,Boston,MA,02132,1380000,7,2.0,Bellevue Hill,3903,8233,1900,16,354,,Active,August-2-2025 12:00 PM,August-2-2025 01:30 PM,https://www.redfin.com/MA/West-Roxbury/52-Wren-St-02132/home/9209566,MLS PIN,73404741,N,Y,42.281328,-71.1514661
MLS Listing,,Condo/Co-op,300 Commercial St #709,Boston,MA,02109,1100000,2,1.0,Waterfront,784,784,1900,16,1403,885,Active,August-3-2025 11:00 AM,August-3-2025 12:00 PM,https://www.redfin.com/MA/Boston/300-Commercial-St-02109/unit-709/home/9231652,MLS PIN,73404729,N,Y,42.3650294,-71.0515875
MLS Listing,,Condo/Co-op,59 Story St #3,Boston,MA,02127,749900,2,1.0,South Boston's Dorchester Heights,779,779,1890,16,963,200,Active,,,https://www.redfin.com/MA/South-Boston/59-Story-St-02127/unit-3/home/40008197,MLS PIN,73404659,N,Y,42.3333183,-71.0420972
MLS Listing,,Condo/Co-op,15 Yuill Cir #4,Boston,MA,02136,675000,3,2.0,Hyde Park's Readville,1610,,2025,16,419,,Active,,,https://www.redfin.com/MA/Boston/15-Yuill-Cir-02136/unit-4/home/196419699,MLS PIN,73404649,N,Y,42.2374486,-71.1303906
MLS Listing,,Condo/Co-op,15 Yuill Cir #2,Boston,MA,02136,625000,2,2.0,Hyde Park's Readville,1061,,2025,16,589,,Active,,,https://www.redfin.com/MA/Boston/15-Yuill-Cir-02136/unit-2/home/196419668,MLS PIN,73404641,N,Y,42.2374486,-71.1303906
MLS Listing,,Condo/Co-op,2 Commonwealth Unit 9A,Boston,MA,02116,9500000,3,2.5,Back Bay,2684,,1982,16,3539,6844,Active,,,https://www.redfin.com/MA/Boston/2-Commonwealth-Ave-02116/unit-9A/home/9263784,MLS PIN,73404619,N,Y,42.353398,-71.071696
MLS Listing,,Condo/Co-op,6 Whittier Pl Unit 15O,Boston,MA,02114,557000,1,1.0,West End,835,742,1964,16,667,1009,Active,,,https://www.redfin.com/MA/Boston/6-Whittier-Pl-02114/unit-15O/home/9228481,MLS PIN,73404604,N,Y,42.365702,-71.066702
MLS Listing,,Condo/Co-op,15 Grant St #3,Boston,MA,02125,415000,1,1.0,Dorchester's Savin Hill,699,,1922,16,594,200,Active,,,https://www.redfin.com/MA/Boston/15-Grant-St-02125/unit-3/home/196419434,MLS PIN,73404598,N,Y,42.3181811,-71.0555859
MLS Listing,,Condo/Co-op,2 Weld Hill St #201,Boston,MA,02130,799000,3,2.0,Jamaica Plain,1020,,2025,16,783,272,Active,,,https://www.redfin.com/MA/Boston/2-Weld-Hill-St-02130/unit-201/home/194329486,MLS PIN,73404591,N,Y,42.2991123,-71.1140898
MLS Listing,,Single Family Residential,52 Harvard St,Boston,MA,02129,1694000,3,3.0,Charlestown,1755,650,1900,16,965,,Active,August-3-2025 12:30 PM,August-3-2025 01:30 PM,https://www.redfin.com/MA/Charlestown/52-Harvard-St-02129/home/9057375,MLS PIN,73404588,N,Y,42.3733175,-71.0633014
MLS Listing,,Condo/Co-op,852 East Broadway #3,Boston,MA,02127,825000,3,1.0,South Boston,1302,1302,1899,16,634,343,Active,,,https://www.redfin.com/MA/South-Boston/852-E-Broadway-02127/unit-3/home/9314249,MLS PIN,73404566,N,Y,42.3358834,-71.0302048
MLS Listing,,Condo/Co-op,249 Roxbury St #1,Boston,MA,02119,469000,2,1.0,Roxbury's Fort Hill,815,815,1910,16,575,407,Active,,,https://www.redfin.com/MA/Roxbury/249-Roxbury-St-02119/unit-1/home/11837222,MLS PIN,73404551,N,Y,42.3303584,-71.0932614
MLS Listing,,Condo/Co-op,3417 Washington St #2,Boston,MA,02130,599900,3,1.0,Jamaica Plain,945,,1900,16,635,242,Active,August-3-2025 12:00 PM,August-3-2025 01:00 PM,https://www.redfin.com/MA/Jamaica-Plain/3417-Washington-St-02130/unit-2/home/173422671,MLS PIN,73404512,N,Y,42.3081428,-71.1061141
MLS Listing,,Condo/Co-op,150 Orleans St #406,Boston,MA,02128,669000,2,1.0,East Boston's Jeffries Point,948,,1924,16,706,717,Active,August-3-2025 01:00 PM,August-3-2025 02:00 PM,https://www.redfin.com/MA/East-Boston/150-Orleans-St-02128/unit-406/home/11835206,MLS PIN,73404455,N,Y,42.3704736,-71.0360104
MLS Listing,,Multi-Family (2-4 Unit),59 Wenham St,Boston,MA,02130,1365000,6,3.0,Jamaica Plain,4086,3600,1896,16,334,,Active,,,https://www.redfin.com/MA/Jamaica-Plain/59-Wenham-St-02130/home/9151700,MLS PIN,73404410,N,Y,42.297021,-71.1140551
MLS Listing,,Multi-Family (5+ Unit),722 E 6th St,Boston,MA,02127,2600000,8,6.0,South Boston,3680,1219,1899,16,707,,Active,,,https://www.redfin.com/MA/Boston/722-E-6th-St-02127/home/177432836,MLS PIN,73404398,N,Y,42.3332858,-71.0314031
MLS Listing,,Condo/Co-op,53 Walk Hl #3,Boston,MA,02130,739000,2,2.0,Jamaica Plain,1161,,1910,16,637,250,Active,August-1-2025 01:00 PM,August-1-2025 03:00 PM,https://www.redfin.com/MA/Boston/53-Walk-Hill-St-02130/unit-3/home/196412908,MLS PIN,73404397,N,Y,42.2940528,-71.1148133
MLS Listing,,Condo/Co-op,61 Charlotte St #2,Boston,MA,02121,629000,3,2.0,Dorchester,1453,,1910,16,433,275,Active,August-2-2025 12:00 PM,August-2-2025 02:00 PM,https://www.redfin.com/MA/Dorchester/61-Charlotte-St-02121/unit-2/home/169651714,MLS PIN,73404378,N,Y,42.2984747,-71.0840666
MLS Listing,,Single Family Residential,53 Monmouth St,Boston,MA,02128,899000,4,1.5,East Boston's Eagle Hill,1820,2500,1880,17,494,,Active,August-2-2025 10:30 AM,August-2-2025 12:00 PM,https://www.redfin.com/MA/East-Boston/53-Monmouth-St-02128/home/9121024,MLS PIN,73404351,N,Y,42.3800482,-71.0368926
MLS Listing,,Condo/Co-op,240 Devonshire St #4011,Boston,MA,02110,1575000,1,1.0,Midtown,882,,2023,17,1786,1087,Active,,,https://www.redfin.com/MA/Boston/240-Devonshire-St-02110/unit-4011/home/196409741,MLS PIN,73404321,N,Y,42.3547086,-71.0572005
MLS Listing,,Condo/Co-op,240 Devonshire St #3804,Boston,MA,02110,2390000,1,1.5,Midtown,1330,,2023,17,1797,2124,Active,,,https://www.redfin.com/MA/Boston/240-Devonshire-St-02110/unit-3804/home/195973119,MLS PIN,73404322,N,Y,42.3547686,-71.0571684
MLS Listing,,Condo/Co-op,100 Shawmut Ave Unit 201A,Boston,MA,02118,1079000,1,1.0,South End,937,,2020,17,1152,931,Active,,,https://www.redfin.com/MA/Boston/100-Shawmut-Ave-02118/unit-201A/home/196408677,MLS PIN,73404237,N,Y,42.3466841,-71.0656551
MLS Listing,,Condo/Co-op,150 Seaport Blvd Unit 9F,Boston,MA,02210,1890000,1,1.0,Seaport District,895,,2022,17,2112,1459,Active,,,https://www.redfin.com/MA/Boston/150-Seaport-Blvd-02210/unit-9F/home/190807427,MLS PIN,73404218,N,Y,42.3507536,-71.042766
MLS Listing,,Single Family Residential,278 Princeton St,Boston,MA,02128,629000,3,1.5,East Boston,1093,1306,1900,17,575,,Active,,,https://www.redfin.com/MA/East-Boston/278-Princeton-St-02128/home/9106893,MLS PIN,73404191,N,Y,42.3800833,-71.0295102
MLS Listing,,Multi-Family (2-4 Unit),550 E 3rd St,Boston,MA,02127,1850000,6,3.0,South Boston,2501,1045,2000,17,740,,Active,,,https://www.redfin.com/MA/South-Boston/550-E-3rd-St-02127/home/9227825,MLS PIN,73404193,N,Y,42.3365609,-71.0378603
MLS Listing,,Multi-Family (5+ Unit),1-4 Schrepel Pl,Boston,MA,02127,6200000,20,12.0,South Boston,11070,6490,1920,17,560,,Active,,,https://www.redfin.com/MA/South-Boston/1-Schrepel-Pl-02127/home/9227821,MLS PIN,73404175,N,Y,42.3366812,-71.0378676
MLS Listing,,Condo/Co-op,841 Parker St #203,Boston,MA,02120,685000,2,2.0,Mission Hill,826,826,1899,17,829,773,Active,,,https://www.redfin.com/MA/Roxbury/841-Parker-St-02120/unit-203/home/17454164,MLS PIN,73404124,N,Y,42.3275823,-71.0999835
MLS Listing,,Condo/Co-op,136 West Sixth St Unit 1A,Boston,MA,02127,399000,1,1.0,South Boston,500,,1890,17,798,200,Active,,,https://www.redfin.com/MA/Boston/136-W-Sixth-St-02127/unit-1A/home/196404854,MLS PIN,73404086,N,Y,42.3368319,-71.0528643
MLS Listing,,Condo/Co-op,206 Allandale Rd Unit 3C,Boston,MA,02467,2250000,3,3.0,Chestnut Hill,3622,,1989,17,621,2709,Active,,,https://www.redfin.com/MA/Chestnut-Hill/206-Allandale-Rd-02467/unit-3C/home/9300039,MLS PIN,73404088,N,Y,42.3015826,-71.1392506
MLS Listing,,Multi-Family (2-4 Unit),75 Ruthven St,Boston,MA,02121,1275000,11,3.0,Roxbury's Franklin Park,3000,99999999,1890,17,425,,Active,,,https://www.redfin.com/MA/Boston/75-Ruthven-St-02121/home/9092863,MLS PIN,73404067,N,Y,42.3132407,-71.0915369
MLS Listing,,Multi-Family (2-4 Unit),87 Maple St,Boston,MA,02121,1999000,8,2.5,Dorchester,4172,5944,2012,17,479,,Active,,,https://www.redfin.com/MA/Dorchester/87-Maple-St-02121/home/11834962,MLS PIN,73404038,N,Y,42.3079539,-71.0866772
MLS Listing,,Condo/Co-op,73 Chelsea St #101,Boston,MA,02129,1095000,2,2.0,Charlestown,1117,,2000,17,980,787,Active,August-2-2025 11:00 AM,August-2-2025 12:00 PM,https://www.redfin.com/MA/Charlestown/73-Chelsea-St-02129/unit-101/home/9310592,MLS PIN,73403982,N,Y,42.3733157,-71.0583665
MLS Listing,,Condo/Co-op,51 Park Dr #11,Boston,MA,02215,549000,1,1.0,The Fenway,534,,1920,17,1028,469,Active,,,https://www.redfin.com/MA/Boston/51-Park-Dr-02215/unit-11/home/9273834,MLS PIN,73403959,N,Y,42.3431964,-71.0950422
MLS Listing,,Condo/Co-op,121 Tremont St Unit B4,Boston,MA,02135,575000,2,1.0,Brighton,909,,1964,17,633,553,Active,,,https://www.redfin.com/MA/Brighton/121-Tremont-St-02135/unit-B4/home/9040835,MLS PIN,73403928,N,Y,42.3517293,-71.1735876
MLS Listing,,Condo/Co-op,32 Williams #1,Boston,MA,02119,799000,2,3.0,Boston,1800,,1968,17,444,250,Active,,,https://www.redfin.com/MA/Boston/32-Williams-St-02119/unit-1/home/175645511,MLS PIN,73403907,N,Y,42.3324928,-71.0829025
MLS Listing,,Condo/Co-op,19 Standard #2,Boston,MA,02126,585000,3,2.0,Boston,1600,,1950,17,366,,Active,,,https://www.redfin.com/MA/Boston/19-Standard-St-02126/unit-2/home/187796430,MLS PIN,73403902,N,Y,42.2726379,-71.0784285
MLS Listing,,Condo/Co-op,88 Marlborough St #2,Boston,MA,02116,1180000,1,1.0,Back Bay,1104,1104,1910,17,1069,448,Active,,,https://www.redfin.com/MA/Boston/88-Marlborough-St-02116/unit-2/home/9306612,MLS PIN,73403851,N,Y,42.3534433,-71.0759682
MLS Listing,,Condo/Co-op,180 Telford St #412,Boston,MA,02135,599900,1,1.0,Allston,647,,2018,17,927,652,Active,,,https://www.redfin.com/MA/Brighton/180-Telford-St-02135/unit-412/home/171787848,MLS PIN,73403832,N,Y,42.3636029,-71.1378893
MLS Listing,,Single Family Residential,15 Atlantis St,Boston,MA,02132,624900,4,1.0,West Roxbury,1483,5180,1907,17,421,,Active,,,https://www.redfin.com/MA/West-Roxbury/15-Atlantis-St-02132/home/9210501,MLS PIN,73403830,N,Y,42.2886672,-71.1684079
MLS Listing,,Condo/Co-op,616 E 4th St #204,Boston,MA,02127,1050000,2,2.0,South Boston,1126,1122,1900,17,933,517,Active,August-3-2025 11:00 AM,August-3-2025 12:30 PM,https://www.redfin.com/MA/South-Boston/616-E-4th-St-02127/unit-204/home/52739338,MLS PIN,73403108,N,Y,42.3349101,-71.0402124
MLS Listing,,Condo/Co-op,1 Franklin St #1004,Boston,MA,02110,1645000,2,2.0,Midtown,1498,,2016,18,1098,1810,Active,,,https://www.redfin.com/MA/Boston/1-Franklin-St-02110/unit-1004/home/145254387,MLS PIN,73403820,N,Y,42.3557146,-71.0591826
MLS Listing,,Single Family Residential,21 Bexley Rd,Boston,MA,02131,789500,3,1.0,Roslindale,1892,4000,1910,18,417,,Active,,,https://www.redfin.com/MA/Roslindale/21-Bexley-Rd-02131/home/9178881,MLS PIN,73403801,N,Y,42.2875353,-71.1256574
MLS Listing,,Single Family Residential,17 Myrtle,Boston,MA,02130,1900000,7,3.5,Jamaica Plain,3236,7065,1865,18,587,,Active,,,https://www.redfin.com/MA/Jamaica-Plain/17-Myrtle-St-02130/home/9144547,MLS PIN,73403792,N,Y,42.3142273,-71.1160948
MLS Listing,,Condo/Co-op,133 Boardman St #1,Boston,MA,02128,549999,1,1.0,East Boston,831,,2024,18,662,270,Active,,,https://www.redfin.com/MA/Boston/133-Boardman-St-02128/unit-1/home/188261093,MLS PIN,73403741,N,Y,42.391194,-71.0125161
MLS Listing,,Condo/Co-op,56 Wenham St #1,Boston,MA,02130,799900,2,2.0,Boston,1868,,2003,18,428,300,Active,,,https://www.redfin.com/MA/Jamaica-Plain/56-Wenham-St-02130/unit-1/home/9324143,MLS PIN,73403693,N,Y,42.2971678,-71.1144486
