SALE TYPE,SOLD DATE,PROPERTY TYPE,ADDRESS,CITY,STATE OR PROVINCE,ZIP OR POSTAL CODE,PRICE,BEDS,BATHS,LOCATION,SQUARE FEET,LOT SIZE,YEAR BUILT,DAYS ON MARKET,$/SQUARE FEET,HOA/MONTH,STATUS,NEXT OPEN HOUSE START TIME,NEXT OPEN HOUSE END TIME,URL (SEE https://www.redfin.com/buy-a-home/comparative-market-analysis FOR INFO ON PRICING),SOURCE,MLS#,FAVORITE,INTERESTED,LATITUDE,LONGITUDE
"In accordance with local MLS rules, some MLS listings are not included in the download"
MLS Listing,,Single Family Residential,15504 Soaring Loop,Gulfport,MS,39503,263000,3,2.0,High Point,1710,10454,2023,1,154,33,Active,,,https://www.redfin.com/MS/Gulfport/15504-Soaring-LOOP-39503/home/188183002,MLSU,2019000945,N,Y,30.510462,-89.10208
MLS Listing,,Single Family Residential,11501 Barrone St,Gulfport,MS,39503,239000,3,2.0,Northwood Hills,1500,15681,2007,1,159,,Active,,,https://www.redfin.com/MS/Gulfport/11501-Barrone-St-39503/home/116076153,MLSU,2019000936,N,Y,30.4555969,-89.098866
MLS Listing,,Single Family Residential,7 Keyser Ln,Gulfport,MS,39507,363000,3,2.5,Bayou View,2249,12632,1973,1,161,,Active,,,https://www.redfin.com/MS/Gulfport/7-Keyser-Ln-39507/home/116044398,MLSU,4121150,N,Y,30.4211428,-89.0430396
MLS Listing,,Condo/Co-op,2252 Beach Dr #2502,Gulfport,MS,39507,335000,3,2.0,Legacy Villas,1691,615938,2001,1,198,668,Active,,,https://www.redfin.com/MS/Gulfport/2252-Beach-Dr-39507/unit-2502/home/116245552,MLSU,4121144,N,Y,30.3882652,-89.0034936
MLS Listing,,Single Family Residential,122 Clarence Dr,Gulfport,MS,39503,179500,3,2.0,Kerns,1200,10018,1969,1,150,,Active,,,https://www.redfin.com/MS/Gulfport/122-Clarence-Dr-39503/home/116578116,MLSU,4121108,N,Y,30.4563596,-89.0815703
MLS Listing,,Single Family Residential,2694 Broadwater Dr,Gulfport,MS,39507,230000,3,2.0,Broadwater Place,1500,6969,1989,1,153,,Active,,,https://www.redfin.com/MS/Gulfport/2694-Broadwater-Dr-39507/home/116018357,MLSU,4121097,N,Y,30.3964191,-89.0063585
MLS Listing,,Single Family Residential,14447 S Swan Rd,Gulfport,MS,39503,418900,4,3.0,Swan Landing,2997,3484800,2025,1,140,,Active,,,https://www.redfin.com/MS/Gulfport/14447-S-Swan-Rd-39503/home/196756886,MLSU,4121093,N,Y,30.4922447,-89.0838989
MLS Listing,,Single Family Residential,14443 S Swan Rd,Gulfport,MS,39503,400900,4,3.5,River Hills,2785,16988,2025,1,144,,Active,,,https://www.redfin.com/MS/Gulfport/14443-S-Swan-Rd-39503/home/196756855,MLSU,4121092,N,Y,30.492901,-89.0836512
MLS Listing,,Single Family Residential,14439 S Swan Rd,Gulfport,MS,39503,425900,5,3.0,Swan Landing,3113,16988,2025,1,137,,Active,,,https://www.redfin.com/MS/Gulfport/14439-S-Swan-Rd-39503/home/196756773,MLSU,4121091,N,Y,30.4929025,-89.0835377
MLS Listing,,Vacant Land,196 Markham Dr,Gulfport,MS,39507,95000,,,Gulf Shore Manor,,6534,,1,,,Active,,,https://www.redfin.com/MS/Gulfport/196-Markham-Dr-39507/home/116428395,MLSU,4121086,N,Y,30.383676,-89.033683
MLS Listing,,Single Family Residential,11442 Oak Aly,Gulfport,MS,39503,278790,3,2.0,Crystal Lake,1848,11761,2025,1,151,28,Active,,,https://www.redfin.com/MS/Gulfport/11442-Oak-Aly-39503/home/196754768,MLSU,4121082,N,Y,30.4544652,-89.1403534
MLS Listing,,Single Family Residential,255 Venetian Gdns,Gulfport,MS,39507,234888,3,2.5,Venetian Gardens,1714,8276,1999,1,137,,Active,,,https://www.redfin.com/MS/Gulfport/255-Venetian-Gdns-39507/home/144299949,MLSU,4121081,N,Y,30.3916421,-89.0056046
MLS Listing,,Single Family Residential,12003 Parc Merlot,Gulfport,MS,39503,387940,5,3.0,Oak Landing,2720,10454,2025,1,143,,Active,,,https://www.redfin.com/MS/Gulfport/12003-Parc-Merlot-39503/home/196751808,MLSU,4121062,N,Y,30.457278,-89.018148
MLS Listing,,Single Family Residential,2416 Greenview Dr,Gulfport,MS,39507,347000,4,3.0,Greenview,2469,10890,1985,1,141,10,Active,,,https://www.redfin.com/MS/Gulfport/2416-Greenview-Dr-39507/home/116533119,MLSU,4121035,N,Y,30.3950339,-89.0126772
MLS Listing,,Single Family Residential,98 Russell Blvd,Gulfport,MS,39501,95000,3,2.0,Forest Heights,1344,9583,1969,1,71,,Active,,,https://www.redfin.com/MS/Gulfport/98-Russell-Blvd-39501/home/116495250,MLSU,4121007,N,Y,30.4147626,-89.0968535
MLS Listing,,Single Family Residential,5215 Washington Ave,Gulfport,MS,39507,399900,4,3.0,Bayou View,2440,16988,1958,2,164,,Active,,,https://www.redfin.com/MS/Gulfport/5215-Washington-Ave-39507/home/116267699,MLSU,4120989,N,Y,30.4133066,-89.0562465
MLS Listing,,Single Family Residential,13045 Oakberry Ln,Gulfport,MS,39503,259999,3,2.0,Oakberry Gardens,1565,8276,2007,2,166,,Active,,,https://www.redfin.com/MS/Gulfport/13045-Oakberry-Ln-39503/home/116478798,MLSU,4120984,N,Y,30.4723824,-89.1284096
MLS Listing,,Single Family Residential,2179 Collins Blvd,Gulfport,MS,39507,189500,3,1.0,Cowan Road Homes,1131,9583,1959,2,168,,Active,,,https://www.redfin.com/MS/Gulfport/2179-Collins-Blvd-39507/home/116692791,MLSU,4120939,N,Y,30.3882194,-89.0237767
MLS Listing,,Single Family Residential,11396 Oak Aly,Gulfport,MS,39503,229990,3,2.0,Crystal Lake,1495,7405,2025,2,154,28,Active,,,https://www.redfin.com/MS/Gulfport/11396-Oak-Aly-39503/home/196694343,MLSU,4120903,N,Y,30.4532624,-89.1401209
MLS Listing,,Single Family Residential,3502 Meadowlark Dr,Gulfport,MS,39501,130000,3,1.5,Metes And Bounds,1100,10018,1970,3,118,,Active,,,https://www.redfin.com/MS/Gulfport/3502-Meadowlark-Dr-39501/home/115899688,MLSU,4120885,N,Y,30.3988097,-89.1035792
MLS Listing,,Condo/Co-op,2252 Beach Dr #1905,Gulfport,MS,39507,307000,2,2.0,Legacy Villas,1635,615938,2001,3,188,,Active,,,https://www.redfin.com/MS/Gulfport/2252-Beach-Dr-39507/unit-1905/home/115960767,MLSU,4120863,N,Y,30.3882652,-89.0034936
MLS Listing,,Condo/Co-op,413 Kahler St #4,Gulfport,MS,39507,128500,2,1.5,Wellington Place,912,70131,1973,3,141,,Active,,,https://www.redfin.com/MS/Gulfport/413-Kahler-St-39507/unit-4/home/116461153,MLSU,4120811,N,Y,30.4091167,-89.043655
MLS Listing,,Single Family Residential,66 Bayou Cir,Gulfport,MS,39507,1375000,4,3.5,Bayou View,3587,10454,2008,4,383,,Active,,,https://www.redfin.com/MS/Gulfport/66-Bayou-Cir-39507/home/115776259,MLSU,4120776,N,Y,30.4243668,-89.0444389
MLS Listing,,Single Family Residential,9026 Ridge Rd,Gulfport,MS,39503,265500,3,1.5,Bayou Bernard Vist,1749,13503,1964,4,152,,Active,,,https://www.redfin.com/MS/Gulfport/9026-Ridge-Rd-39503/home/115937988,MLSU,4120747,N,Y,30.4140797,-89.0356666
MLS Listing,,Single Family Residential,1873 43rd Ave,Gulfport,MS,39501,109900,3,2.0,Jonestown-Mcaughan,1200,6969,2007,4,92,,Active,,,https://www.redfin.com/MS/Gulfport/1873-43rd-Ave-39501/home/116601619,MLSU,4120732,N,Y,30.3726316,-89.1129043
MLS Listing,,Single Family Residential,2901 58th Ave,Gulfport,MS,39501,94900,2,1.0,Glenn Terrace,946,13939,1960,4,100,,Active,,,https://www.redfin.com/MS/Gulfport/2901-58th-Ave-39501/home/115795780,MLSU,4120720,N,Y,30.3852787,-89.1306433
MLS Listing,,Vacant Land,2 Greenbriar Dr,Gulfport,MS,39507,70000,,,Greenbriar,,16552,,4,,,Active,,,https://www.redfin.com/MS/Gulfport/2-Greenbriar-Dr-39507/home/116249586,MLSU,4120701,N,Y,30.4040371,-89.0443066
MLS Listing,,Multi-Family (5+ Unit),1028 45th Ave,Gulfport,MS,39501,1848000,52,44.0,Metes And Bounds,22883,43124,1969,4,81,,Active,,,https://www.redfin.com/MS/Gulfport/1028-45th-Ave-39501/home/115876517,MLSU,4120699,N,Y,30.3649336,-89.1155512
MLS Listing,,Condo/Co-op,1302 Magnolia St Unit A206,Gulfport,MS,39507,339900,1,1.0,Hansboro Pointe,840,100188,2023,5,405,792,Active,,,https://www.redfin.com/MS/Gulfport/1302-Magnolia-St-39507/unit-A206/home/196629715,MLSU,4120681,N,Y,30.403514,-89.028765
MLS Listing,,Vacant Land,Schanbacher Rd,Gulfport,MS,39503,225000,,,Progressive Farms,,574992,,6,,,Active,,,https://www.redfin.com/MS/Gulfport/Schanbacher-Rd-39503/home/144305204,MLSU,4120643,N,Y,30.486205,-89.160923
MLS Listing,,Single Family Residential,10462 Landon Meadows Dr,Gulfport,MS,39503,369990,5,3.0,Landon Meadows,2525,12196,2025,6,147,400,Active,,,https://www.redfin.com/MS/Gulfport/10462-Landon-Meadows-Dr-39503/home/192358518,MLSU,4120617,N,Y,30.4396653,-89.1291112
MLS Listing,,Single Family Residential,17083 River Hills Dr,Gulfport,MS,39503,411900,4,3.0,River Hills,2942,7840,2025,6,140,54,Active,,,https://www.redfin.com/MS/Gulfport/17083-River-Hills-Dr-39503/home/196622750,MLSU,4120599,N,Y,30.5239825,-89.1237084
MLS Listing,,Single Family Residential,17081 River Hills Dr,Gulfport,MS,39503,393900,3,2.5,River Hills,2726,17424,2025,6,144,54,Active,,,https://www.redfin.com/MS/Gulfport/17081-River-Hills-Dr-39503/home/196565590,MLSU,4120596,N,Y,30.5239825,-89.1237084
MLS Listing,,Single Family Residential,17052 River Hills Dr,Gulfport,MS,39503,401900,4,3.5,River Hills,2785,16117,2025,6,144,54,Active,,,https://www.redfin.com/MS/Gulfport/17052-River-Hills-Dr-39503/home/196565688,MLSU,4120594,N,Y,30.5239825,-89.1237084
MLS Listing,,Mobile/Manufactured Home,1724 Wisteria St,Gulfport,MS,39501,120000,3,2.0,Gulf Gardens,1248,6969,2000,6,96,,Active,,,https://www.redfin.com/MS/Gulfport/1724-Wisteria-St-39501/home/115834364,MLSU,4120475,N,Y,30.3714932,-89.1056863
MLS Listing,,Vacant Land,Scott St,Gulfport,MS,39503,20000,,,Biloxi River Ests.,,15681,,7,,,Active,,,https://www.redfin.com/MS/Gulfport/Scott-St-39503/home/116666842,MLSU,4120557,N,Y,30.481451,-89.042086
MLS Listing,,Vacant Land,1626 Oak Ave,Gulfport,MS,39507,79000,,,Greenwood,,7840,,7,,,Active,,,https://www.redfin.com/MS/Gulfport/1626-Oak-Ave-39507/home/116504078,MLSU,4120481,N,Y,30.377595,-89.055353
MLS Listing,,Single Family Residential,19382 Highway 53,Gulfport,MS,39503,460000,3,2.5,Pecan Acres,2040,56628,2023,7,225,,Active,,,https://www.redfin.com/MS/Gulfport/19382-Highway-53-39503/home/188478121,MLSU,4120478,N,Y,30.51503,-89.165652
MLS Listing,,Single Family Residential,2709 Kelly Ave,Gulfport,MS,39501,319000,3,2.0,Broad Acres,1500,11325,2025,7,213,,Active,,,https://www.redfin.com/MS/Gulfport/2709-Kelly-Ave-39501/home/116153431,MLSU,4120465,N,Y,30.3832711,-89.0724811
MLS Listing,,Single Family Residential,18075 Evergreen Dr,Gulfport,MS,39503,313310,4,3.0,Crystal Lake,2092,6969,2022,7,150,28,Active,,,https://www.redfin.com/MS/Gulfport/18075-Evergreen-Dr-39503/home/184252415,MLSU,4120451,N,Y,30.4522317,-89.1392414
MLS Listing,,Single Family Residential,1505 Dixie Ave,Gulfport,MS,39501,151000,3,2.0,Gulfport,1340,3920,1955,7,113,,Active,,,https://www.redfin.com/MS/Gulfport/1505-Dixie-Ave-39501/home/116436796,PRCBOR,183654,N,Y,30.3665112,-89.1262368
MLS Listing,,Single Family Residential,18526 Elkwood Dr,Gulfport,MS,39503,285000,4,2.0,Magnolia Springs,2054,10890,2021,8,139,,Active,,,https://www.redfin.com/MS/Gulfport/18526-Elkwood-Dr-39503/home/176908841,MLSU,4120444,N,Y,30.4307127,-89.1524063
MLS Listing,,Condo/Co-op,2252 Beach #1003,Gulfport,MS,39507,299000,2,2.0,Legacy Villas,1295,,2001,8,231,,Active,,,https://www.redfin.com/MS/Gulfport/2252-Beach-Dr-39507/unit-1003/home/116652828,MLSU,4120402,N,Y,30.3882652,-89.0034936
MLS Listing,,Single Family Residential,1218 Beach Ave,Gulfport,MS,39501,165000,3,2.0,Gulfport,1288,3920,1945,8,128,,Active,,,https://www.redfin.com/MS/Gulfport/1218-Beach-Ave-39501/home/116041740,PRCBOR,183652,N,Y,30.3632749,-89.1244624
MLS Listing,,Single Family Residential,120 Darran St,Gulfport,MS,39503,134000,3,1.5,Bel-Aire,1871,10454,1969,8,72,,Active,,,https://www.redfin.com/MS/Gulfport/120-Darran-St-39503/home/115893599,MLSU,4120394,N,Y,30.4437224,-89.0896795
MLS Listing,,Vacant Land,4600 W Beach Blvd,Gulfport,MS,39501,250000,,,Metes And Bounds,,28314,,8,,,Active,,,https://www.redfin.com/MS/Gulfport/4600-W-Beach-Blvd-39501/home/115823337,MLSU,4120357,N,Y,30.357941,-89.117213
MLS Listing,,Single Family Residential,2817 Broadmoor Pl,Gulfport,MS,39501,129000,2,1.0,Alvahdale Add,1008,17859,1950,8,128,,Active,,,https://www.redfin.com/MS/Gulfport/2817-Broadmoor-Pl-39501/home/115775572,MLSU,4120353,N,Y,30.3848309,-89.070961
MLS Listing,,Vacant Land,0 Ohio Ave,Gulfport,MS,39501,10000,,,North Gulfport,,10018,,8,,,Active,,,https://www.redfin.com/MS/Gulfport/Ohio-Ave-39501/home/116616065,MLSU,4120328,N,Y,30.39933,-89.097444
MLS Listing,,Vacant Land,Three Rivers Rd,Gulfport,MS,39503,175000,,,Biloxi River Ests.,,40946,,9,,,Active,,,https://www.redfin.com/MS/Gulfport/Three-Rivers-Rd-39503/home/116044224,MLSU,4120320,N,Y,30.469001,-89.063343
MLS Listing,,Townhouse,12300 Frazier Ln #105,Gulfport,MS,39503,221900,3,2.5,Highland Lake Townhomes,1521,1742,2025,9,146,145,Active,,,https://www.redfin.com/MS/Gulfport/12300-Frazier-LN-39503/unit-105/home/196506047,MLSU,4119940,N,Y,30.464176,-89.020422
MLS Listing,,Condo/Co-op,2252 Beach Dr #2305,Gulfport,MS,39507,295000,2,2.0,Legacy Villas,1635,615938,2001,9,180,650,Active,,,https://www.redfin.com/MS/Gulfport/2252-Beach-Dr-39507/unit-2305/home/116655749,MLSU,4120264,N,Y,30.3882652,-89.0034936
MLS Listing,,Single Family Residential,14030 Lavelle Dr,Gulfport,MS,39503,240000,3,2.5,Lavelle Acres,1981,17424,1995,9,121,,Active,,,https://www.redfin.com/MS/Gulfport/14030-Lavelle-Dr-39503/home/115905993,MLSU,4120242,N,Y,30.4612766,-89.0702827
MLS Listing,,Single Family Residential,14159 Lucky Mays Rd,Gulfport,MS,39503,249956,3,2.0,Mays Place Estates,1856,14810,2008,9,135,,Active,,,https://www.redfin.com/MS/Gulfport/14159-Lucky-Mays-Rd-39503/home/116577812,MLSU,4120228,N,Y,30.4675992,-89.0762907
MLS Listing,,Single Family Residential,929 Bridge St,Gulfport,MS,39507,349000,4,2.0,Metes And Bounds,1751,23958,1927,10,199,,Active,,,https://www.redfin.com/MS/Gulfport/929-Bridge-St-39507/home/115975649,MLSU,4120199,N,Y,30.3996797,-89.0286476
MLS Listing,,Vacant Land,Herring Rd,Gulfport,MS,39503,99000,,,Gulfport,,322344,,10,,,Active,,,https://www.redfin.com/MS/Gulfport/Herrine-Rd-39503/home/116118843,MLSU,4120139,N,Y,30.466437,-89.108221
MLS Listing,,Single Family Residential,12343 Dedeaux Rd,Gulfport,MS,39503,179000,2,1.0,Pine Hill,1459,9583,1968,10,123,,Active,,,https://www.redfin.com/MS/Gulfport/12343-Dedeaux-Rd-39503/home/116159586,MLSU,4120120,N,Y,30.4495172,-89.046743
MLS Listing,,Single Family Residential,35 Greenbriar Dr,Gulfport,MS,39507,419000,3,3.5,Greenbriar,3081,14374,1971,11,136,,Active,,,https://www.redfin.com/MS/Gulfport/35-Greenbriar-Dr-39507/home/116579328,MLSU,4120070,N,Y,30.4050159,-89.0406981
MLS Listing,,Vacant Land,0 Mays Rd,Gulfport,MS,39503,80000,,,Gulfport,,304920,,11,,,Active,,,https://www.redfin.com/MS/Gulfport/Mays-Rd-39503/home/166243068,MLSU,4120050,N,Y,30.468779,-89.073313
MLS Listing,,Townhouse,1213 Century Oaks Dr Unit A,Gulfport,MS,39507,198900,3,3.0,Century Oaks TH PH 4 Key West Common,1314,4356,2007,11,151,165,Active,,,https://www.redfin.com/MS/Gulfport/1213-Century-Oaks-Dr-39507/unit-A/home/116623393,MLSU,4120038,N,Y,30.3850719,-89.0304894
MLS Listing,,Townhouse,12308 Frazier Ln #109,Gulfport,MS,39503,221900,3,2.5,Highland Lake Townhomes,1521,1742,2025,11,146,145,Active,,,https://www.redfin.com/MS/Gulfport/12308-Frazier-LN-39503/unit-109/home/196511777,MLSU,4120010,N,Y,30.464278,-89.020473
MLS Listing,,Townhouse,12306 Frazier Ln #108,Gulfport,MS,39503,221900,3,2.5,Highland Lake Townhomes,1521,1742,2025,11,146,145,Active,,,https://www.redfin.com/MS/Gulfport/12306-Frazier-LN-39503/unit-108/home/196511674,MLSU,4120007,N,Y,30.464223,-89.021177
MLS Listing,,Condo/Co-op,1200 Beach Dr #1203,Gulfport,MS,39507,328500,2,2.0,Sienna On The Coast Condo,1277,132858,2007,12,257,973,Active,,,https://www.redfin.com/MS/Gulfport/1200-Beach-Dr-39507/unit-1203/home/115950496,MLSU,4119992,N,Y,30.3821851,-89.0285007
MLS Listing,,Single Family Residential,2708 Kelly Ave,Gulfport,MS,39501,199500,3,2.0,Broad Acres,1350,6969,1945,12,148,,Active,,,https://www.redfin.com/MS/Gulfport/2708-Kelly-Ave-39501/home/116629560,MLSU,4119985,N,Y,30.3834367,-89.0720243
MLS Listing,,Townhouse,12304 Frazier Ln #107,Gulfport,MS,39503,221900,3,2.5,Highland Lake Townhomes,1521,1742,2025,13,146,145,Active,,,https://www.redfin.com/MS/Gulfport/12304-Frazier-LN-39503/unit-107/home/196506077,MLSU,4119942,N,Y,30.464259,-89.020443
MLS Listing,,Townhouse,12302 Frazier Ln #106,Gulfport,MS,39503,221900,3,2.5,Highland Lake Townhomes,1521,1742,2025,13,146,145,Active,,,https://www.redfin.com/MS/Gulfport/12302-Frazier-LN-39503/unit-106/home/196506061,MLSU,4119941,N,Y,30.464151,-89.020384
MLS Listing,,Townhouse,12296 Frazier Ln #104,Gulfport,MS,39503,221900,3,2.5,Highland Lake Townhomes,1521,1742,2025,13,146,145,Active,,,https://www.redfin.com/MS/Gulfport/12296-Frazier-LN-39503/unit-104/home/196506030,MLSU,4119939,N,Y,30.464148,-89.020432
MLS Listing,,Townhouse,12294 Frazier Ln #103,Gulfport,MS,39503,221900,3,2.5,Highland Lake Townhomes,1521,1742,2025,13,146,145,Active,,,https://www.redfin.com/MS/Gulfport/12294-Frazier-LN-39503/unit-103/home/196505974,MLSU,4119938,N,Y,30.464167,-89.020239
MLS Listing,,Townhouse,12292 Frazier Ln #102,Gulfport,MS,39503,221900,3,2.5,Highland Lake Townhomes,1521,1742,2025,13,146,145,Active,,,https://www.redfin.com/MS/Gulfport/12292-Frazier-LN-39503/unit-102/home/196505959,MLSU,4119937,N,Y,30.464168,-89.020214
MLS Listing,,Townhouse,12310 Frazier Ln #110,Gulfport,MS,39503,236900,3,2.5,Highland Lake Townhomes,1521,1742,2025,13,156,145,Active,,,https://www.redfin.com/MS/Gulfport/12310-Frazier-LN-39503/unit-110/home/196505801,MLSU,4119935,N,Y,30.464083,-89.020464
MLS Listing,,Townhouse,12290 Frazier Ln #101,Gulfport,MS,39503,236900,3,2.5,Highland Lake Townhomes,1521,1742,2025,13,156,145,Active,,,https://www.redfin.com/MS/Gulfport/12290-Frazier-LN-39503/unit-101/home/196505785,MLSU,4119934,N,Y,30.464132,-89.02045
MLS Listing,,Multi-Family (2-4 Unit),554-556 Loposser Ave,Gulfport,MS,39507,459000,8,4.0,Woodglen,3375,13068,1981,14,136,,Active,,,https://www.redfin.com/MS/Gulfport/556-Loposser-Ave-39507/home/116673233,MLSU,4119868,N,Y,30.3911185,-89.0394537
MLS Listing,,Single Family Residential,10522 Glade Cv,Gulfport,MS,39503,419990,5,3.0,Landon Meadows,3394,4356,2025,14,124,33,Active,,,https://www.redfin.com/MS/Gulfport/10522-Glade-Cv-39503/home/196157764,MLSU,4119864,N,Y,30.441532135009766,-89.12899017333984
MLS Listing,,Single Family Residential,10494 Glade Cv,Gulfport,MS,39503,334990,4,3.0,Landon Meadows,2219,4356,2025,14,151,33,Active,,,https://www.redfin.com/MS/Gulfport/10494-Glade-Cv-39503/home/196026174,MLSU,4119860,N,Y,30.44070816040039,-89.1289291381836
MLS Listing,,Single Family Residential,10498 Glade Cv,Gulfport,MS,39503,334990,4,3.0,Landon Meadows,2219,4356,2025,14,151,33,Active,,,https://www.redfin.com/MS/Gulfport/10498-Glade-Cv-39503/home/196026169,MLSU,4119857,N,Y,30.440837860107422,-89.12891387939453
MLS Listing,,Single Family Residential,10501 Glade Cv,Gulfport,MS,39503,364490,5,3.0,Landon Meadows,2513,4356,2025,14,145,33,Active,,,https://www.redfin.com/MS/Gulfport/10501-Glade-Cv-39503/home/196017628,MLSU,4119855,N,Y,30.44123649597168,-89.12914276123047
MLS Listing,,Single Family Residential,10496 Landon Meadows Dr,Gulfport,MS,39503,351990,5,3.0,Landon Meadows,2513,4356,2025,14,140,33,Active,,,https://www.redfin.com/MS/Gulfport/10496-Landon-Meadows-Dr-39503/home/194937854,MLSU,4119853,N,Y,30.438854217529297,-89.12919616699219
MLS Listing,,Single Family Residential,10476 Landon Meadows Dr,Gulfport,MS,39503,349570,5,3.0,Landon Meadows,2513,4356,2025,14,139,33,Active,,,https://www.redfin.com/MS/Gulfport/10476-Landon-Meadows-Dr-39503/home/195643486,MLSU,4119852,N,Y,30.4396653,-89.1291112
MLS Listing,,Single Family Residential,218 Kimberly Dr,Gulfport,MS,39503,89900,3,1.0,Olivet,980,7405,1972,14,92,,Active,,,https://www.redfin.com/MS/Gulfport/218-Kimberly-Dr-39503/home/115835838,MLSU,4118890,N,Y,30.4600296,-89.0778439
MLS Listing,,Single Family Residential,314 Meadows Ln,Gulfport,MS,39507,184990,2,2.5,Westbury,1000,2613,2025,14,185,40,Active,,,https://www.redfin.com/MS/Gulfport/314-Meadows-Ln-39507/home/195779684,MLSU,4119797,N,Y,30.3868268,-89.0299302
MLS Listing,,Single Family Residential,18153 Doc Lizana Rd. Rd,Gulfport,MS,39503,480000,5,4.0,Metes And Bounds,3399,304920,1977,14,141,,Active,,,https://www.redfin.com/MS/Gulfport/18153-Doc-Lizana-Rd-39503/home/166298253,MLSU,4119790,N,Y,30.5439656,-89.195158
MLS Listing,,Single Family Residential,13589 Deerfield Dr,Gulfport,MS,39503,396500,3,2.0,Florence Gardens,2049,10018,2024,14,194,120,Active,August-30-2025 02:00 PM,August-30-2025 04:00 PM,https://www.redfin.com/MS/Gulfport/13589-Deerfield-DR-39503/home/189083178,MLSU,4119759,N,Y,30.467193,-89.065157
MLS Listing,,Single Family Residential,25 Oakwood Dr,Gulfport,MS,39507,345000,4,3.0,Woodglen,1859,14374,1964,15,186,,Active,,,https://www.redfin.com/MS/Gulfport/25-Oakwood-Dr-39507/home/116462530,MLSU,4119680,N,Y,30.3859067,-89.0409015
MLS Listing,,Single Family Residential,131 Gary St,Gulfport,MS,39503,239000,3,2.0,Gregory Part II,1650,13068,1969,15,145,,Active,,,https://www.redfin.com/MS/Gulfport/131-Gary-St-39503/home/116151035,MLSU,4119658,N,Y,30.4428743,-89.0880364
MLS Listing,,Single Family Residential,13422 George Ave,Gulfport,MS,39503,174990,2,2.5,Biloxi River Ests.,1000,2613,2025,15,175,,Active,,,https://www.redfin.com/MS/Gulfport/13422-George-Ave-39503/home/196480263,MLSU,4119649,N,Y,30.4824713,-89.0413893
MLS Listing,,Single Family Residential,13410 George Ave,Gulfport,MS,39503,169990,3,1.5,Biloxi River Ests.,1000,4356,2025,15,170,,Active,,,https://www.redfin.com/MS/Gulfport/13410-George-Ave-39503/home/195905776,MLSU,4119648,N,Y,30.4821363,-89.0413882
MLS Listing,,Condo/Co-op,30 Independence Dr #30,Gulfport,MS,39507,215000,3,2.5,Heritage Place,1732,154202,1975,15,124,500,Active,,,https://www.redfin.com/MS/Gulfport/30-Independence-Dr-39507/unit-30/home/115814059,MLSU,4119647,N,Y,30.3877844,-89.0380367
MLS Listing,,Single Family Residential,13418 George Ave,Gulfport,MS,39503,174990,2,2.5,Biloxi River Ests.,1000,2613,2025,15,175,,Active,,,https://www.redfin.com/MS/Gulfport/13418-George-Ave-39503/home/195905718,MLSU,4119646,N,Y,30.4823596,-89.0413889
MLS Listing,,Single Family Residential,13454 Kelly St,Gulfport,MS,39503,174990,2,2.5,Biloxi River Ests.,1000,2613,2025,15,175,,Active,,,https://www.redfin.com/MS/Gulfport/13454-Kelly-St-39503/home/195905764,MLSU,4119645,N,Y,30.4833375,-89.0404704
MLS Listing,,Single Family Residential,2106 Boardman Blvd,Gulfport,MS,39507,195000,3,1.5,Lake Forest,1428,9147,1963,15,137,,Active,,,https://www.redfin.com/MS/Gulfport/2106-Boardman-Blvd-39507/home/116581798,MLSU,4119641,N,Y,30.3942823,-89.0220005
MLS Listing,,Single Family Residential,416 N Caribe Pl,Gulfport,MS,39507,420000,3,3.5,Canal Place,2893,13503,1997,15,145,6,Active,,,https://www.redfin.com/MS/Gulfport/416-Caribe-Pl-N-39507/home/116613941,MLSU,4119638,N,Y,30.4034926,-89.0424757
MLS Listing,,Multi-Family (2-4 Unit),1313 20th St,Gulfport,MS,39501,90000,9,3.0,Soria City,3597,12632,1940,15,25,,Active,,,https://www.redfin.com/MS/Gulfport/1313-20th-St-39501/home/144298849,MLSU,4119618,N,Y,30.3763882,-89.0745003
MLS Listing,,Single Family Residential,618 Temple Dr,Gulfport,MS,39503,196000,4,2.0,Loren D Heights,2110,12632,1976,15,93,,Active,,,https://www.redfin.com/MS/Gulfport/618-Temple-Dr-39503/home/116046797,MLSU,4119613,N,Y,30.4429838,-89.0554971
MLS Listing,,Single Family Residential,718 Tennessee St,Gulfport,MS,39501,39000,2,1.0,Metes And Bounds,945,4356,1940,15,41,,Active,,,https://www.redfin.com/MS/Gulfport/718-Tennessee-St-39501/home/115844407,MLSU,4119600,N,Y,30.3861801,-89.0640662
MLS Listing,,Single Family Residential,26 54th St,Gulfport,MS,39507,325000,4,3.0,Bayou View,2550,38768,1959,15,127,,Active,August-6-2025 11:00 AM,August-6-2025 01:00 PM,https://www.redfin.com/MS/Gulfport/26-54th-St-39507/home/116274021,MLSU,4119553,N,Y,30.4205261,-89.0524355
MLS Listing,,Single Family Residential,17175 Ms-53,Gulfport,MS,39503,157000,3,1.5,Metes And Bounds,1200,43560,1975,16,131,,Active,,,https://www.redfin.com/MS/Gulfport/17175-Highway-53-39503/home/116319475,MLSU,4119546,N,Y,30.5004958,-89.1264059
MLS Listing,,Single Family Residential,2704 Pine Ave,Gulfport,MS,39501,179900,3,2.0,Broad Acres,1603,5662,1949,16,112,,Active,,,https://www.redfin.com/MS/Gulfport/2704-Pine-Ave-39501/home/116348393,MLSU,4119520,N,Y,30.3830095,-89.0728813
MLS Listing,,Single Family Residential,14987 Rowan Oak St,Gulfport,MS,39503,179900,2,2.5,The Grove,1100,4356,2025,16,164,,Active,,,https://www.redfin.com/MS/Gulfport/14987-Rowan-Oak-ST-39503/home/195779669,MLSU,4119517,N,Y,30.43824577331543,-89.08568572998047
MLS Listing,,Single Family Residential,5010 Lawson Ave,Gulfport,MS,39507,335000,3,2.0,Bayou View,2108,37026,1953,17,159,,Active,,,https://www.redfin.com/MS/Gulfport/5010-Lawson-Ave-39507/home/115798695,MLSU,4119427,N,Y,30.4144678,-89.0487472
MLS Listing,,Single Family Residential,100 Clarence Dr,Gulfport,MS,39503,159000,3,2.0,Kerns,1482,11325,1969,17,107,,Active,,,https://www.redfin.com/MS/Gulfport/100-Clarence-Dr-39503/home/116474332,MLSU,4119419,N,Y,30.4539238,-89.0815727
MLS Listing,,Single Family Residential,1625 Pratt Ave,Gulfport,MS,39501,595000,4,3.0,Soria City,2179,13068,2022,17,273,,Active,,,https://www.redfin.com/MS/Gulfport/1625-Pratt-Ave-39501/home/116608902,MLSU,4119331,N,Y,30.3724386,-89.0801915
MLS Listing,,Single Family Residential,12105 Creole Way,Gulfport,MS,39503,387990,4,3.0,Florence Gardens,2525,1306,2025,18,154,,Active,,,https://www.redfin.com/MS/Gulfport/12105-Creole-Way-39503/home/193156333,MLSU,4119302,N,Y,30.4607881,-89.0590851
MLS Listing,,Single Family Residential,13762 Tara Hills Cir,Gulfport,MS,39503,266000,3,2.0,Tara Hills,1460,12196,2021,18,182,,Active,August-9-2025 11:00 AM,August-9-2025 02:00 PM,https://www.redfin.com/MS/Gulfport/13762-Tara-Hills-Cir-39503/home/116602910,MLSU,4119296,N,Y,30.489067,-89.093301
MLS Listing,,Single Family Residential,14991 Rowan Oak St,Gulfport,MS,39503,179990,2,2.5,The Grove,1100,2613,2025,18,164,23,Active,,,https://www.redfin.com/MS/Gulfport/14991-Rowan-Oak-ST-39503/home/195779651,MLSU,4119291,N,Y,30.438079833984375,-89.08624267578125
MLS Listing,,Single Family Residential,14970 Rowan Oak St,Gulfport,MS,39503,169990,3,1.5,The Grove,1100,4356,2025,18,155,23,Active,,,https://www.redfin.com/MS/Gulfport/14970-Rowan-Oak-ST-39503/home/195779702,MLSU,4119289,N,Y,30.438282012939453,-89.08561706542969
MLS Listing,,Single Family Residential,14982 Rowan Oak St,Gulfport,MS,39503,169990,3,1.5,The Grove,1100,4356,2025,18,155,23,Active,,,https://www.redfin.com/MS/Gulfport/14982-Rowan-Oak-St-39503/home/196158520,MLSU,4119287,N,Y,30.43830108642578,-89.08584594726562
MLS Listing,,Single Family Residential,14986 Rowan Oak St,Gulfport,MS,39503,169990,3,1.5,The Grove,1100,4356,2025,18,155,23,Active,,,https://www.redfin.com/MS/Gulfport/14986-Rowan-Oak-ST-39503/home/195779663,MLSU,4119283,N,Y,30.438291549682617,-89.08621978759766
MLS Listing,,Vacant Land,640 16th St,Gulfport,MS,39507,130000,,,Metes And Bounds,,9147,,18,,,Active,,,https://www.redfin.com/MS/Gulfport/640-16-St-39507/home/166318633,MLSU,4119281,N,Y,30.380399,-89.03868
MLS Listing,,Single Family Residential,14990 Rowan Oak St,Gulfport,MS,39503,179990,2,2.5,The Grove,1100,2613,2025,18,164,23,Active,,,https://www.redfin.com/MS/Gulfport/14990-Rowan-Oak-ST-39503/home/195779652,MLSU,4119277,N,Y,30.43830108642578,-89.08635711669922
MLS Listing,,Single Family Residential,16366 Millsaps Ave,Gulfport,MS,39503,294000,3,2.0,Savoy Place,1936,11761,2021,18,152,21,Active,,,https://www.redfin.com/MS/Gulfport/16366-Millsaps-Ave-39503/home/175193916,MLSU,4119275,N,Y,30.5062061,-89.1166386
MLS Listing,,Single Family Residential,1085 Township Rd,Gulfport,MS,39507,385000,3,2.5,Metes And Bounds,1425,26136,1900,18,270,,Active,,,https://www.redfin.com/MS/Gulfport/1085-Township-Rd-39507/home/116386506,MLSU,4119269,N,Y,30.3843954,-89.0284032
MLS Listing,,Multi-Family (2-4 Unit),2300 18th Ave Unit A-B,Gulfport,MS,39501,255000,6,4.0,Arlington Heights,2378,10890,2025,18,107,,Active,,,https://www.redfin.com/MS/Gulfport/2300-18th-Ave-39501/unit-A-B/home/196407197,MLSU,4119252,N,Y,30.378121,-89.0833
MLS Listing,,Single Family Residential,2512 Kenneth Ave,Gulfport,MS,39501,229000,3,2.0,Broad Acres,1380,7840,1962,18,166,,Active,,,https://www.redfin.com/MS/Gulfport/2512-Kenneth-Ave-39501/home/116304873,MLSU,4119237,N,Y,30.381126,-89.07635
MLS Listing,,Single Family Residential,105 Eugene Dr,Gulfport,MS,39503,220000,3,2.0,Janelle Lynn,1812,10890,1972,18,121,,Active,,,https://www.redfin.com/MS/Gulfport/105-Eugene-Dr-39503/home/116408004,MLSU,4119227,N,Y,30.4514437,-89.0791153
MLS Listing,,Vacant Land,Three Rivers Rd,Gulfport,MS,39503,165000,,,Metes And Bounds,,60984,,18,,,Active,,,https://www.redfin.com/MS/Gulfport/Three-Rivers-Rd-39503/home/166176176,MLSU,4119208,N,Y,30.441001,-89.08095
MLS Listing,,Single Family Residential,318 Meadow Ln,Gulfport,MS,39503,184990,2,2.5,Westbury,1100,4356,2025,18,168,40,Active,,,https://www.redfin.com/MS/Gulfport/318-Meadow-LN-39503/home/196385861,MLSU,4119202,N,Y,30.38644,-89.02992
MLS Listing,,Multi-Family (2-4 Unit),4000 Oak Ave,Gulfport,MS,39507,250000,5,4.0,Bayou View,3072,8712,1962,20,81,,Active,,,https://www.redfin.com/MS/Gulfport/4000-Oak-Ave-39507/home/116609504,MLSU,4114982,N,Y,30.3996619,-89.0533516
MLS Listing,,Condo/Co-op,2230 Beach Dr #908,Gulfport,MS,39507,480000,3,3.0,Legacy I Condominiums,1865,141134,2005,20,257,1046,Active,,,https://www.redfin.com/MS/Gulfport/2230-Beach-Dr-39507/unit-908/home/116260465,MLSU,4119144,N,Y,30.3887327,-89.0034638
MLS Listing,,Single Family Residential,835 Woodward Ave,Gulfport,MS,39501,256515,3,2.0,Metes And Bounds,1745,11761,1948,21,147,,Active,,,https://www.redfin.com/MS/Gulfport/835-Woodward-Ave-39501/home/115886841,MLSU,4119108,N,Y,30.3613811,-89.1178883
MLS Listing,,Single Family Residential,11443 Ashton Ln,Gulfport,MS,39503,495000,4,3.5,Ashton Oaks,3710,29185,2008,21,133,17,Active,,,https://www.redfin.com/MS/Gulfport/11443-Ashton-Ln-E-39503/home/116429431,MLSU,4119065,N,Y,30.4549115,-89.0162945
MLS Listing,,Single Family Residential,13460 Swan Ridge Cir,Gulfport,MS,39503,314645,4,2.0,Swan Ridge,2204,12196,2025,21,143,,Active,,,https://www.redfin.com/MS/Unknown/13460-Swan-Ridge-Cir-Unknown/home/194478139,MLSU,4114694,N,Y,30.490781784057617,-89.09497833251953
MLS Listing,,Single Family Residential,2503 Kenneth Ave,Gulfport,MS,39501,160000,3,1.5,Broad Acres,1350,7405,1972,21,119,,Active,,,https://www.redfin.com/MS/Gulfport/2503-Kenneth-Ave-39501/home/115797877,MLSU,4119043,N,Y,30.3804367,-89.0768232
MLS Listing,,Condo/Co-op,2230 Beach Dr #907,Gulfport,MS,39507,349500,2,2.0,Legacy I Condominiums,1259,,2005,21,278,715,Active,,,https://www.redfin.com/MS/Gulfport/2230-Beach-Dr-39507/unit-907/home/116220160,MLSU,4119012,N,Y,30.3887327,-89.0034638
MLS Listing,,Single Family Residential,3307 Johnson Dr,Gulfport,MS,39501,119000,4,2.0,Gulfport Bayou View Add,1400,9583,1975,22,85,,Active,,,https://www.redfin.com/MS/Gulfport/3307-Johnson-Dr-39501/home/115912301,MLSU,4118973,N,Y,30.3906026,-89.0717564
MLS Listing,,Single Family Residential,10674 Wren Grv,Gulfport,MS,39503,293000,3,2.0,Gulfport,1650,7840,2022,22,178,,Active,,,https://www.redfin.com/MS/Gulfport/10674-Wren-Grv-39503/home/183371829,PRCBOR,183587,N,Y,30.4428091,-89.1203363
MLS Listing,,Single Family Residential,13417 Waters Edge Way,Gulfport,MS,39503,269000,3,2.0,Wind Rose,1725,15246,2017,22,156,23,Active,August-3-2025 12:00 PM,August-3-2025 03:00 PM,https://www.redfin.com/MS/Gulfport/13417-Waters-Edge-Way-39503/home/166173589,MLSU,4118948,N,Y,30.475941,-89.081498
MLS Listing,,Single Family Residential,12384 Crestview Ct,Gulfport,MS,39503,205000,3,2.5,Lake Village,1826,14374,1981,22,112,10,Active,,,https://www.redfin.com/MS/Gulfport/12384-Crestview-Ct-39503/home/196372464,MLSU,4118938,N,Y,30.4665688,-89.1638902
MLS Listing,,Single Family Residential,919 Oakleigh Ave,Gulfport,MS,39507,299000,4,3.0,Fernwood Heights,2148,18730,1964,22,139,,Active,August-2-2025 11:00 AM,August-2-2025 01:00 PM,https://www.redfin.com/MS/Gulfport/919-Oakleigh-Ave-39507/home/116296099,MLSU,4118920,N,Y,30.4044143,-89.0068818
MLS Listing,,Single Family Residential,13414 George Ave,Gulfport,MS,39503,169990,3,1.5,Biloxi River Ests.,1100,6098,2025,22,155,,Active,,,https://www.redfin.com/MS/Gulfport/13414-George-Ave-39503/home/195905757,MLSU,4118903,N,Y,30.482248,-89.0413886
MLS Listing,,Vacant Land,311 16th St,Gulfport,MS,39507,429900,,,Gulfport,,104544,,22,,,Active,,,https://www.redfin.com/MS/Gulfport/311-16th-St-39507/home/115953382,MLSU,4118897,N,Y,30.380764,-89.0455
MLS Listing,,Single Family Residential,3416 11th St,Gulfport,MS,39501,217000,2,1.0,Metes And Bounds,1321,4791,1920,22,164,,Active,,,https://www.redfin.com/MS/Gulfport/3416-11th-St-39501/home/116266219,MLSU,4113579,N,Y,30.3651677,-89.1035132
MLS Listing,,Vacant Land,0 River Rd,Biloxi,MS,39532,95000,,,Metes And Bounds,,189486,,22,,,Active,,,https://www.redfin.com/MS/Biloxi/River-Rd-39532/home/193426923,MLSU,4118873,N,Y,30.481364,-89.026262
MLS Listing,,Single Family Residential,24172 Ashleigh Dr,Gulfport,MS,39503,311000,3,2.0,Metes And Bounds,2103,435600,1999,22,148,,Active,,,https://www.redfin.com/MS/Gulfport/24172-Ashleigh-Dr-39503/home/115781040,MLSU,4118855,N,Y,30.5332542,-89.2449821
MLS Listing,,Single Family Residential,13454 Addison Ave,Gulfport,MS,39503,204900,3,2.0,Hidden Oaks,1300,7405,2010,22,158,19,Active,August-2-2025 01:00 PM,August-2-2025 04:00 PM,https://www.redfin.com/MS/Gulfport/13454-Addison-Ave-39503/home/144299137,MLSU,4118844,N,Y,30.4821086,-89.0573631
MLS Listing,,Single Family Residential,2614 George St,Gulfport,MS,39503,139900,3,1.5,Pine Hills,1080,12196,1973,23,130,,Active,,,https://www.redfin.com/MS/Gulfport/2614-George-St-39503/home/115813579,MLSU,4115371,N,Y,30.4457412,-89.0469432
MLS Listing,,Vacant Land,20523 Robinson Rd,Gulfport,MS,39503,85000,,,Metes And Bounds,,117612,,23,,,Active,,,https://www.redfin.com/MS/Gulfport/20523-Robinson-Rd-39503/home/176918585,MLSU,4118448,N,Y,30.470273,-89.187251
MLS Listing,,Single Family Residential,1453 Georgia Pl,Gulfport,MS,39507,225000,2,2.5,Georgia Place,1123,3920,1991,23,200,,Active,,,https://www.redfin.com/MS/Gulfport/1453-Georgia-Pl-39507/home/116172416,MLSU,4118744,N,Y,30.3853676,-89.0246647
MLS Listing,,Single Family Residential,1419 Georgia Pl,Gulfport,MS,39507,189000,4,2.5,Georgia Place,1297,10890,1960,23,146,,Active,,,https://www.redfin.com/MS/Gulfport/1419-Georgia-Pl-39507/home/116540838,MLSU,4118712,N,Y,30.3853779,-89.0261102
MLS Listing,,Single Family Residential,15346 Summerfield Dr,Gulfport,MS,39503,299000,4,2.0,Swan Lake Estates,1913,10018,2006,24,156,29,Active,,,https://www.redfin.com/MS/Gulfport/15346-Summerfield-Dr-39503/home/144298407,MLSU,4118672,N,Y,30.5093499,-89.0810523
MLS Listing,,Single Family Residential,2209 Kevin Ct,Gulfport,MS,39507,299900,4,3.0,Anniston Estates,2625,14810,1961,24,114,,Active,,,https://www.redfin.com/MS/Gulfport/2209-Kevin-Ct-39507/home/115985497,MLSU,4118657,N,Y,30.3929529,-89.0196321
MLS Listing,,Condo/Co-op,1302 Magnolia St Unit A102,Gulfport,MS,39507,399000,2,2.0,Handsboro Pointe,1118,,2023,24,357,792,Active,,,https://www.redfin.com/MS/Gulfport/1302-Magnolia-St-39507/unit-A102/home/178792581,MLSU,4118644,N,Y,30.403514,-89.028765
MLS Listing,,Single Family Residential,14908 N Swan Rd,Gulfport,MS,39503,290500,4,2.0,North Swan Estates - N. Gulfport,1930,20037,2019,24,151,8,Active,,,https://www.redfin.com/MS/Gulfport/14908-N-Swan-Rd-39503/home/176904334,MLSU,4118596,N,Y,30.5003674,-89.0917991
MLS Listing,,Single Family Residential,14357 Pen Pl,Gulfport,MS,39503,356470,4,2.5,Swan Ridge,2779,14374,2025,25,128,,Active,,,https://www.redfin.com/MS/Gulfport/14357-Pen-Pl-39503/home/196284400,MLSU,4118518,N,Y,30.490392684936523,-89.09346771240234
MLS Listing,,Single Family Residential,10166 Patrick Dr,Gulfport,MS,39503,379000,4,2.0,Landry Trace,2779,10454,2024,25,136,42,Active,,,https://www.redfin.com/MS/Gulfport/10166-Patrick-Dr-39503/home/190100956,MLSU,4118515,N,Y,30.4345608,-89.1252532
MLS Listing,,Single Family Residential,13369 Martin Ct,Gulfport,MS,39503,160000,3,2.0,Forest North,1140,6098,2003,25,140,,Active,,,https://www.redfin.com/MS/Gulfport/13369-Martin-Ct-39503/home/144299450,MLSU,4118486,N,Y,30.4461442,-89.0643014
MLS Listing,,Single Family Residential,820 Camp Ave,Gulfport,MS,39501,275711,3,2.0,Metes And Bounds,1800,7405,1935,26,153,,Active,,,https://www.redfin.com/MS/Gulfport/820-Camp-Ave-39501/home/116406340,MLSU,4118429,N,Y,30.3614964,-89.1155773
MLS Listing,,Single Family Residential,28 Woodglen Dr,Gulfport,MS,39507,395900,3,2.0,Woodglen,3067,13503,1964,27,129,,Active,,,https://www.redfin.com/MS/Gulfport/28-Woodglen-Dr-39507/home/116431822,MLSU,4118423,N,Y,30.3879261,-89.0420115
MLS Listing,,Single Family Residential,201 47th St,Gulfport,MS,39507,287900,4,2.5,Bayou View,2331,43124,1957,27,124,,Active,,,https://www.redfin.com/MS/Gulfport/201-47th-St-39507/home/116426418,MLSU,4115966,N,Y,30.4065562,-89.054554
MLS Listing,,Single Family Residential,529 26th 1/2 St,Gulfport,MS,39507,105000,2,1.0,Metes And Bounds,907,3920,1968,27,116,,Active,,,https://www.redfin.com/MS/Gulfport/529-26th-1-2-St-39507/home/116168810,MLSU,4118378,N,Y,30.3836622,-89.0594175
MLS Listing,,Single Family Residential,631 2nd St,Gulfport,MS,39501,700000,5,4.5,Gulfport,2473,7405,2014,29,283,,Active,August-2-2025 10:00 AM,August-2-2025 03:00 PM,https://www.redfin.com/MS/Gulfport/631-2nd-St-39501/home/115933427,MLSU,4118321,N,Y,30.3759989,-89.0617967
MLS Listing,,Single Family Residential,14164 Fox Hill Dr,Gulfport,MS,39503,239900,3,2.0,Hunters Chase,1503,7405,2013,29,160,,Active,,,https://www.redfin.com/MS/Gulfport/14164-Fox-Hill-Dr-39503/home/116215325,MLSU,4118297,N,Y,30.4882287,-89.0715581
MLS Listing,,Townhouse,2252 Beach Dr #2304,Gulfport,MS,39507,249000,2,2.0,Legacy Villas,1356,615938,2001,29,184,544,Active,,,https://www.redfin.com/MS/Gulfport/2252-Beach-Dr-39507/unit-2304/home/116245537,MLSU,4118287,N,Y,30.3882652,-89.0034936
MLS Listing,,Single Family Residential,13084 Old Highway 49,Gulfport,MS,39503,340000,3,2.0,Metes And Bounds,3118,74052,1970,29,109,,Active,,,https://www.redfin.com/MS/Gulfport/13084-Old-Highway-49-39503/home/166167052,MLSU,4118277,N,Y,30.4743641,-89.1071243
MLS Listing,,Single Family Residential,2309 Cottonwood Dr,Gulfport,MS,39503,167900,3,2.0,Wildwood,1128,8276,1985,29,149,,Active,,,https://www.redfin.com/MS/Gulfport/2309-Cottonwood-Dr-39503/home/115947689,MLSU,4118259,N,Y,30.4530782,-89.0605739
MLS Listing,,Townhouse,12242 Frazier Ln,Gulfport,MS,39503,221900,3,1.5,Highland Lake Townhomes,1535,1742,2025,29,145,145,Active,,,https://www.redfin.com/MS/Gulfport/12242-Frazier-Ln-39503/home/196241356,MLSU,4118232,N,Y,30.463683,-89.018646
MLS Listing,,Townhouse,12240 Frazier Ln,Gulfport,MS,39503,221900,3,1.5,Highland Lake Townhomes,1535,1742,2025,29,145,145,Active,,,https://www.redfin.com/MS/Gulfport/12240-Frazier-Ln-39503/home/196241373,MLSU,4118228,N,Y,30.463627,-89.018636
MLS Listing,,Townhouse,12238 Frazier Ln,Gulfport,MS,39503,221900,3,1.5,Highland Lake Townhomes,1535,1742,2025,29,145,145,Active,,,https://www.redfin.com/MS/Gulfport/12238-Frazier-Ln-39503/home/196241361,MLSU,4118227,N,Y,30.463572,-89.018629
MLS Listing,,Multi-Family (2-4 Unit),610 W Oak Dr,Gulfport,MS,39507,350000,6,6.0,Metes And Bounds,3148,11325,2005,29,111,,Active,,,https://www.redfin.com/MS/Gulfport/610-W-Oak-Dr-39507/home/116335648,MLSU,4118225,N,Y,30.3923422,-89.0418308
MLS Listing,,Townhouse,12234 Frazier Ln,Gulfport,MS,39503,221900,3,1.5,Highland Lake Townhomes,1535,1742,2025,29,145,145,Active,,,https://www.redfin.com/MS/Gulfport/12234-Frazier-Ln-39503/home/196241329,MLSU,4118219,N,Y,30.463463,-89.018619
MLS Listing,,Vacant Land,0 Mark West Rd,Gulfport,MS,39503,2050000,,,Gulfport,,3571920,,30,,,Active,,,https://www.redfin.com/MS/Unknown/W-Mark-Rd-39503/home/183684453,MLSU,4118177,N,Y,30.50346,-89.136188
MLS Listing,,Condo/Co-op,1916 2nd St #2,Gulfport,MS,39501,139900,2,1.0,Second Street Condominiums,1012,,1983,30,138,425,Active,,,https://www.redfin.com/MS/Gulfport/1916-2nd-St-39501/unit-2/home/116489713,MLSU,4118168,N,Y,30.3704871,-89.0856321
MLS Listing,,Single Family Residential,13551 Brayton Blvd,Gulfport,MS,39503,359900,4,2.0,Roxbury Estates,1975,16552,2010,30,182,,Active,,,https://www.redfin.com/MS/Gulfport/13551-Brayton-Blvd-39503/home/144298564,MLSU,4118099,N,Y,30.4787233,-89.0795348
MLS Listing,,Vacant Land,Lot 140 Riverroad,Gulfport,MS,39503,64900,,,Retreat Village,,6969,,30,,,Active,,,https://www.redfin.com/MS/Gulfport/Lot-140-River-Rd-39503/home/178655085,MLSU,4118097,N,Y,30.463053,-89.012411
MLS Listing,,Single Family Residential,123 Darran St,Gulfport,MS,39503,220000,3,2.0,Bel-Aire,1813,10018,1971,31,121,,Active,,,https://www.redfin.com/MS/Gulfport/123-Darran-St-39503/home/115918167,MLSU,4118038,N,Y,30.4433065,-89.0898153
MLS Listing,,Single Family Residential,79 Holly Cir,Gulfport,MS,39501,170000,3,2.0,Forest Heights,1800,8712,1970,31,94,,Active,,,https://www.redfin.com/MS/Gulfport/79-Holly-Cir-39501/home/116408620,MLSU,4118036,N,Y,30.4131378,-89.0995205
MLS Listing,,Vacant Land,00 Fournier Ave,Gulfport,MS,39501,15000,,,Metes And Bounds,,8712,,31,,,Active,,,https://www.redfin.com/MS/Gulfport/Fournier-Ave-39501/home/115969941,MLSU,4117998,N,Y,30.36197,-89.121594
MLS Listing,,Vacant Land,Allen Rd,Long Beach,MS,39560,30500,,,Long Beach,,67082,,31,,,Active,,,https://www.redfin.com/MS/Long-Beach/Allen-Rd-39560/home/166400439,MLSU,4117997,N,Y,30.36728,-89.136246
MLS Listing,,Condo/Co-op,2252 Beach Dr #206,Gulfport,MS,39507,300000,2,2.0,Legacy Villas,1657,,2001,31,181,650,Active,,,https://www.redfin.com/MS/Gulfport/2252-Beach-Dr-39507/unit-206/home/115954402,MLSU,4117981,N,Y,30.3882652,-89.0034936
MLS Listing,,Single Family Residential,497 Northeast Ave,Gulfport,MS,39507,144000,3,1.0,Cowan Road Homes,1212,6969,1945,31,119,,Active,,,https://www.redfin.com/MS/Gulfport/497-Northeast-Ave-39507/home/116581807,MLSU,4117965,N,Y,30.3868338,-89.0238306
MLS Listing,,Single Family Residential,8328 S Carolina Ave,Gulfport,MS,39501,199500,3,2.0,North Gulfport,1771,10018,1967,32,113,,Active,,,https://www.redfin.com/MS/Gulfport/8328-S-Carolina-Ave-39501/home/116521975,MLSU,4117888,N,Y,30.4073445,-89.0854499
MLS Listing,,Single Family Residential,15138 Rosewood St,Gulfport,MS,39503,217999,3,2.0,Northwood Hills,1400,9583,1987,32,156,,Active,,,https://www.redfin.com/MS/Gulfport/15138-Rosewood-St-39503/home/116356899,MLSU,4117887,N,Y,30.4667013,-89.0909272
MLS Listing,,Single Family Residential,1426 33rd Ave,Gulfport,MS,39501,225000,2,1.0,Gulfport City,1105,4356,2014,32,204,,Active,,,https://www.redfin.com/MS/Gulfport/1426-33rd-Ave-39501/home/116305218,MLSU,4117872,N,Y,30.3689614,-89.1012511
MLS Listing,,Townhouse,1205 N Century Oaks Dr Unit C,Gulfport,MS,39507,237000,3,3.0,Century Oaks TH PH 4 Key West Common,1156,,2009,32,205,165,Active,,,https://www.redfin.com/MS/Gulfport/1205-Century-Oaks-Dr-39507/unit-C/home/176896323,MLSU,4117862,N,Y,30.3848805,-89.0299915
MLS Listing,,Multi-Family (2-4 Unit),2227 5th Ave,Gulfport,MS,39501,229999,4,4.0,Garys East Side,2055,8712,2006,32,112,,Active,,,https://www.redfin.com/MS/Gulfport/2227-5th-Ave-39501/home/115832443,MLSU,4117861,N,Y,30.3779101,-89.0672878
MLS Listing,,Single Family Residential,1803 Burton Ave,Gulfport,MS,39507,699000,3,3.5,East Gulfport,2450,7840,2025,32,285,,Active,,,https://www.redfin.com/MS/Gulfport/1803-Burton-Ave-39507/home/115776795,MLSU,4117852,N,Y,30.378237,-89.056574
MLS Listing,,Single Family Residential,2305 Roberts Ave,Gulfport,MS,39501,139000,3,2.0,Metes And Bounds,1110,18295,1955,32,125,,Active,,,https://www.redfin.com/MS/Gulfport/2305-Roberts-Ave-39501/home/116553847,MLSU,4117853,N,Y,30.378965,-89.062712
MLS Listing,,Single Family Residential,14453 Aerie Rd,Gulfport,MS,39503,467500,5,3.0,Duckworth Rd. Est,3212,36590,2016,32,146,,Active,,,https://www.redfin.com/MS/Gulfport/14453-Aerie-Rd-39503/home/117172717,MLSU,4117836,N,Y,30.4848154,-89.0848118
MLS Listing,,Single Family Residential,11503 Treelawn St,Gulfport,MS,39503,634000,3,3.0,Oak Island,2498,17424,2023,33,254,,Active,,,https://www.redfin.com/MS/Gulfport/11503-Treelawn-St-39503/home/189648498,MLSU,4117799,N,Y,30.4218088,-89.0337998
MLS Listing,,Single Family Residential,16043 W Dedeaux Rd,Gulfport,MS,39503,578800,3,2.5,Metes And Bounds,2558,43560,2021,34,226,,Active,,,https://www.redfin.com/MS/Gulfport/16043-W-Dedeaux-Rd-39503/home/116224167,MLSU,4117745,N,Y,30.4490911,-89.1054453
MLS Listing,,Single Family Residential,5206 Quincy Ave,Gulfport,MS,39507,294000,3,2.5,Bayou View,2695,20473,1967,34,109,,Active,,,https://www.redfin.com/MS/Gulfport/5206-Quincy-Ave-39507/home/116283757,MLSU,4117743,N,Y,30.4200301,-89.0469291
MLS Listing,,Multi-Family (2-4 Unit),12205 Prudie Cir,Gulfport,MS,39503,179500,6,4.0,Meadows Of Glfpt,2095,3920,2009,35,86,,Active,,,https://www.redfin.com/MS/Gulfport/12205-Prudie-St-39503/home/116478360,MLSU,4115174,N,Y,30.4576104,-89.0667043
MLS Listing,,Single Family Residential,1229 31st Ave,Gulfport,MS,39501,359000,5,2.0,Gulfport City,2533,7405,1900,35,142,,Active,,,https://www.redfin.com/MS/Gulfport/1229-31st-Ave-39501/home/116245102,MLSU,4117678,N,Y,30.3670753,-89.0992485
MLS Listing,,Single Family Residential,18139 Tiffany Renee Dr,Gulfport,MS,39503,249000,3,2.0,Cardinal Pointe,1525,7840,2023,35,163,,Active,,,https://www.redfin.com/MS/Gulfport/18139-Tiffany-Renee-Dr-39503/home/188542681,MLSU,4117662,N,Y,30.4949787,-89.1490534
MLS Listing,,Single Family Residential,2207 Gregory Blvd,Gulfport,MS,39507,259000,3,2.0,Anniston Estates,1643,9583,1964,35,158,,Active,August-2-2025 10:00 AM,August-2-2025 03:00 PM,https://www.redfin.com/MS/Gulfport/2207-Gregory-Blvd-39507/home/116581747,MLSU,4117631,N,Y,30.397194,-89.021559
MLS Listing,,Vacant Land,13290 Bonnie St,Gulfport,MS,39503,24000,,,Gulfport,,22215,,35,,,Active,,,https://www.redfin.com/MS/Gulfport/13290-Bonnie-St-39503/home/116294130,MLSU,4117612,N,Y,30.479544,-89.03762
MLS Listing,,Single Family Residential,14816 Canal Crossing Blvd,Gulfport,MS,39503,256000,4,2.0,Canal Crossing,1869,7405,2016,35,137,,Active,,,https://www.redfin.com/MS/Gulfport/14816-Canal-Crossing-Blvd-39503/home/115855995,MLSU,4117610,N,Y,30.4703243,-89.1411061
MLS Listing,,Single Family Residential,430 Woodward Ave,Gulfport,MS,39501,495000,3,2.0,Metes And Bounds,1510,5662,2020,35,328,,Active,,,https://www.redfin.com/MS/Gulfport/430-Woodward-Ave-39501/home/166240472,MLSU,4117609,N,Y,30.3578332,-89.1151708
MLS Listing,,Single Family Residential,301 N Wilson Blvd,Gulfport,MS,39503,130000,3,1.5,Bel-Aire,1108,11325,1965,35,117,,Active,,,https://www.redfin.com/MS/Gulfport/301-N-Wilson-Blvd-39503/home/115932274,MLSU,4117601,N,Y,30.4520678,-89.0895852
MLS Listing,,Vacant Land,0 34th St,Gulfport,MS,39501,45000,,,Gulfport,,13939,,36,,,Active,,,https://www.redfin.com/MS/Gulfport/34th-St-Unknown/home/116659872,MLSU,4117553,N,Y,30.391394,-89.064792
MLS Listing,,Single Family Residential,3511 Bonita Dr,Gulfport,MS,39501,79900,3,1.0,Villa Del Rey,1269,9583,1963,36,63,,Active,,,https://www.redfin.com/MS/Gulfport/3511-Bonita-Dr-39501/home/116400284,MLSU,4117549,N,Y,30.3931991,-89.1102544
MLS Listing,,Single Family Residential,10271 Patrick Dr,Gulfport,MS,39503,332588,4,2.0,Landry Trace,2278,16552,2024,36,146,42,Active,,,https://www.redfin.com/MS/Gulfport/10271-Patrick-Dr-39503/home/190242101,MLSU,4117543,N,Y,30.4343392,-89.1252049
MLS Listing,,Single Family Residential,40 54th St,Gulfport,MS,39507,535000,4,4.5,Bayou View,3614,38768,1965,36,148,,Active,,,https://www.redfin.com/MS/Gulfport/40-54th-St-39507/home/115776410,MLSU,4117524,N,Y,30.4189783,-89.0542794
MLS Listing,,Single Family Residential,1412 Jo Ellen Cir,Gulfport,MS,39501,83000,3,1.5,Gaston Point,1275,7840,1965,37,65,,Active,,,https://www.redfin.com/MS/Gulfport/1412-Jo-Ellen-Cir-39501/home/116249970,MLSU,4117442,N,Y,30.3664551,-89.1247277
MLS Listing,,Townhouse,1270 Century Oaks Dr Unit A,Gulfport,MS,39507,234900,3,3.0,Century Oaks TH PH 3,1283,871,2006,37,183,165,Active,,,https://www.redfin.com/MS/Gulfport/1270-Century-Oaks-Dr-39507/unit-A/home/192826566,MLSU,4117436,N,Y,30.3854013,-89.0288995
MLS Listing,,Mobile/Manufactured Home,14016 Lori Pl,Gulfport,MS,39503,115000,2,2.0,Lori Place,840,20037,2018,37,137,,Active,,,https://www.redfin.com/MS/Gulfport/14016-Lori-Pl-39503/home/116339795,MLSU,4117420,N,Y,30.4792554,-89.0702435
MLS Listing,,Multi-Family (2-4 Unit),12051 Highland Ave,Gulfport,MS,39503,189000,6,4.0,Meadows Of Glfpt,2101,4356,2012,37,90,,Active,,,https://www.redfin.com/MS/Gulfport/12051-Highland-Ave-39503/home/116432846,MLSU,4117400,N,Y,30.4584359,-89.0677563
MLS Listing,,Single Family Residential,15221 High Point Dr,Gulfport,MS,39503,296805,4,2.0,High Point,2204,10454,2025,37,135,33,Active,,,https://www.redfin.com/MS/Gulfport/15221-High-Point-Dr-39503/home/196186778,MLSU,4117396,N,Y,30.507762,-89.1010444
MLS Listing,,Vacant Land,1014 W Pine St,Gulfport,MS,39507,3800000,,,Gulfport,,675180,,37,,,Active,,,https://www.redfin.com/MS/Gulfport/1014-Pine-St-39507/home/116411345,MLSU,4117368,N,Y,30.403827,-89.033247
MLS Listing,,Single Family Residential,12247 Charwood Ave,Gulfport,MS,39503,224999,3,2.0,Northwood Hills,1604,12196,1995,37,140,,Active,,,https://www.redfin.com/MS/Gulfport/12247-Charwood-Ave-39503/home/116141072,MLSU,4117358,N,Y,30.4635592,-89.0913945
MLS Listing,,Vacant Land,0 Louisiana Ave,Gulfport,MS,39501,150000,,,Gulfport,,85377,,37,,,Active,,,https://www.redfin.com/MS/Gulfport/Louisiana-Ave-39501/home/116669760,MLSU,4117356,N,Y,30.411243,-89.090561
MLS Listing,,Condo/Co-op,1302 Magnolia St Unit A101,Gulfport,MS,39507,365000,2,2.0,Metes And Bounds,1118,,2023,37,326,787,Active,,,https://www.redfin.com/MS/Gulfport/1302-Magnolia-St-39507/unit-A101/home/178932142,MLSU,4117353,N,Y,30.403514,-89.028765
MLS Listing,,Single Family Residential,11541 Briarstone Pl,Gulfport,MS,39503,385000,3,2.0,The Briars,1920,6098,2010,38,201,13,Active,,,https://www.redfin.com/MS/Gulfport/11541-Briarstone-Pl-39503/home/144299872,MLSU,4117331,N,Y,30.4203876,-89.0279192
MLS Listing,,Single Family Residential,13324 Hawk Pl,Gulfport,MS,39503,399500,5,3.0,Florence Gardens,2527,6534,2023,38,158,120,Active,,,https://www.redfin.com/MS/Gulfport/13324-Hawk-Pl-39503/home/194478758,MLSU,4117325,N,Y,30.462836,-89.0596413
MLS Listing,,Single Family Residential,1411 2nd St,Gulfport,MS,39501,825000,4,3.0,Soria City,2961,16552,2022,38,279,,Active,,,https://www.redfin.com/MS/Gulfport/1411-2nd-St-39501/home/115828515,MLSU,4117322,N,Y,30.3721321,-89.0767898
MLS Listing,,Single Family Residential,31 55th St,Gulfport,MS,39507,365000,5,3.0,Bayou View,2693,20037,1960,38,136,,Active,,,https://www.redfin.com/MS/Gulfport/31-55th-St-39507/home/116078213,MLSU,4117321,N,Y,30.4206684,-89.0538102
MLS Listing,,Townhouse,1130 Century Oaks Dr Unit B,Gulfport,MS,39507,242000,3,3.0,Century Oaks TH PH 4 Key West Common,1354,157687,2007,38,179,165,Active,,,https://www.redfin.com/MS/Gulfport/1130-Century-Oaks-Dr-39507/unit-B/home/166270598,MLSU,4117300,N,Y,30.3849045,-89.0291184
MLS Listing,,Single Family Residential,504 Harvey Ave,Gulfport,MS,39503,115000,3,1.5,Loren D Heights,1144,10454,1971,38,101,,Active,,,https://www.redfin.com/MS/Gulfport/504-Harvey-Ave-39503/home/116273758,MLSU,4117289,N,Y,30.4455177,-89.050128
MLS Listing,,Single Family Residential,921 Sweetgum Dr,Gulfport,MS,39503,119000,3,1.5,Wildwood,990,11325,1980,38,120,,Active,,,https://www.redfin.com/MS/Gulfport/921-Sweetgum-Dr-39503/home/115915261,MLSU,4117288,N,Y,30.4528604,-89.0580786
MLS Listing,,Single Family Residential,56 53rd St,Gulfport,MS,39507,348500,4,2.0,Bayou View,3009,30492,1969,38,116,,Active,,,https://www.redfin.com/MS/Gulfport/56-53rd-St-39507/home/115925027,MLSU,4117280,N,Y,30.4158726,-89.054917
MLS Listing,,Condo/Co-op,1302 Magnolia St #202,Gulfport,MS,39507,415000,2,2.0,Handsboro Pointe,1118,,2023,38,371,792,Active,,,https://www.redfin.com/MS/Gulfport/1302-Magnolia-St-39507/unit-202/home/194567481,MLSU,4117221,N,Y,30.403514,-89.028765
MLS Listing,,Vacant Land,135 Arkansas Ave,Gulfport,MS,39507,165000,,,Gulfport,,19602,,38,,,Active,,,https://www.redfin.com/MS/Gulfport/135-Arkansas-Ave-39507/home/116579462,MLSU,4117216,N,Y,30.378804,-89.048347
MLS Listing,,Single Family Residential,1338 2nd St,Gulfport,MS,39501,549900,3,2.0,Soria City,1868,8276,1935,39,294,,Active,,,https://www.redfin.com/MS/Gulfport/1338-2nd-St-39501/home/116157820,MLSU,4117191,N,Y,30.3729823,-89.075615
MLS Listing,,Single Family Residential,4805 Washington Ave,Gulfport,MS,39507,255000,5,5.5,Metes And Bounds,4666,27878,1970,39,55,,Active,,,https://www.redfin.com/MS/Gulfport/4805-Washington-Ave-39507/home/116150420,MLSU,4117125,N,Y,30.4100264,-89.0530913
MLS Listing,,Single Family Residential,10510 Steeplechase Dr,Gulfport,MS,39503,254900,4,2.5,Landon Place,2258,11761,2004,39,113,,Active,,,https://www.redfin.com/MS/Gulfport/10510-Steeplechase-Dr-39503/home/115817375,MLSU,4115043,N,Y,30.4417766,-89.1080746
MLS Listing,,Condo/Co-op,2252 Beach Dr #701,Gulfport,MS,39507,279900,2,2.0,Legacy Villas,1501,615938,2001,39,186,598,Active,,,https://www.redfin.com/MS/Gulfport/2252-Beach-Dr-39507/unit-701/home/116652824,MLSU,4117118,N,Y,30.3882652,-89.0034936
MLS Listing,,Single Family Residential,16918 Alcorn Ave,Gulfport,MS,39503,253500,3,2.0,Belvedere Place,1642,7405,2021,39,154,17,Active,,,https://www.redfin.com/MS/Gulfport/16918-Alcorn-Ave-39503/home/175193971,MLSU,4117117,N,Y,30.5060341,-89.1172422
MLS Listing,,Single Family Residential,12336 Magnolia Ct,Gulfport,MS,39503,245000,3,2.0,Northwood Hills,1740,11761,1969,39,141,,Active,,,https://www.redfin.com/MS/Gulfport/12336-Magnolia-Ct-39503/home/116303770,MLSU,4117114,N,Y,30.4663376,-89.0968908
MLS Listing,,Single Family Residential,209 Kimberly Dr,Gulfport,MS,39503,112000,2,1.5,Olivet,1026,7840,1972,40,109,,Active,,,https://www.redfin.com/MS/Gulfport/209-Kimberly-Dr-39503/home/115915027,MLSU,4116698,N,Y,30.4598324,-89.0768504
MLS Listing,,Single Family Residential,12 Bayou View Dr,Gulfport,MS,39507,457000,3,2.5,Bayou View,2849,30927,1977,41,160,,Active,,,https://www.redfin.com/MS/Gulfport/12-Bayou-View-Dr-39507/home/115951672,MLSU,4117011,N,Y,30.400744,-89.0474465
MLS Listing,,Single Family Residential,14864 Audubon Lake Blvd,Gulfport,MS,39503,282500,3,2.0,Audubon Lake,1624,7840,2021,42,174,,Active,,,https://www.redfin.com/MS/Gulfport/14864-Audubon-Lake-Blvd-39503/home/177690491,MLSU,4116967,N,Y,30.4969839,-89.1441568
MLS Listing,,Single Family Residential,8022 34th Ave,Gulfport,MS,39501,144000,3,1.5,Metes And Bounds,1410,13068,1974,42,102,,Active,,,https://www.redfin.com/MS/Gulfport/8022-34th-Ave-39501/home/115797646,MLSU,4116964,N,Y,30.3987929,-89.1028461
MLS Listing,,Single Family Residential,10850 Lily Ln,Gulfport,MS,39503,641900,4,3.0,Brookestone - Gulfport,2280,8712,2025,42,282,33,Active,,,https://www.redfin.com/MS/Gulfport/10850-Lily-Ln-39503/home/177910707,MLSU,4116960,N,Y,30.414481,-89.020137
MLS Listing,,Single Family Residential,10875 Lily Ln,Gulfport,MS,39503,569900,3,3.0,Brookestone - Gulfport,2190,8276,2025,42,260,33,Active,,,https://www.redfin.com/MS/Gulfport/10875-Lily-Ln-39503/home/177910728,MLSU,4116958,N,Y,30.413946,-89.0209
MLS Listing,,Single Family Residential,10893 Lily Ln,Gulfport,MS,39503,589900,4,3.0,Brookestone - Gulfport,2255,22215,2025,42,262,33,Active,,,https://www.redfin.com/MS/Gulfport/10893-Lily-Ln-39503/home/144305481,MLSU,4116898,N,Y,30.413899,-89.022009
MLS Listing,,Multi-Family (2-4 Unit),3201 20th St,Gulfport,MS,39501,134999,4,3.0,Original Gulfport,2880,7405,1948,42,47,,Active,,,https://www.redfin.com/MS/Gulfport/3201-20th-St-39501/home/144298824,MLSU,4116888,N,Y,30.374398,-89.1005271
MLS Listing,,Single Family Residential,17067 River Hills Dr,Gulfport,MS,39503,386900,4,3.0,River Hills,2486,16988,2025,43,156,54,Active,,,https://www.redfin.com/MS/Gulfport/17067-River-Hills-Dr-39503/home/196137829,MLSU,4116818,N,Y,30.5239825,-89.1237084
MLS Listing,,Single Family Residential,16066 Blue Ridge Dr,Gulfport,MS,39503,326900,4,2.0,River Hills,2091,10018,2025,43,156,54,Active,,,https://www.redfin.com/MS/Gulfport/16066-Blue-Ridge-Dr-39503/home/196137822,MLSU,4116817,N,Y,30.5232247,-89.122942
MLS Listing,,Single Family Residential,16047 Blue Ridge Dr,Gulfport,MS,39503,322900,4,2.0,River Hills,1961,10018,2025,43,165,54,Active,,,https://www.redfin.com/MS/Gulfport/16047-Blue-Ridge-Dr-39503/home/196137713,MLSU,4116814,N,Y,30.5225019,-89.125058
MLS Listing,,Single Family Residential,15920 Blue Ridge Dr,Gulfport,MS,39503,317900,5,3.0,River Hills,2034,7840,2025,43,156,54,Active,,,https://www.redfin.com/MS/Gulfport/15920-Blue-Ridge-Dr-39503/home/196137651,MLSU,4116812,N,Y,30.5231996,-89.1231064
MLS Listing,,Single Family Residential,15916 Blue Ridge Dr,Gulfport,MS,39503,286900,3,2.0,River Hills,1676,8712,2025,43,171,54,Active,,,https://www.redfin.com/MS/Gulfport/15916-Blue-Ridge-Dr-39503/home/196137641,MLSU,4116810,N,Y,30.5231996,-89.1231064
MLS Listing,,Single Family Residential,14300 Hatten Ln,Gulfport,MS,39503,895000,6,6.0,Metes And Bounds,5468,135471,1977,43,164,,Active,,,https://www.redfin.com/MS/Gulfport/14300-Hatten-Ln-39503/home/166311670,MLSU,4116796,N,Y,30.4934049,-89.0807552
MLS Listing,,Single Family Residential,2100 Curcor Dr,Gulfport,MS,39507,435000,3,2.5,Cowan Road Homes,2189,7840,2025,43,199,,Active,,,https://www.redfin.com/MS/Gulfport/2100-Curcor-Dr-39507/home/196261389,MLSU,4116791,N,Y,30.3859918,-89.023293
MLS Listing,,Vacant Land,13028 Alta Vida Ct,Gulfport,MS,39503,70000,,,Gulfport,,74052,,43,,,Active,,,https://www.redfin.com/MS/Gulfport/13028-Alta-Vida-Ct-39503/home/116154861,MLSU,4116759,N,Y,30.453505,-89.052598
MLS Listing,,Vacant Land,12436 Preservation Dr,Gulfport,MS,39503,72000,,,Florence Gardens,,9147,,43,,130,Active,,,https://www.redfin.com/MS/Gulfport/12436-Preservation-Dr-39503/home/185512618,MLSU,4115422,N,Y,30.467937,-89.0544369
MLS Listing,,Single Family Residential,2513 Joan Ave,Gulfport,MS,39501,227900,3,1.5,Broad Acres,1664,16117,1931,43,137,,Active,,,https://www.redfin.com/MS/Gulfport/2513-Joan-Ave-39501/home/116210678,MLSU,4109375,N,Y,30.3811212,-89.0756788
MLS Listing,,Single Family Residential,18109 Evergreen Dr,Gulfport,MS,39503,287500,3,2.0,Crystal Lake,1642,6534,2022,44,175,60,Active,,,https://www.redfin.com/MS/Gulfport/18109-Evergreen-Dr-39503/home/184252409,MLSU,4116696,N,Y,30.452208,-89.1405045
MLS Listing,,Single Family Residential,1003 Cecille St,Gulfport,MS,39501,198000,3,3.0,Gulfport,1572,13939,1940,44,126,,Active,,,https://www.redfin.com/MS/Gulfport/1003-Cecille-St-39501/home/116136592,PRCBOR,183494,N,Y,30.3833617,-89.0694814
MLS Listing,,Single Family Residential,930 2nd St,Gulfport,MS,39501,449000,3,3.0,Mississippi City Company Surv,2069,6534,2007,44,217,,Active,,,https://www.redfin.com/MS/Gulfport/930-2nd-St-39501/home/116212027,MLSU,4105967,N,Y,30.37504,-89.067621
MLS Listing,,Single Family Residential,14172 Debra Barbee Ct,Gulfport,MS,39503,249000,3,2.0,Sanctuary Trails,1379,11325,2024,44,181,45,Active,,,https://www.redfin.com/MS/Unknown/14172-Sanctuary-Trails-Dr-Unknown/home/194478652,MLSU,4115477,N,Y,30.489447,-89.047983
MLS Listing,,Vacant Land,Lawrence Pl,Gulfport,MS,39507,150000,,,Bayou View,,13939,,45,,,Active,,,https://www.redfin.com/MS/Gulfport/Lawrence-Pl-39507/home/116616045,MLSU,4116552,N,Y,30.402589,-89.04547
MLS Listing,,Single Family Residential,16424 Millsaps Ave,Gulfport,MS,39503,299900,4,2.0,Savoy Place,2204,10018,2022,45,136,21,Active,August-2-2025 11:00 AM,August-2-2025 02:00 PM,https://www.redfin.com/MS/Gulfport/16424-Millsaps-Ave-39503/home/182146518,MLSU,4116542,N,Y,30.506901,-89.118154
MLS Listing,,Single Family Residential,12721 John Ross Rd. Rd,Gulfport,MS,39503,700000,5,4.5,Oak Forest Estates,4336,47916,1997,46,161,,Active,,,https://www.redfin.com/MS/Gulfport/12721-John-Ross-Rd-39503/home/116154877,MLSU,4116479,N,Y,30.4691035,-89.0418179
MLS Listing,,Single Family Residential,14366 Pen Pl,Gulfport,MS,39503,356630,4,2.5,Swan Ridge,2811,17424,2025,46,127,,Active,,,https://www.redfin.com/MS/Gulfport/14366-Pen-Pl-39503/home/195592991,MLSU,4112013,N,Y,30.490278244018555,-89.09391021728516
MLS Listing,,Single Family Residential,15284 Woody Dr,Gulfport,MS,39503,160000,4,2.0,Northwood Hills North,2079,11761,1974,47,77,,Active,,,https://www.redfin.com/MS/Gulfport/15284-Woody-Dr-39503/home/116619417,MLSU,4115012,N,Y,30.4715779,-89.0957406
MLS Listing,,Single Family Residential,17103 River Hills Dr,Gulfport,MS,39503,386900,4,3.5,River Hills,2486,16552,2025,49,156,54,Active,,,https://www.redfin.com/MS/Gulfport/17103-River-Hills-Dr-39503/home/196081581,MLSU,4116252,N,Y,30.5239825,-89.1237084
MLS Listing,,Condo/Co-op,2252 Beach Dr #203,Gulfport,MS,39507,265000,2,2.0,Legacy Villas,1295,,2001,49,205,544,Active,,,https://www.redfin.com/MS/Gulfport/2252-Beach-Dr-39507/unit-203/home/115777566,MLSU,4116203,N,Y,30.3907962,-89.003513
MLS Listing,,Single Family Residential,14280 Whippoorwill Rd,Gulfport,MS,39503,309900,4,2.0,Hatten Farms,2270,10890,2016,49,137,,Active,,,https://www.redfin.com/MS/Gulfport/14280-Whippoorwill-Rd-39503/home/115809730,MLSU,4116187,N,Y,30.5003884,-89.0773891
MLS Listing,,Single Family Residential,18097 Craine Ridge Cv,Gulfport,MS,39503,269900,3,3.0,Audubon Lake,1917,9147,2023,50,141,,Active,,,https://www.redfin.com/MS/Gulfport/18097-Crane-Ridge-Cv-39503/home/196069985,MLSU,4116171,N,Y,30.502691,-89.142415
MLS Listing,,Single Family Residential,931 Brown St,Gulfport,MS,39507,230000,4,1.0,Fernwood Heights,1992,27442,1967,50,115,,Active,,,https://www.redfin.com/MS/Gulfport/931-Brown-St-39507/home/116017871,MLSU,4116163,N,Y,30.4053627,-89.013564
MLS Listing,,Condo/Co-op,2252 Beach Dr #602,Gulfport,MS,39507,339000,3,2.0,Legacy Villas,1691,,2001,50,200,668,Active,,,https://www.redfin.com/MS/Gulfport/2252-Beach-Dr-39507/unit-602/home/116362604,MLSU,4116131,N,Y,30.3882652,-89.0034936
MLS Listing,,Townhouse,12232 Frazier Ln #10,Gulfport,MS,39503,221900,3,2.5,Highland Lake Townhomes,1521,1742,2025,50,146,145,Active,,,https://www.redfin.com/MS/Gulfport/12232-Frazier-Ln-39503/unit-10/home/196082265,MLSU,4116119,N,Y,30.463408,-89.018618
MLS Listing,,Single Family Residential,12442 Cox Rd,Gulfport,MS,39503,189000,2,2.0,Metes And Bounds,1036,34848,1992,50,182,,Active,August-2-2025 10:00 AM,August-2-2025 01:00 PM,https://www.redfin.com/MS/Gulfport/12442-Cox-Rd-39503/home/166363086,MLSU,4116085,N,Y,30.4760258,-89.0493114
MLS Listing,,Single Family Residential,1523 Stewart Ave,Gulfport,MS,39501,174900,3,2.0,Stewart,1127,5227,1955,50,155,,Active,,,https://www.redfin.com/MS/Gulfport/1523-Stewart-Ave-39501/home/115784689,MLSU,4116074,N,Y,30.3674813,-89.1288558
MLS Listing,,Vacant Land,0 Bayou Bernard Rd,Gulfport,MS,39503,339000,,,Metes And Bounds,,766656,,51,,,Active,,,https://www.redfin.com/MS/Gulfport/Bayou-Bernard-Rd-39503/home/176935400,MLSU,4116056,N,Y,30.427336,-89.044457
MLS Listing,,Vacant Land,631 Mcintosh St,Gulfport,MS,39507,69900,,,Metes And Bounds,,7405,,51,,,Active,,,https://www.redfin.com/MS/Gulfport/631-McIntosh-St-39507/home/116157583,MLSU,4116038,N,Y,30.382016,-89.039071
MLS Listing,,Single Family Residential,11391 Pine Dr,Gulfport,MS,39503,210000,3,2.0,Oakleigh Manor,1468,13939,1973,51,143,,Active,,,https://www.redfin.com/MS/Gulfport/11391-Pine-Dr-39503/home/116284475,MLSU,4116010,N,Y,30.450232,-89.019288
MLS Listing,,Single Family Residential,15914 Blue Ridge Dr,Gulfport,MS,39503,306900,4,2.0,River Hills,1835,8712,2025,51,167,54,Active,,,https://www.redfin.com/MS/Gulfport/15914-Blue-Ridge-Dr-39503/home/196017514,MLSU,4115745,N,Y,30.5231996,-89.1231064
MLS Listing,,Single Family Residential,13064 Tracewood Dr,Gulfport,MS,39503,216000,3,2.0,Tracewood,1554,10890,2020,51,139,,Active,August-2-2025 11:00 AM,August-2-2025 02:00 PM,https://www.redfin.com/MS/Gulfport/13064-Tracewood-Dr-39503/home/166362911,MLSU,4115990,N,Y,30.4730386,-89.0625128
MLS Listing,,Single Family Residential,633 24th St,Gulfport,MS,39501,120000,3,2.0,Hewes Addition,1352,8276,1950,51,89,,Active,,,https://www.redfin.com/MS/Gulfport/633-24th-St-39501/home/116085132,MLSU,4115989,N,Y,30.3797431,-89.0618484
MLS Listing,,Single Family Residential,16814 W Landon Green Dr,Gulfport,MS,39503,372900,4,2.0,Landon Green,2190,14374,2024,51,170,29,Active,,,https://www.redfin.com/MS/Gulfport/16814-W-Landon-Green-Dr-39503/home/184254590,MLSU,4115971,N,Y,30.438547,-89.123617
MLS Listing,,Single Family Residential,940 2nd St,Gulfport,MS,39501,898500,4,3.0,Metes And Bounds,4109,20473,2007,51,219,,Active,,,https://www.redfin.com/MS/Gulfport/940-2nd-St-39501/home/115907408,MLSU,4115967,N,Y,30.3750375,-89.0678835
MLS Listing,,Condo/Co-op,2252 Beach Dr #606,Gulfport,MS,39507,329900,3,2.0,Legacy Villas,1771,615938,2001,52,186,713,Active,,,https://www.redfin.com/MS/Gulfport/2252-Beach-Dr-39507/unit-606/home/116245474,MLSU,4115941,N,Y,30.3882652,-89.0034936
MLS Listing,,Vacant Land,55th St,Gulfport,MS,39507,98000,,,Gulfport,,19166,,52,,,Active,,,https://www.redfin.com/MS/Gulfport/55th-St-39507/home/196036787,MLSU,4115901,N,Y,30.42087,-89.054921
MLS Listing,,Single Family Residential,420 N Caribe Pl,Gulfport,MS,39507,474000,4,4.0,Canal Place,2740,23522,1985,52,173,,Active,,,https://www.redfin.com/MS/Gulfport/420-Caribe-Pl-N-39507/home/116351748,MLSU,4115871,N,Y,30.4032771,-89.0419816
MLS Listing,,Single Family Residential,15313 Baywood Cir,Gulfport,MS,39503,249900,4,2.5,Northwood Hills,2325,11325,1976,52,107,,Active,,,https://www.redfin.com/MS/Gulfport/15313-Baywood-Cir-39503/home/116555834,MLSU,4115868,N,Y,30.4651896,-89.0963419
MLS Listing,,Single Family Residential,12024 Parc Aux Chenes,Gulfport,MS,39503,345335,4,3.0,Oak Landing,1991,14374,2025,52,173,,Active,,,https://www.redfin.com/MS/Gulfport/12024-Parc-Aux-Chenes-39503/home/196034143,MLSU,4115855,N,Y,30.456444,-89.016934
MLS Listing,,Single Family Residential,2623 Demaret Dr,Gulfport,MS,39507,215000,4,1.5,College Park,1576,11325,1965,53,136,,Active,,,https://www.redfin.com/MS/Gulfport/2623-Demaret-Dr-39507/home/116153998,MLSU,4115838,N,Y,30.3986118,-89.0059334
MLS Listing,,Single Family Residential,16058 Blue Ridge Dr,Gulfport,MS,39503,321900,4,2.0,River Hills,1961,9147,2025,53,164,54,Active,,,https://www.redfin.com/MS/Gulfport/16058-Blue-Ridge-Dr-39503/home/196017549,MLSU,4115753,N,Y,30.5232247,-89.122942
MLS Listing,,Single Family Residential,14795 Davidson Ct,Gulfport,MS,39503,249875,3,2.0,Cardinal Pointe,1525,9147,2024,55,164,,Active,,,https://www.redfin.com/MS/Gulfport/14795-Road-237-39503/home/196020905,MLSU,4115680,N,Y,30.496947,-89.149312
MLS Listing,,Single Family Residential,524 Champlin St,Gulfport,MS,39507,597500,4,3.5,Bayou View,3750,52272,1980,55,159,,Active,,,https://www.redfin.com/MS/Gulfport/524-Champlin-St-39507/home/116461319,MLSU,4115669,N,Y,30.4081522,-89.0411313
MLS Listing,,Vacant Land,Evans Rd,Gulfport,MS,39507,49000,,,Gulfport,,21780,,56,,,Active,,,https://www.redfin.com/MS/Gulfport/Evans-Rd-39503/home/116153168,MLSU,4115594,N,Y,30.423913,-89.037697
MLS Listing,,Vacant Land,Karen Ct,Gulfport,MS,39503,25000,,,Briarwood,,7405,,56,,,Active,,,https://www.redfin.com/MS/Gulfport/Karen-Ct-39503/home/115839911,MLSU,4108556,N,Y,30.464617,-89.083223
MLS Listing,,Vacant Land,W Pine St,Gulfport,MS,39507,59500,,,Gulfport,,76665,,56,,,Active,,,https://www.redfin.com/MS/Gulfport/Pine-St-39507/home/166372143,MLSU,4115500,N,Y,30.404314,-89.034882
MLS Listing,,Single Family Residential,202 45th St,Gulfport,MS,39507,275000,3,2.0,Bayou View,2028,23958,1954,57,136,,Active,,,https://www.redfin.com/MS/Gulfport/202-45th-St-39507/home/116168056,MLSU,4115493,N,Y,30.4057177,-89.0549581
MLS Listing,,Single Family Residential,14393 Swan Ridge Cir,Gulfport,MS,39503,331685,4,2.0,Swan Ridge,2314,10018,2025,57,143,,Active,,,https://www.redfin.com/MS/Gulfport/14393-Swan-Ridge-Cir-39503/home/196001634,MLSU,4110153,N,Y,30.4914379,-89.0930084
MLS Listing,,Single Family Residential,13061 Jordan Pl,Gulfport,MS,39503,269000,3,2.0,Cypress Pond,1468,6969,2002,57,183,,Active,,,https://www.redfin.com/MS/Gulfport/13061-Jordan-Pl-39503/home/144298656,MLSU,4115420,N,Y,30.4738679,-89.0779208
MLS Listing,,Single Family Residential,2610 Demaret Dr,Gulfport,MS,39507,180000,4,1.5,College Park,1700,9583,1965,57,106,,Active,,,https://www.redfin.com/MS/Gulfport/2610-Demaret-Dr-39507/home/116251564,MLSU,4115392,N,Y,30.3981133,-89.0073642
MLS Listing,,Vacant Land,0 Hilda St,Gulfport,MS,39503,17000,,,Gulfport,,16988,,58,,,Active,,,https://www.redfin.com/MS/Gulfport/Hilda-St-39503/home/196353755,MLSU,4115347,N,Y,30.477148,-89.025606
MLS Listing,,Single Family Residential,11619 Acorn Dr,Gulfport,MS,39503,165000,3,2.0,Gulfport,1216,6534,2008,58,136,,Active,,,https://www.redfin.com/MS/Gulfport/11619-Acorn-Dr-39503/home/116265809,PRCBOR,183426,N,Y,30.449937,-89.113547
MLS Listing,,Vacant Land,2001 30th St,Gulfport,MS,39501,63900,,,Gulfport,,28314,,58,,,Active,,,https://www.redfin.com/MS/Gulfport/2001-30th-St-39501/home/116257225,MLSU,4115343,N,Y,30.3864083,-89.0868361
MLS Listing,,Vacant Land,Courthouse Rd,Gulfport,MS,39507,82000,,,Satsuma,,22651,,58,,,Active,,,https://www.redfin.com/MS/Gulfport/Courthouse-Rd-39507/home/115790970,MLSU,4115290,N,Y,30.383104,-89.042861
MLS Listing,,Single Family Residential,165 Canal St,Gulfport,MS,39507,119900,2,2.0,Bayou View,1179,23522,1950,58,102,,Active,,,https://www.redfin.com/MS/Gulfport/165-Canal-St-39507/home/116200893,MLSU,4115287,N,Y,30.3987563,-89.0514932
MLS Listing,,Single Family Residential,18108 Steamer Way,Gulfport,MS,39503,212995,3,2.5,Canal Crossing,1480,11761,2010,59,144,,Active,,,https://www.redfin.com/MS/Gulfport/18108-Steamer-Way-39503/home/144295847,MLSU,4115220,N,Y,30.4670691,-89.1401946
MLS Listing,,Single Family Residential,16872 W Landon Green Cir,Gulfport,MS,39503,399000,4,2.5,Landon Green,2071,12196,2022,59,193,29,Active,,,https://www.redfin.com/MS/Gulfport/16872-W-Landon-Green-Dr-39503/home/184254597,MLSU,4115218,N,Y,30.4429984,-89.1219102
MLS Listing,,Mobile/Manufactured Home,18295 Robin Oaks Dr,Gulfport,MS,39503,145000,3,1.0,Robin Oaks Estates,720,22215,1980,59,201,,Active,,,https://www.redfin.com/MS/Gulfport/18295-Robin-Oaks-Dr-39503/home/116061142,MLSU,4115215,N,Y,30.461719,-89.1450576
MLS Listing,,Vacant Land,1537 Lot C Midway Ave,Gulfport,MS,39507,169000,,,Gulfport,,9147,,59,,,Active,,,https://www.redfin.com/MS/Gulfport/1537-Midway-Dr-39507/home/115983236,MLSU,4115147,N,Y,30.376404,-89.057252
MLS Listing,,Single Family Residential,1529 Magnolia St #15,Gulfport,MS,39507,475000,4,3.5,Old Taylor Place,3041,7840,2006,60,156,125,Active,,,https://www.redfin.com/MS/Gulfport/1529-Magnolia-St-39507/unit-15/home/116579826,MLSU,4115090,N,Y,30.4023703,-89.02275
MLS Listing,,Single Family Residential,7 Villa Cove Dr,Gulfport,MS,39507,259000,3,2.0,Bayou View,1963,13503,1969,60,132,,Active,,,https://www.redfin.com/MS/Gulfport/7-Villa-Cove-Dr-39507/home/116351548,MLSU,4113418,N,Y,30.4046205,-89.0397674
MLS Listing,,Townhouse,12274 Frazier Ln,Gulfport,MS,39503,221900,3,1.5,Highland Lake Townhomes,1535,1742,2025,61,145,145,Active,,,https://www.redfin.com/MS/Gulfport/12274-Frazier-Ln-39503/home/195576768,MLSU,4115000,N,Y,30.464273,-89.019746
MLS Listing,,Single Family Residential,13400 Willow Oak Cir,Gulfport,MS,39503,229000,3,2.0,Turtle Creek,1353,7840,2018,61,169,15,Active,,,https://www.redfin.com/MS/Gulfport/13400-Willow-Oak-Cir-39503/home/116659223,MLSU,4114986,N,Y,30.4800331,-89.0540216
MLS Listing,,Single Family Residential,2948 Magnolia Ct,Gulfport,MS,39507,135000,3,2.0,Magnolia Court,1250,3920,2011,62,108,,Active,,,https://www.redfin.com/MS/Gulfport/2948-Magnolia-Ct-39507/home/116477399,MLSU,4114182,N,Y,30.3861857,-89.0546682
MLS Listing,,Condo/Co-op,413 Kahler St #27,Gulfport,MS,39507,99000,1,1.0,Wellington Place,748,70131,1973,63,132,288,Active,,,https://www.redfin.com/MS/Gulfport/413-Kahler-St-39507/unit-27/home/115798898,MLSU,4112659,N,Y,30.4091167,-89.043655
MLS Listing,,Vacant Land,18th Ave,Gulfport,MS,39501,50000,,,Gulfport,,19602,,63,,,Active,,,https://www.redfin.com/MS/Gulfport/18th-Ave-39501/home/195954478,MLSU,4114805,N,Y,30.376666,-89.083828
MLS Listing,,Condo/Co-op,2501 Gulf Ave #22,Gulfport,MS,39501,125000,2,1.5,Colony Park,1127,227383,1975,64,111,550,Active,,,https://www.redfin.com/MS/Gulfport/2501-Gulf-Ave-39501/unit-22/home/116284372,MLSU,4114797,N,Y,30.3804824,-89.0653282
MLS Listing,,Vacant Land,0 Sheldon St,Gulfport,MS,39503,6000,,,Gulfport,,5227,,64,,,Active,,,https://www.redfin.com/MS/Gulfport/Sheldon-St-39503/home/177346017,MLSU,4114764,N,Y,30.479514,-89.030249
MLS Listing,,Vacant Land,0 Belinda Ave,Gulfport,MS,39503,7500,,,Gulfport,,5662,,64,,,Active,,,https://www.redfin.com/MS/Gulfport/Belinda-Ave-39503/home/116081916,MLSU,4114760,N,Y,30.479504,-89.033331
MLS Listing,,Vacant Land,0 Belinda Ave,Gulfport,MS,39503,7500,,,Gulfport,,5662,,64,,,Active,,,https://www.redfin.com/MS/Gulfport/Belinda-Ave-39503/home/176914278,MLSU,4114758,N,Y,30.481362,-89.032998
MLS Listing,,Single Family Residential,18052 Tiffany Renee Dr,Gulfport,MS,39503,269775,4,2.0,Cardinal Pointe,1820,8712,2024,64,148,,Active,,,https://www.redfin.com/MS/Gulfport/18052-Tiffany-Renee-Dr-39503/home/195948152,MLSU,4114757,N,Y,30.4955595,-89.1491578
MLS Listing,,Single Family Residential,500 Brandi Ln,Gulfport,MS,39507,439000,3,2.5,Hidden Bayou,2860,10454,1998,64,153,,Active,,,https://www.redfin.com/MS/Gulfport/500-Brandi-Ln-39507/home/116078804,MLSU,4114718,N,Y,30.4021304,-89.0411534
MLS Listing,,Single Family Residential,1113 Glendale Pl,Gulfport,MS,39507,164500,3,2.0,Glendale Place,1320,15246,1989,64,125,,Active,,,https://www.redfin.com/MS/Gulfport/1113-Glendale-Pl-39507/home/116170960,MLSU,4114713,N,Y,30.4065183,-89.0126512
MLS Listing,,Single Family Residential,21829 Hunters Cv,Gulfport,MS,39503,285000,3,2.0,Gulf Haven,1710,26136,2019,64,167,,Active,,,https://www.redfin.com/MS/Gulfport/21829-Hunters-Cv-39503/home/166153938,MLSU,4114657,N,Y,30.4703467,-89.1989934
MLS Listing,,Condo/Co-op,928 Courthouse Rd #25,Gulfport,MS,39507,130000,3,2.5,Bayou View,1494,213444,1973,66,87,480,Active,,,https://www.redfin.com/MS/Gulfport/928-Courthouse-Rd-39507/unit-25/home/116284027,MLSU,4114528,N,Y,30.3988733,-89.0417024
MLS Listing,,Single Family Residential,13395 Libby Ln,Gulfport,MS,39503,117760,3,2.0,Hidden Oaks,1194,6534,2004,66,99,19,Active,,,https://www.redfin.com/MS/Gulfport/13395-Libby-Ln-39503/home/116014383,MLSU,4110581,N,Y,30.4817176,-89.0584634
MLS Listing,,Single Family Residential,132 Markham Dr,Gulfport,MS,39507,644999,4,2.0,Gulf Shore Manor,2100,5227,2021,67,307,,Active,,,https://www.redfin.com/MS/Gulfport/132-Markham-Dr-39507/home/178930095,MLSU,4114443,N,Y,30.3815248,-89.033652
MLS Listing,,Vacant Land,Creek Dr,Gulfport,MS,39503,32000,,,Fritz Creek,,23522,,69,,,Active,,,https://www.redfin.com/MS/Gulfport/Creek-Dr-39503/home/116284596,MLSU,4114293,N,Y,30.448429,-89.025069
MLS Listing,,Vacant Land,Creek Dr,Gulfport,MS,39503,32000,,,Gulfport,,18295,,69,,,Active,,,https://www.redfin.com/MS/Gulfport/Creek-Dr-39503/home/116091865,MLSU,4114290,N,Y,30.448229,-89.024911
MLS Listing,,Single Family Residential,12038 Parc Merlot,Gulfport,MS,39503,374940,4,3.0,Oak Landing,2372,12196,2025,70,158,,Active,,,https://www.redfin.com/MS/Gulfport/12038-Parc-Merlot-39503/home/195858092,MLSU,4113874,N,Y,30.458601,-89.017522
MLS Listing,,Vacant Land,49th Ave,Gulfport,MS,39501,17500,,,Gulfport,,6969,,70,,,Active,,,https://www.redfin.com/MS/Gulfport/49th-Ave-39501/home/116072934,MLSU,4114244,N,Y,30.410618,-89.092109
MLS Listing,,Single Family Residential,11 Bayou Pl,Gulfport,MS,39503,975000,4,3.5,Bayou Oaks,2375,28314,1986,70,411,,Active,,,https://www.redfin.com/MS/Gulfport/11-Bayou-Pl-39503/home/116392421,MLSU,4114194,N,Y,30.4106808,-89.0356107
MLS Listing,,Single Family Residential,1264 28th St,Gulfport,MS,39501,209900,3,2.0,Metes And Bounds,1717,14810,1950,71,122,,Active,,,https://www.redfin.com/MS/Gulfport/1264-28th-St-39501/home/116495516,MLSU,4114147,N,Y,30.3844365,-89.0770082
MLS Listing,,Single Family Residential,2314 Curcor Dr,Gulfport,MS,39507,149900,3,1.0,Cowan Road Homes,1278,7405,1957,71,117,,Active,,,https://www.redfin.com/MS/Gulfport/2314-Curcor-Dr-39507/home/116173026,MLSU,4114130,N,Y,30.3873147,-89.0205478
MLS Listing,,Single Family Residential,128 Debuys Rd,Biloxi,MS,39531,274900,3,2.5,Lost Garden Villas,1521,2178,2024,71,181,145,Active,,,https://www.redfin.com/MS/Biloxi/128-Debuys-Rd-39531/home/195887049,MLSU,4114109,N,Y,30.3893209,-89.0012733
MLS Listing,,Single Family Residential,635 Oakleigh Ave,Gulfport,MS,39507,199900,3,2.0,Oakleigh,1259,10890,1952,71,159,,Active,,,https://www.redfin.com/MS/Gulfport/635-Oakleigh-Ave-39507/home/116296061,MLSU,4114097,N,Y,30.3998934,-89.0068522
MLS Listing,,Single Family Residential,101 30th St,Gulfport,MS,39507,159000,3,1.0,East Magnolia Grv,996,8276,1960,71,160,,Active,,,https://www.redfin.com/MS/Gulfport/101-30th-St-39507/home/116462049,MLSU,4114083,N,Y,30.3864369,-89.0525022
MLS Listing,,Single Family Residential,536 Beach Dr,Gulfport,MS,39507,599000,3,3.0,Metes And Bounds,1648,13068,2025,72,363,,Active,,,https://www.redfin.com/MS/Gulfport/536-Beach-Dr-39507/home/195868546,MLSU,4113966,N,Y,30.3797714,-89.0412891
MLS Listing,,Single Family Residential,8 Katherine Pl,Gulfport,MS,39503,239900,3,2.5,Colonial Estates,2136,18730,1980,72,112,,Active,,,https://www.redfin.com/MS/Gulfport/8-Katherine-Pl-39503/home/116496066,MLSU,4113963,N,Y,30.4515509,-89.0502261
MLS Listing,,Multi-Family (2-4 Unit),2219 31st St,Gulfport,MS,39501,445000,8,7.0,Standard Land,4007,14374,1965,73,111,,Active,,,https://www.redfin.com/MS/Gulfport/2219-31st-St-39501/home/115905473,MLSU,4113908,N,Y,30.3873679,-89.0898253
MLS Listing,,Single Family Residential,9020 Victoria Cir,Gulfport,MS,39503,685000,4,3.5,Brighton Place,3600,11325,1996,73,190,38,Active,,,https://www.redfin.com/MS/Gulfport/9020-Victoria-Cir-39503/home/115941422,MLSU,4113865,N,Y,30.4143463,-89.0323982
MLS Listing,,Single Family Residential,2710 E Angela Cir,Gulfport,MS,39503,139900,3,1.5,Pinehill,1530,8712,1972,73,91,,Active,,,https://www.redfin.com/MS/Gulfport/2710-E-Angela-Cir-39503/home/116294421,MLSU,4113830,N,Y,30.4486602,-89.0451413
MLS Listing,,Single Family Residential,2201 15th Ave,Gulfport,MS,39501,200000,3,1.0,Metes And Bounds,1033,10890,1940,74,194,,Active,,,https://www.redfin.com/MS/Gulfport/2201-15th-Ave-39501/home/116283118,MLSU,4113804,N,Y,30.3769739,-89.0805213
MLS Listing,,Multi-Family (2-4 Unit),2207 15th Ave Unit A And B,Gulfport,MS,39501,220000,6,4.0,Metes And Bounds,2132,10890,2009,74,103,,Active,,,https://www.redfin.com/MS/Gulfport/2207-15th-Ave-39501/unit-A-And-B/home/195852208,MLSU,4113797,N,Y,30.3772162,-89.0803784
MLS Listing,,Single Family Residential,1233 25th St,Gulfport,MS,39501,110000,3,1.5,Broad Acres,1144,7405,1960,74,96,,Active,,,https://www.redfin.com/MS/Gulfport/1233-25th-St-39501/home/115840764,MLSU,4112875,N,Y,30.3800045,-89.0750121
MLS Listing,,Single Family Residential,16170 Kenwood Dr,Gulfport,MS,39503,220000,3,2.0,Kenwood,2530,18295,1982,74,87,,Active,,,https://www.redfin.com/MS/Gulfport/16170-Kenwood-Dr-39503/home/116139949,MLSU,4110806,N,Y,30.4604636,-89.1089922
MLS Listing,,Single Family Residential,10264 Riverroad Dr,Gulfport,MS,39503,435000,3,2.0,Retreat Village,2076,15681,2005,74,210,,Active,,,https://www.redfin.com/MS/Gulfport/10264-Riverroad-Dr-39503/home/116167601,MLSU,4113766,N,Y,30.463592,-89.010579
MLS Listing,,Single Family Residential,2730 E Angela Cir,Gulfport,MS,39503,160000,3,2.0,Pine Hills,1400,9583,1974,76,114,,Active,,,https://www.redfin.com/MS/Gulfport/2730-E-Angela-Cir-39503/home/116539863,MLSU,4113662,N,Y,30.4477883,-89.0446798
MLS Listing,,Single Family Residential,18051 Tiffany Renee Dr,Gulfport,MS,39503,261425,4,2.0,Cardinal Pointe,1635,15681,2024,76,160,,Active,,,https://www.redfin.com/MS/Gulfport/18051-Tiffany-Renee-Dr-39503/home/195580426,MLSU,4113642,N,Y,30.4952155,-89.1496363
MLS Listing,,Townhouse,1276 Century Oaks Dr Unit B,Gulfport,MS,39507,235000,3,3.0,Century Oaks TH PH 3,1283,1306,2006,77,183,165,Active,,,https://www.redfin.com/MS/Gulfport/1276-Century-Oaks-Dr-39507/unit-B/home/192563508,MLSU,4113613,N,Y,30.3852531,-89.0284387
MLS Listing,,Single Family Residential,2900 7th Ave,Gulfport,MS,39501,175000,3,1.0,Myrtle,1495,6969,1940,77,117,,Active,,,https://www.redfin.com/MS/Gulfport/2900-7th-Ave-39501/home/116393131,MLSU,4113598,N,Y,30.3855405,-89.0679761
MLS Listing,,Vacant Land,5 Oaks Dr,Gulfport,MS,39503,5000,,,Five Oaks,,18295,,77,,,Active,,,https://www.redfin.com/MS/Gulfport/Oaks-Dr-39503/home/189970787,MLSU,4113576,N,Y,30.461656,-89.112588
MLS Listing,,Multi-Family (5+ Unit),2301 16th Ave,Gulfport,MS,39501,350000,27,22.0,Metes And Bounds,16814,97138,1930,77,21,,Active,,,https://www.redfin.com/MS/Gulfport/2301-16th-Ave-39501/home/116159161,MLSU,4113566,N,Y,30.3781091,-89.0814246
MLS Listing,,Single Family Residential,14540 Canal Loop,Gulfport,MS,39503,235000,3,2.0,Canal Crossing,1608,7405,2019,77,146,,Active,,,https://www.redfin.com/MS/Gulfport/14540-Canal-Loop-39503/home/148716982,MLSU,4113557,N,Y,30.4710278,-89.1445072
MLS Listing,,Condo/Co-op,2252 Beach Dr #305,Gulfport,MS,39507,335400,2,2.0,Legacy Villas,1635,,2001,77,205,650,Active,,,https://www.redfin.com/MS/Gulfport/2252-Beach-Dr-39507/unit-305/home/116160700,MLSU,4113530,N,Y,30.3907962,-89.003513
MLS Listing,,Single Family Residential,15364 Percy St,Gulfport,MS,39503,272635,4,2.5,Stockridge,1902,6969,2025,77,143,42,Active,,,https://www.redfin.com/MS/Gulfport/15364-Percy-St-39503/home/195831049,MLSU,4113487,N,Y,30.5005208,-89.1003341
MLS Listing,,Single Family Residential,13328 Hawk Pl,Gulfport,MS,39503,336500,3,2.0,Florence Gardens,1554,6534,2021,77,217,120,Active,,,https://www.redfin.com/MS/Gulfport/13328-Hawk-Pl-39503/home/177910353,MLSU,4113485,N,Y,30.4628412,-89.0599288
MLS Listing,,Vacant Land,Canal Rd,Gulfport,MS,39503,1113600,,,Gulfport,,4042368,,78,,,Active,,,https://www.redfin.com/MS/Gulfport/Canal-Rd-39503/home/166351510,MLSU,4113462,N,Y,30.443601,-89.133416
MLS Listing,,Single Family Residential,13342 E Carriage Cir,Gulfport,MS,39503,280875,3,2.0,Roxbury Place,1876,11761,2000,78,150,,Active,,,https://www.redfin.com/MS/Gulfport/13342-Carriage-Cir-39503/home/116138434,MLSU,4113459,N,Y,30.481219,-89.0742889
MLS Listing,,Vacant Land,4410+8150 Michigan Ave,Gulfport,MS,39501,19900,,,North Gulfport,,13939,,78,,,Active,,,https://www.redfin.com/MS/Gulfport/8150-Michigan-Ave-39501/home/116683266,MLSU,4113450,N,Y,30.402372,-89.101192
MLS Listing,,Single Family Residential,154 Ben Dr,Gulfport,MS,39503,155000,3,1.0,Bel-Aire,1600,9583,1972,78,97,,Active,,,https://www.redfin.com/MS/Gulfport/154-Ben-Dr-39503/home/116151216,MLSU,4113430,N,Y,30.4456616,-89.0808243
MLS Listing,,Condo/Co-op,1302 Magnolia St Unit A104,Gulfport,MS,39507,299000,1,1.0,Handsboro Pointe,840,,2023,78,356,595,Active,,,https://www.redfin.com/MS/Gulfport/1302-Magnolia-St-39507/unit-A104/home/191564745,MLSU,4113390,N,Y,30.403514,-89.028765
MLS Listing,,Single Family Residential,14463 Aerie Rd,Gulfport,MS,39503,435000,4,2.0,Duckworth Rd. Est,2549,104544,2015,78,171,,Active,,,https://www.redfin.com/MS/Gulfport/14463-Aerie-Rd-39503/home/117172712,MLSU,4113361,N,Y,30.4847752,-89.0853923
MLS Listing,,Single Family Residential,12104 Three Rivers Rd,Gulfport,MS,39503,39000,2,1.0,Franklin,1064,15681,1953,79,37,,Active,,,https://www.redfin.com/MS/Gulfport/12104-Three-Rivers-Rd-39503/home/115950513,MLSU,4113333,N,Y,30.4597745,-89.0691617
MLS Listing,,Single Family Residential,1728 21st St,Gulfport,MS,39501,295000,3,2.0,Murphy,4100,19602,1942,79,72,,Active,,,https://www.redfin.com/MS/Gulfport/1728-21st-St-39501/home/166252265,MLSU,4113321,N,Y,30.3758588,-89.0830194
MLS Listing,,Condo/Co-op,1200 Beach Dr #806,Gulfport,MS,39507,395000,3,2.0,Sienna On The Coast Condo,1477,132858,2007,79,267,1119,Active,,,https://www.redfin.com/MS/Gulfport/1200-Beach-Dr-39507/unit-806/home/116561643,MLSU,4113312,N,Y,30.3821851,-89.0285007
MLS Listing,,Single Family Residential,18224 Big Leaf Dr,Gulfport,MS,39503,265000,4,2.0,Magnolia Springs,1867,9583,2019,79,142,,Active,,,https://www.redfin.com/MS/Gulfport/18224-Big-Leaf-Dr-39503/home/144305248,MLSU,4112081,N,Y,30.4315005,-89.1436864
MLS Listing,,Vacant Land,Lot 7 SW Beach Blvd,Gulfport,MS,39501,360000,,,Gulfport,,8276,,79,,,Active,,,https://www.redfin.com/MS/Gulfport/7-E-Beach-Blvd-39501/home/183424434,MLSU,4113252,N,Y,30.3713321,-89.0745216
MLS Listing,,Vacant Land,Lot 6 W Beach Blvd,Gulfport,MS,39501,225000,,,Gulfport,,5662,,79,,,Active,,,https://www.redfin.com/MS/Gulfport/6-E-Beach-Blvd-39507/home/183424447,MLSU,4113239,N,Y,30.3790744,-89.0443448
MLS Listing,,Vacant Land,Lot 5 W Beach Blvd,Gulfport,MS,39501,235000,,,Gulfport,,5662,,80,,,Active,,,https://www.redfin.com/MS/Gulfport/5-E-Beach-Blvd-39501/home/183424435,MLSU,4113201,N,Y,30.3713321,-89.0745216
MLS Listing,,Vacant Land,50th Ave,Gulfport,MS,39501,39500,,,Gulfport,,56628,,80,,,Active,,,https://www.redfin.com/MS/Gulfport/50th-Ave-39501/home/116055966,MLSU,4113192,N,Y,30.387011,-89.12044
MLS Listing,,Single Family Residential,15030 Polk St,Gulfport,MS,39501,49000,3,1.0,North Gulfport,726,6969,1940,80,67,,Active,,,https://www.redfin.com/MS/Gulfport/15030-Polk-St-39501/home/116419710,MLSU,4100003,N,Y,30.4090241,-89.0871995
MLS Listing,,Single Family Residential,10620 Chapelwood Dr,Gulfport,MS,39503,389900,4,3.0,Chapelwood,2997,10890,2020,82,130,24,Active,August-2-2025 11:00 AM,August-2-2025 02:00 PM,https://www.redfin.com/MS/Gulfport/10620-Chapelwood-Dr-39503/home/176905347,MLSU,4113008,N,Y,30.4434852,-89.1274839
MLS Listing,,Single Family Residential,11159 River Bend Dr,Gulfport,MS,39503,279900,4,2.0,Cypress Pointe,1948,,2004,83,144,,Active,,,https://www.redfin.com/MS/Gulfport/11159-River-Bend-Dr-39503/home/116608063,MLSU,4112950,N,Y,30.4496452,-89.141239
