SALE TYPE,SOLD DATE,PROPERTY TYPE,ADDRESS,CITY,STATE OR PROVINCE,ZIP OR POSTAL CODE,PRICE,BEDS,BATHS,LOCATION,SQUARE FEET,LOT SIZE,YEAR BUILT,DAYS ON MARKET,$/SQUARE FEET,HOA/MONTH,STATUS,NEXT OPEN HOUSE START TIME,NEXT OPEN HOUSE END TIME,URL (SEE https://www.redfin.com/buy-a-home/comparative-market-analysis FOR INFO ON PRICING),SOURCE,MLS#,FAVORITE,INTERESTED,LATITUDE,LONGITUDE
"In accordance with local MLS rules, some MLS listings are not included in the download"
MLS Listing,,Single Family Residential,242 E Beckwith Ave,Missoula,MT,59801,750000,4,2.0,Missoula,2744,275124960,1927,1,273,,Active,,,https://www.redfin.com/MT/Missoula/242-E-Beckwith-Ave-59801/home/135486122,MRMLS,30055042,N,Y,46.8573578,-113.9944294
MLS Listing,,Single Family Residential,1300 Toole Ave,Missoula,MT,59802,425000,3,2.0,Missoula,1389,3920,1935,1,306,,Active,,,https://www.redfin.com/MT/Missoula/1300-Toole-Ave-59802/home/135198299,MRMLS,30055035,N,Y,46.8782719,-114.0095827
MLS Listing,,Single Family Residential,1755 North Ave W,Missoula,MT,59801,490000,3,2.0,Missoula,1320,5837,1974,1,371,,Active,August-3-2025 11:00 AM,August-3-2025 01:00 PM,https://www.redfin.com/MT/Missoula/1755-North-Ave-W-59801/home/135373320,MRMLS,30052822,N,Y,46.8522683,-114.0239701
MLS Listing,,Single Family Residential,633 Owen St,Missoula,MT,59802,459000,2,1.0,Missoula,952,3049,1895,1,482,,Active,,,https://www.redfin.com/MT/Missoula/633-Owens-St-59802/home/135090815,MRMLS,30054959,N,Y,46.8775725,-113.9978845
MLS Listing,,Single Family Residential,1911 34th St,Missoula,MT,59801,545000,3,2.5,Missoula,2032,8146,1963,1,268,,Active,,,https://www.redfin.com/MT/Missoula/1911-34th-St-59801/home/135273205,MRMLS,30054900,N,Y,46.8377144,-114.0268123
MLS Listing,,Single Family Residential,10377 Sienna Loop Lot 63,Missoula,MT,59808,559990,3,2.0,Missoula,1408,9991,2025,1,398,20,Active,,,https://www.redfin.com/MT/Missoula/10377-Sienna-Loop-59808/unit-63/home/196757808,MRMLS,30055012,N,Y,46.962513,-114.140237
MLS Listing,,Single Family Residential,4275 Scott Allen Dr,Missoula,MT,59803,769700,4,3.5,Missoula,2889,18469,1994,1,266,5,Active,,,https://www.redfin.com/MT/Missoula/4275-Scott-Allen-Dr-59803/home/135342115,MRMLS,30055008,N,Y,46.8086319,-114.055986
MLS Listing,,Single Family Residential,8851 Santa Anita Rd Lot 92,Missoula,MT,59808,564990,3,2.0,Missoula,1408,10986,2025,1,401,30,Active,,,https://www.redfin.com/MT/Missoula/8851-Santa-Anita-RD-59808/unit-92/home/196755074,MRMLS,30054980,N,Y,46.95674024,-114.11960693
MLS Listing,,Single Family Residential,5445 Barbed Wire Dr,Missoula,MT,59808,799000,5,3.0,Missoula,2906,7144,2019,1,275,20,Active,,,https://www.redfin.com/MT/Missoula/5445-Barbed-Wire-Dr-59808/home/165618832,MRMLS,30054813,N,Y,46.8933478,-114.0747706
MLS Listing,,Single Family Residential,3155 & 3255 Meadowwood Ln,Missoula,MT,59803,1050000,4,3.5,Missoula,4612,215186,1974,1,228,,Active,,,https://www.redfin.com/MT/Missoula/3155-Meadowwood-Ln-59803/home/135159086,MRMLS,30054916,N,Y,46.8126305,-114.0410696
MLS Listing,,Single Family Residential,1941 S 5th St W,Missoula,MT,59801,439000,1,1.0,Missoula,576,5184,1939,1,762,,Active,August-1-2025 04:00 PM,August-1-2025 06:00 PM,https://www.redfin.com/MT/Missoula/1941-S-5th-St-W-59801/home/135127889,MRMLS,30054896,N,Y,46.8648484,-114.0274446
MLS Listing,,Single Family Residential,2405 Highwood Dr,Missoula,MT,59803,529000,4,2.0,Missoula,1866,10299,1978,1,283,,Active,,,https://www.redfin.com/MT/Missoula/2405-Highwood-Dr-59803/home/135112431,MRMLS,30054918,N,Y,46.8242992,-114.0398392
MLS Listing,,Mobile/Manufactured Home,15350 Lucier Ln,Missoula,MT,59808,154000,3,2.0,Frenchtown Valley View Court,1152,,1980,2,134,,Active,,,https://www.redfin.com/MT/Missoula/15350-The-Ln-59808/home/183262634,MRMLS,30054946,N,Y,46.9681995,-114.139227
MLS Listing,,Single Family Residential,5707 Horn Rd,Missoula,MT,59808,639000,3,2.0,44 Ranch,1690,6534,2024,2,378,20,Active,,,https://www.redfin.com/MT/Missoula/5707-Horn-Rd-59808/home/196700832,MRMLS,30054840,N,Y,46.8952337,-114.0801272
MLS Listing,,Single Family Residential,3846 Lexington Ave,Missoula,MT,59808,530000,3,2.0,Pleasant View,1514,7361,2007,2,350,30,Active,,,https://www.redfin.com/MT/Missoula/3846-Lexington-Ave-59808/home/135467830,MRMLS,30054519,N,Y,46.8969148,-114.0471293
MLS Listing,,Single Family Residential,2845 Mary Jane Blvd,Missoula,MT,59808,514000,3,2.0,Missoula,1259,5619,2002,2,408,30,Active,,,https://www.redfin.com/MT/Missoula/2845-Mary-Jane-Blvd-59808/home/135356569,MRMLS,30054755,N,Y,46.8979294,-114.0526262
MLS Listing,,Condo/Co-op,2904 Tina Ave,Missoula,MT,59808,279900,2,1.0,Tina Avenue Condominiums,755,,2006,2,371,250,Active,,,https://www.redfin.com/MT/Missoula/2904-Tina-Ave-59808/home/196695678,MRMLS,30054801,N,Y,46.8930559,-114.0416115
MLS Listing,,Single Family Residential,11370 Casman Ct,Missoula,MT,59802,675000,4,3.0,Sunwood Acres,3280,43560,1978,2,206,,Active,August-3-2025 01:00 PM,August-3-2025 03:00 PM,https://www.redfin.com/MT/Missoula/11370-Casman-Ct-59802/home/135465981,MRMLS,30054895,N,Y,46.8439246,-113.8380258
MLS Listing,,Vacant Land,NKN Gleneagle Way,Missoula,MT,59808,599000,,,Missoula,,871200,,2,,,Active,,,https://www.redfin.com/MT/Missoula/NKN-Gleneagle-Way-59808/home/196713196,MRMLS,30054500,N,Y,46.92430537,-114.0057076
MLS Listing,,Multi-Family (2-4 Unit),2261 S 14th St W,Missoula,MT,59801,395000,4,4.0,Missoula,1256,6403,2003,2,314,,Active,,,https://www.redfin.com/MT/Missoula/2261-S-14th-St-W-59801/home/147772393,MRMLS,30054598,N,Y,46.8562723,-114.0337233
MLS Listing,,Single Family Residential,6020 April Ln,Missoula,MT,59803,675000,3,2.0,Missoula,1647,26136,1987,3,410,,Active,,,https://www.redfin.com/MT/Missoula/6020-April-Ln-59803/home/135355034,MRMLS,30054520,N,Y,46.8152151,-114.0545489
MLS Listing,,Vacant Land,1246 Colter Ct,Missoula,MT,59803,450000,,,Missoula,,15768,,3,,,Active,,,https://www.redfin.com/MT/Missoula/1246-Colter-Ct-59803/home/135411175,MRMLS,30054655,N,Y,46.8283291,-114.0160105
MLS Listing,,Single Family Residential,6520 Danielle Lou Ct,Missoula,MT,59803,699000,5,3.0,Missoula,2873,14475,1997,3,243,5,Active,,,https://www.redfin.com/MT/Missoula/6520-Danielle-Lou-Ct-59803/home/135308453,MRMLS,30054376,N,Y,46.8088,-114.0619488
MLS Listing,,Single Family Residential,4205 Barbara Ln,Missoula,MT,59803,550000,4,2.0,Missoula,2642,8322,1962,3,208,,Active,,,https://www.redfin.com/MT/Missoula/4205-Barbara-Ln-59803/home/135336304,MRMLS,30054538,N,Y,46.833151,-114.0345087
MLS Listing,,Single Family Residential,115 Kinnikinnick Ct,Missoula,MT,59803,615000,3,3.0,Missoula,2048,9147,1979,3,300,,Active,,,https://www.redfin.com/MT/Missoula/115-Kinnikinnick-Ct-59803/home/135343383,MRMLS,30054553,N,Y,46.8234479,-114.0417454
MLS Listing,,Single Family Residential,344 Plymouth St,Missoula,MT,59801,775000,4,2.0,Missoula,1696,4500,1940,3,457,,Active,,,https://www.redfin.com/MT/Missoula/344-Plymouth-St-59801/home/135410660,MRMLS,30054513,N,Y,46.8590569,-113.9983286
MLS Listing,,Single Family Residential,2365 Village Sq,Missoula,MT,59801,389000,2,1.0,West Village Square,834,4095,1990,4,466,,Active,August-3-2025 12:45 PM,August-3-2025 01:45 PM,https://www.redfin.com/MT/Missoula/2365-Village-Sq-59801/home/135492109,MRMLS,30054775,N,Y,46.8626796,-114.037959
MLS Listing,,Multi-Family (2-4 Unit),2329 Fairview Ave,Missoula,MT,59801,737000,6,3.0,Missoula,3360,9525,1960,4,219,,Active,,,https://www.redfin.com/MT/Missoula/2329-Fairview-Ave-59801/home/147778793,MRMLS,30054687,N,Y,46.8458488,-114.0355054
MLS Listing,,Condo/Co-op,1325 S 1st St W,Missoula,MT,59801,275000,2,1.0,Missoula,884,,1995,4,311,125,Active,,,https://www.redfin.com/MT/Missoula/1325-S-1st-St-W-59801/home/135542621,MRMLS,30054745,N,Y,46.8686404,-114.0168618
MLS Listing,,Single Family Residential,1324 Pony Pl,Missoula,MT,59804,919000,5,3.5,Missoula,3138,44169,1976,4,293,29,Active,,,https://www.redfin.com/MT/Missoula/1324-Pony-Pl-59804/home/135293268,MRMLS,30054767,N,Y,46.8589565,-114.0753959
MLS Listing,,Single Family Residential,1116 Vine St,Missoula,MT,59802,399000,1,1.0,Missoula,848,3789,1940,4,471,,Active,,,https://www.redfin.com/MT/Missoula/1116-Vine-St-59802/home/190498644,MRMLS,30054746,N,Y,46.8693256,-113.9779174
MLS Listing,,Townhouse,3502 A Connery Way,Missoula,MT,59808,456500,2,2.0,Missoula,1080,3876,2008,4,423,30,Active,,,https://www.redfin.com/MT/Missoula/3502-Connery-Way-59808/unit-A/home/135243973,MRMLS,30054757,N,Y,46.8969208,-114.0450482
MLS Listing,,Single Family Residential,2426 & 2424B Ernest Ave,Missoula,MT,59801,590000,4,2.5,Missoula,2104,3872,2010,4,280,,Active,,,https://www.redfin.com/MT/Missoula/2426-2424B-Ernest-Ave-59801/home/196167971,MRMLS,30054735,N,Y,46.84162262,-114.03834245
MLS Listing,,Single Family Residential,4412 Martindale Way,Missoula,MT,59808,450000,2,2.0,Missoula,1340,2570,2007,4,336,20,Active,,,https://www.redfin.com/MT/Missoula/4412-Martindale-Way-59808/home/135151302,MRMLS,30054315,N,Y,46.9152978,-114.0591975
MLS Listing,,Single Family Residential,2045 Kensington Ave,Missoula,MT,59801,409000,2,1.0,Missoula,917,6360,1950,4,446,,Active,August-3-2025 01:00 PM,August-3-2025 03:00 PM,https://www.redfin.com/MT/Missoula/2045-Kensington-Ave-59801/home/135472426,MRMLS,30054709,N,Y,46.8531536,-114.0295309
MLS Listing,,Single Family Residential,3522 South Ave W,Missoula,MT,59804,550000,3,2.0,Missoula,1096,21344,1957,7,502,,Active,,,https://www.redfin.com/MT/Missoula/3522-South-Ave-W-59804/home/135353387,MRMLS,30054299,N,Y,46.849047,-114.0673068
MLS Listing,,Single Family Residential,5473 Filly Ln,Missoula,MT,59808,950000,4,3.0,44 Ranch,2843,8281,2017,7,334,20,Active,,,https://www.redfin.com/MT/Missoula/5473-Filly-Ln-59808/home/147772830,MRMLS,30053565,N,Y,46.8925193,-114.0755141
MLS Listing,,Single Family Residential,10365 Miller Creek Rd,Missoula,MT,59803,2199000,4,3.0,Missoula,3880,1926658,1968,7,567,,Active,,,https://www.redfin.com/MT/Missoula/10365-Miller-Creek-Rd-59803/home/135115081,MRMLS,30054555,N,Y,46.7815312,-113.9834323
MLS Listing,,Single Family Residential,5455 Remington Dr,Missoula,MT,59808,749900,4,2.5,Remington Flats,2204,5052,2025,8,340,,Active,,,https://www.redfin.com/MT/Missoula/5455-Remington-Dr-59808/home/187252734,MRMLS,30054606,N,Y,46.896046,-114.075251
MLS Listing,,Condo/Co-op,4100 Mullan Rd,Missoula,MT,59808,348500,2,2.0,Missoula,1129,,2017,8,309,250,Active,,,https://www.redfin.com/MT/Missoula/4100-Mullan-Rd-59808/home/135534800,MRMLS,30054283,N,Y,46.8863261,-114.0493729
MLS Listing,,Single Family Residential,6915 Shaver Dr,Missoula,MT,59803,1189000,4,3.0,Missoula,3636,13048,2017,8,327,5,Active,,,https://www.redfin.com/MT/Missoula/6915-Shaver-Dr-59803/home/147772773,MRMLS,30054615,N,Y,46.8029302,-114.0492318
MLS Listing,,Townhouse,901 Rodgers St,Missoula,MT,59802,279900,2,1.5,Missoula,952,,1977,8,294,160,Active,,,https://www.redfin.com/MT/Missoula/901-Rodgers-St-59802/home/143629819,MRMLS,30054510,N,Y,46.889085,-114.0035217
MLS Listing,,Vacant Land,11480 O'keefe Creek Blvd,Missoula,MT,59808,250000,,,Missoula,,87120,,8,,,Active,,,https://www.redfin.com/MT/Missoula/11480-Okeefe-Creek-Blvd-59808/home/181311548,BSCMLS,404442,N,Y,46.9806274,-114.1431247
MLS Listing,,Single Family Residential,9205 Grouse Dr,Missoula,MT,59808,425000,2,1.0,Missoula,912,13504,1993,8,466,,Active,,,https://www.redfin.com/MT/Missoula/9205-Grouse-Dr-59808/home/135495630,MRMLS,30054564,N,Y,46.8929903,-114.1254876
MLS Listing,,Single Family Residential,925 W Spruce St,Missoula,MT,59802,659000,3,2.0,Missoula,2242,7797,1920,8,294,,Active,,,https://www.redfin.com/MT/Missoula/925-W-Spruce-St-59802/home/135384392,MRMLS,30054580,N,Y,46.8776421,-114.0058115
MLS Listing,,Townhouse,959 Kemp St,Missoula,MT,59801,515000,2,2.0,Missoula,1111,2091,2023,9,464,80,Active,,,https://www.redfin.com/MT/Missoula/959-Kemp-St-59801/home/185320575,MRMLS,30054466,N,Y,46.8628554,-114.0304761
MLS Listing,,Single Family Residential,629 North Ave W,Missoula,MT,59801,674000,3,2.0,Missoula,1926,7187,1960,9,350,,Active,,,https://www.redfin.com/MT/Missoula/629-North-Ave-W-59801/home/135309869,MRMLS,30053861,N,Y,46.8522628,-114.0068416
MLS Listing,,Single Family Residential,7529 Gardenia Dr,Missoula,MT,59808,235000,3,2.0,Magnolia Estates Mobile Home Park,1456,,1999,10,161,525,Active,,,https://www.redfin.com/MT/Missoula/7529-Gardenia-Dr-59808/home/196542009,MRMLS,30054453,N,Y,46.9421289,-114.1960933
MLS Listing,,Single Family Residential,7310 Broken Bow Cluster,Missoula,MT,59808,1625000,4,2.5,Missoula,3780,25439,2008,10,430,113,Active,,,https://www.redfin.com/MT/Missoula/7310-Broken-Bow-Cluster-59808/home/135247539,MRMLS,30050304,N,Y,46.941794,-114.0843906
MLS Listing,,Single Family Residential,200 Northview Dr,Missoula,MT,59803,599000,3,2.0,Missoula,1820,9191,1977,10,329,,Active,,,https://www.redfin.com/MT/Missoula/200-Northview-Dr-59803/home/135323779,MRMLS,30054051,N,Y,46.8404412,-113.9972693
MLS Listing,,Single Family Residential,365 Hiberta St,Missoula,MT,59804,495000,2,2.0,Missoula,1025,4182,2016,10,483,,Active,,,https://www.redfin.com/MT/Missoula/365-Hiberta-St-59804/home/143629689,MRMLS,30054039,N,Y,46.8682853,-114.0529833
MLS Listing,,Single Family Residential,425 Beverly Ave,Missoula,MT,59801,799000,3,1.0,Missoula,2698,7797,1944,11,296,,Active,,,https://www.redfin.com/MT/Missoula/425-Beverly-Ave-59801/home/135118263,MRMLS,30054333,N,Y,46.8539397,-113.9913965
MLS Listing,,Multi-Family (2-4 Unit),1110 Vine St,Missoula,MT,59802,799000,,,Missoula,4198,11718,1901,11,190,,Active,August-3-2025 12:00 PM,August-3-2025 02:00 PM,https://www.redfin.com/MT/Missoula/1110-Vine-St-59802/home/147774620,MRMLS,30054393,N,Y,46.8692854,-113.9781397
MLS Listing,,Condo/Co-op,1245 Waverly St,Missoula,MT,59802,265000,1,1.0,Missoula,744,778,2018,11,356,180,Active,,,https://www.redfin.com/MT/Missoula/1245-Waverly-St-59802/home/186015542,MRMLS,30054365,N,Y,46.8832881,-114.0050904
MLS Listing,,Single Family Residential,3914 Bellecrest Dr,Missoula,MT,59801,575000,3,3.0,Missoula,3262,10803,1970,11,176,,Active,,,https://www.redfin.com/MT/Missoula/3914-Bellecrest-Dr-59801/home/135337975,MRMLS,30052376,N,Y,46.8356879,-114.0252391
MLS Listing,,Condo/Co-op,520 Hickory St,Missoula,MT,59801,1100000,36,36.0,Missoula,3452,6500,1976,11,319,,Active,,,https://www.redfin.com/MT/Missoula/520-Hickory-St-59801/home/147779766,MRMLS,30054071,N,Y,46.8662657,-114.0063196
MLS Listing,,Single Family Residential,2960 Sheffield Dr,Missoula,MT,59808,529000,3,2.0,Pleasant View,1296,5720,2002,11,408,30,Active,August-3-2025 12:00 PM,August-3-2025 02:00 PM,https://www.redfin.com/MT/Missoula/2960-Sheffield-Dr-59808/home/135469128,MRMLS,30053905,N,Y,46.8992855,-114.0510108
MLS Listing,,Single Family Residential,4102 England Blvd,Missoula,MT,59808,569000,3,2.0,Pleasant View,1681,6882,2006,11,338,30,Active,,,https://www.redfin.com/MT/Missoula/4102-England-Blvd-59808/home/135405049,MRMLS,30054202,N,Y,46.8972676,-114.0494364
MLS Listing,,Multi-Family (2-4 Unit),612 High Park Way,Missoula,MT,59803,650000,6,3.0,Missoula,2772,13329,1973,11,234,,Active,,,https://www.redfin.com/MT/Missoula/612-High-Park-Way-59803/home/147776321,MRMLS,30054320,N,Y,46.8338556,-114.0120405
MLS Listing,,Single Family Residential,2220 Mcdowell Dr,Missoula,MT,59802,890000,4,2.0,Missoula,2520,42688,1950,13,353,,Active,,,https://www.redfin.com/MT/Missoula/2220-McDowell-Dr-59802/home/135206942,MRMLS,30053976,N,Y,46.8879995,-113.9226916
MLS Listing,,Single Family Residential,127 Meadowlark Ct,Missoula,MT,59803,620000,4,4.0,Missoula,2916,9017,1991,14,213,,Active,,,https://www.redfin.com/MT/Missoula/127-Meadowlark-Ct-59803/home/135246467,MRMLS,30054251,N,Y,46.8213512,-114.0411434
MLS Listing,,Townhouse,2750 Riata Rd,Missoula,MT,59808,485000,3,2.5,Remington Flats,1571,3683,2025,14,309,,Active,,,https://www.redfin.com/MT/Missoula/2750-Riata-Rd-59808/home/192590212,MRMLS,30054258,N,Y,46.896851,-114.071467
MLS Listing,,Mobile/Manufactured Home,533 Caravan St,Missoula,MT,59808,65000,3,1.0,Missoula,980,,1978,14,66,,Active,,,https://www.redfin.com/MT/Missoula/533-S-Caravan-59808/home/195858640,MRMLS,30054252,N,Y,46.8859475,-114.0190779
MLS Listing,,Single Family Residential,4724 Canyon Creek Blvd,Missoula,MT,59808,449000,3,2.0,Missoula,1340,3180,2002,14,335,20,Active,August-3-2025 01:00 PM,August-3-2025 03:00 PM,https://www.redfin.com/MT/Missoula/4724-Canyon-Creek-Blvd-59808/home/135249036,MRMLS,30053789,N,Y,46.9160128,-114.062797
MLS Listing,,Single Family Residential,4991 Kendrick Pl,Missoula,MT,59808,399900,2,2.0,Missoula,1164,2134,2005,15,344,20,Active,,,https://www.redfin.com/MT/Missoula/4991-Kendrick-Pl-59808/home/135501526,MRMLS,30053873,N,Y,46.9188074,-114.0631517
MLS Listing,,Vacant Land,7565 Unbridled Way,Missoula,MT,59808,489000,,,Missoula,,217800,,15,,,Active,,,https://www.redfin.com/MT/Missoula/7565-Unbridled-Way-59808/home/135255165,MRMLS,30054209,N,Y,46.9444482,-114.1777097
MLS Listing,,Single Family Residential,5523 Haugan Dr,Missoula,MT,59803,1200000,4,4.0,Maloney Ranch,4445,64904,2004,15,270,,Active,,,https://www.redfin.com/MT/Missoula/5523-Haugan-Dr-59803/home/135249430,MRMLS,30053660,N,Y,46.7980247,-114.0734875
MLS Listing,,Condo/Co-op,1261 Idaho St,Missoula,MT,59801,480000,2,2.0,Missoula,1061,,2025,16,452,125,Active,,,https://www.redfin.com/MT/Missoula/1261-Idaho-St-59801/home/191299421,MRMLS,30052579,N,Y,46.873551,-114.0151458
MLS Listing,,Condo/Co-op,1259 Idaho St,Missoula,MT,59801,500000,3,2.5,Missoula,1446,,2025,16,346,125,Active,,,https://www.redfin.com/MT/Missoula/1259-Idaho-St-59801/home/191299388,MRMLS,30052574,N,Y,46.873551,-114.0151193
MLS Listing,,Single Family Residential,125 and 133 Deer Creek Rd,Missoula,MT,59802,1700000,3,2.5,Missoula,2534,129373,2001,16,671,,Active,,,https://www.redfin.com/MT/Missoula/125-Deer-Creek-Rd-59802/home/135412780,MRMLS,30051332,N,Y,46.8804427,-113.9343289
MLS Listing,,Townhouse,12 Russell Ct S,Missoula,MT,59801,379000,3,1.5,Missoula,1232,2352,1970,16,308,,Active,,,https://www.redfin.com/MT/Missoula/12-Russell-Park-W-59801/home/135481748,MRMLS,30053786,N,Y,46.8380794,-114.020032
MLS Listing,,Single Family Residential,1151 Van Buren St,Missoula,MT,59802,590000,2,1.0,Missoula,936,6490,1948,16,630,,Active,,,https://www.redfin.com/MT/Missoula/1151-Van-Buren-St-59802/home/135300803,MRMLS,30053614,N,Y,46.874378,-113.97604
MLS Listing,,Townhouse,2447 Old Ranch Rd,Missoula,MT,59808,539000,3,2.0,Missoula,1547,3311,2017,16,348,92,Active,,,https://www.redfin.com/MT/Missoula/2447-Old-Ranch-Rd-59808/home/168770960,MRMLS,30053990,N,Y,46.893423,-114.0671785
MLS Listing,,Single Family Residential,8489 Wise River Rd,Missoula,MT,59803,995000,4,3.5,STILLWATER ADDITION AT MALONEY RANCH - PHASE 2,4068,43560,2003,16,245,,Active,,,https://www.redfin.com/MT/Missoula/8489-Wise-River-Rd-59803/home/135249083,MRMLS,30053308,N,Y,46.790631,-114.0484144
MLS Listing,,Condo/Co-op,2070 Cooper St,Missoula,MT,59808,400000,2,2.0,Riverfront Parkside,1188,,1994,17,337,350,Active,,,https://www.redfin.com/MT/Missoula/2070-Cooper-St-59808/home/135449212,MRMLS,30053740,N,Y,46.8785224,-114.0221628
MLS Listing,,Single Family Residential,8900 La Salle Way,Missoula,MT,59808,825000,6,3.5,Missoula,3965,100188,2001,17,208,10,Active,,,https://www.redfin.com/MT/Missoula/8900-La-Salle-Way-59808/home/135406388,MRMLS,30048202,N,Y,46.9556142,-114.0062265
MLS Listing,,Single Family Residential,313 & 315 Strand Ave,Missoula,MT,59801,1095000,5,3.0,Missoula,3000,8990,1934,17,365,,Active,,,https://www.redfin.com/MT/Missoula/313-Strand-Ave-59801/home/135410251,MRMLS,30053986,N,Y,46.8539582,-114.0037315
MLS Listing,,Condo/Co-op,1650 N Russell St,Missoula,MT,59801,11779276,64,40.0,Missoula,,129373,1997,18,,,Active,,,https://www.redfin.com/MT/Missoula/1650-N-Russell-St-59808/home/147774519,MRMLS,30053967,N,Y,46.8875954,-114.0180367
MLS Listing,,Single Family Residential,4730 Mark Ct,Missoula,MT,59803,800000,3,2.5,Missoula,3652,18382,1992,18,219,5,Active,,,https://www.redfin.com/MT/Missoula/4730-Mark-Ct-59803/home/135465413,MRMLS,30053263,N,Y,46.8103616,-114.0627104
MLS Listing,,Single Family Residential,780 Anglers Bend Way,Missoula,MT,59802,790000,3,2.0,Missoula,2028,9278,2017,18,390,350,Active,,,https://www.redfin.com/MT/Missoula/780-Anglers-Bend-Way-59802/home/135357514,MRMLS,30053799,N,Y,46.8753918,-113.9243927
MLS Listing,,Townhouse,2216 S 12th St W,Missoula,MT,59801,629000,3,3.0,Theresa Hamilton,1860,3444,2024,19,338,,Active,,,https://www.redfin.com/MT/Missoula/2216-S-12th-St-W-59801/home/194692527,MRMLS,30053895,N,Y,46.8587585,-114.032619
MLS Listing,,Townhouse,3514 Connery Way,Missoula,MT,59808,453700,2,2.0,Missoula,1032,3311,2008,20,440,30,Active,,,https://www.redfin.com/MT/Missoula/3514-Connery-Way-59808/home/196376299,MRMLS,30053879,N,Y,46.8970568,-114.0449822
MLS Listing,,Single Family Residential,716 Spanish Peaks Dr,Missoula,MT,59803,1045000,4,3.5,Missoula,2981,13155,2003,20,351,83,Active,,,https://www.redfin.com/MT/Missoula/716-Spanish-Peaks-Dr-59803/home/135453563,MRMLS,30053730,N,Y,46.8258092,-113.9957799
MLS Listing,,Single Family Residential,5605 Ebb Way,Missoula,MT,59803,579900,4,2.0,Missoula,2108,10629,1992,20,275,,Active,,,https://www.redfin.com/MT/Missoula/5605-Ebb-Way-59803/home/135299528,MRMLS,30053876,N,Y,46.81919,-114.0363909
MLS Listing,,Single Family Residential,2218 Burlington Ave,Missoula,MT,59801,499000,4,2.0,Missoula,1836,3136,2017,20,272,,Active,August-3-2025 01:00 PM,August-3-2025 03:00 PM,https://www.redfin.com/MT/Missoula/2218-Burlington-Ave-59801/home/165669090,MRMLS,30053259,N,Y,46.8553353,-114.0327384
MLS Listing,,Vacant Land,11509 Timber Ridge Ln,Missoula,MT,59808,545000,,,Missoula,,436471,,21,,,Active,,,https://www.redfin.com/MT/Unknown/11509-The-Ln-59808/home/196371832,MRMLS,30052888,N,Y,46.97993369,-114.0485233
MLS Listing,,Single Family Residential,2642 Sheffield Dr,Missoula,MT,59808,569900,4,2.0,Missoula,1678,5619,2004,21,340,30,Active,,,https://www.redfin.com/MT/Missoula/2642-Sheffield-Dr-59808/home/135356887,MRMLS,30052611,N,Y,46.8947244,-114.0510366
MLS Listing,,Single Family Residential,7503 Peregrine Ct,Missoula,MT,59808,799000,4,3.0,Missoula,2834,22215,1997,21,282,8,Active,,,https://www.redfin.com/MT/Missoula/7503-Peregrine-Ct-59808/home/135267542,MRMLS,30053851,N,Y,46.8966644,-114.1007628
MLS Listing,,Multi-Family (2-4 Unit),2511 55th St,Missoula,MT,59803,610000,8,4.0,Hillside Homes Supp,1920,12023,1977,21,318,,Active,,,https://www.redfin.com/MT/Missoula/2511-55th-St-59803/home/147779118,MRMLS,30053506,N,Y,46.8195636,-114.0427189
MLS Listing,,Multi-Family (2-4 Unit),2816 S 3rd St W Unit 2812 Third Street West,Missoula,MT,59804,799000,3,2.0,Missoula,2768,20125,1942,21,289,,Active,,,https://www.redfin.com/MT/Missoula/2816-S-3rd-St-W-59804/home/135481424,MRMLS,30052409,N,Y,46.8671659,-114.0483848
MLS Listing,,Multi-Family (2-4 Unit),1831 S 9th St W,Missoula,MT,59801,589000,6,5.0,Missoula,2440,4617,2006,21,241,,Active,,,https://www.redfin.com/MT/Missoula/1831-S-9th-St-W-59801/home/147770241,MRMLS,30053827,N,Y,46.8611126,-114.0252255
MLS Listing,,Condo/Co-op,2414 B Leo Ave,Missoula,MT,59808,319000,2,1.5,Missoula,896,,2005,21,356,,Active,,,https://www.redfin.com/MT/Missoula/2414-Leo-Ave-59808/home/147769938,MRMLS,30053825,N,Y,46.8899968,-114.0226907
MLS Listing,,Single Family Residential,6036 Macarthur Dr,Missoula,MT,59808,1499000,4,4.5,Missoula,3368,9147,2025,21,445,235,Active,,,https://www.redfin.com/MT/Missoula/6036-MacArthur-Dr-59808/home/173171747,MRMLS,30050303,N,Y,46.9378715,-114.085196
MLS Listing,,Single Family Residential,100 Simons Dr,Missoula,MT,59803,744900,3,3.0,High Park,2062,10280,1977,22,361,,Active,,,https://www.redfin.com/MT/Missoula/100-Simons-Dr-59803/home/135380935,MRMLS,30053278,N,Y,46.8322918,-114.0091495
MLS Listing,,Single Family Residential,4511 Hillview Way,Missoula,MT,59803,1000000,4,3.5,MOUNTAINVIEW ESTATES,4588,42253,1996,22,218,10,Active,,,https://www.redfin.com/MT/Missoula/4511-Hillview-Way-59803/home/135088914,MRMLS,30053602,N,Y,46.8287422,-114.022712
MLS Listing,,Single Family Residential,8263 Patinella Ct,Missoula,MT,59808,685000,3,2.0,Missoula,3380,87120,2005,22,203,35,Active,,,https://www.redfin.com/MT/Missoula/8263-Patinella-Ct-59808/home/165652878,MRMLS,30053666,N,Y,46.9886535,-114.1113517
MLS Listing,,Single Family Residential,4406 Harrison Scott Dr,Missoula,MT,59803,829000,3,2.0,Missoula,3770,9801,2023,22,220,3,Active,,,https://www.redfin.com/MT/Missoula/4406-Harrison-Scott-Dr-59803/home/189599355,MRMLS,30053726,N,Y,46.8100183,-114.0733649
MLS Listing,,Single Family Residential,134 Cohosset Dr,Missoula,MT,59803,519000,3,2.0,Wapikiya NO 3,2016,9147,1963,22,257,,Active,,,https://www.redfin.com/MT/Missoula/134-Cohosset-Dr-59803/home/135461455,MRMLS,30053650,N,Y,46.8315231,-114.0222691
MLS Listing,,Single Family Residential,4075 Christian Dr,Missoula,MT,59803,685000,3,2.5,Linda Vista Subdivision,1870,7215,2020,22,366,5,Active,,,https://www.redfin.com/MT/Missoula/4075-Christian-Dr-59803/home/173164979,MRMLS,30053391,N,Y,46.8161292,-114.0794279
MLS Listing,,Vacant Land,NNH Gleneagle Way Unit 19.08 Acres,Missoula,MT,59808,586000,,,Missoula,,831124,,22,,,Active,,,https://www.redfin.com/MT/Missoula/NNH-Gleneagle-Way-59808/unit-1908-Acres/home/196333284,MRMLS,30053748,N,Y,46.9256791,-114.00379208
MLS Listing,,Vacant Land,4815 Gleneagle Way,Missoula,MT,59808,609000,,,Missoula,,605484,,22,,,Active,,,https://www.redfin.com/MT/Missoula/4815-Gleneagle-Way-59802/home/165631978,MRMLS,30053745,N,Y,46.926795,-114.004077
MLS Listing,,Townhouse,5341 C Remington Dr,Missoula,MT,59808,479900,3,2.5,Remington Flats,1721,2974,2024,23,279,,Active,August-3-2025 01:00 PM,August-3-2025 03:00 PM,https://www.redfin.com/MT/Missoula/5341-Remington-Dr-59808/home/194887373,MRMLS,30053707,N,Y,46.8962779,-114.0726843
MLS Listing,,Single Family Residential,521 Arbor Dr,Missoula,MT,59802,879000,4,3.0,Cobban Camp Sites,3137,13460,1995,23,280,,Active,August-3-2025 01:30 PM,August-3-2025 03:30 PM,https://www.redfin.com/MT/Missoula/521-Arbor-Dr-59802/home/135492240,MRMLS,30053538,N,Y,46.8900288,-113.9745473
MLS Listing,,Condo/Co-op,235 4th St E,Missoula,MT,59801,289500,1,1.0,The Rowe,553,,2023,23,524,220,Active,,,https://www.redfin.com/MT/Missoula/235-S-4th-St-E-59801/home/183258179,MRMLS,30053633,N,Y,46.8655882,-113.9951002
MLS Listing,,Single Family Residential,5207 Frazer Ct,Missoula,MT,59803,785000,4,2.5,Lower Miller Creek,3112,10149,2006,23,252,8,Active,,,https://www.redfin.com/MT/Missoula/5207-Frazer-Ct-59803/home/135438203,MRMLS,30052397,N,Y,46.8147963,-114.0733224
MLS Listing,,Single Family Residential,2645 Bunkhouse Pl,Missoula,MT,59808,1495000,5,4.0,Missoula,3856,11761,2022,24,388,25,Active,August-3-2025 12:00 PM,August-3-2025 02:00 PM,https://www.redfin.com/MT/Missoula/2645-Bunkhouse-Pl-59808/home/135426936,MRMLS,30052988,N,Y,46.8958088,-114.1123122
MLS Listing,,Single Family Residential,6745 Prairie Schooner Ln,Missoula,MT,59808,682000,5,2.5,MULLAN TRAIL - PHASE 3,2818,20037,2001,24,242,15,Active,August-3-2025 02:00 PM,August-3-2025 04:00 PM,https://www.redfin.com/MT/Missoula/6745-Prairie-Schooner-Ln-59808/home/135263248,MRMLS,30053183,N,Y,46.8889955,-114.0897855
MLS Listing,,Townhouse,1942B Dixon Ave,Missoula,MT,59801,309000,1,1.0,Missoula,426,3025,2021,24,725,,Active,,,https://www.redfin.com/MT/Missoula/1942-Dixon-Ave-59801/home/181311355,MRMLS,30053554,N,Y,46.840818,-114.027942
MLS Listing,,Single Family Residential,2406 S 5th St W,Missoula,MT,59801,585000,3,2.0,Missoula,2240,8756,1964,25,261,,Active,,,https://www.redfin.com/MT/Missoula/2406-S-5th-St-W-59801/home/135390972,MRMLS,30053531,N,Y,46.8652911,-114.0374111
MLS Listing,,Townhouse,2704 Riata Rd,Missoula,MT,59808,549500,3,2.5,Remington Flats,1571,3633,2023,25,350,,Active,,,https://www.redfin.com/MT/Missoula/2704-Riata-Rd-59808/home/188685852,MRMLS,30053206,N,Y,46.89646,-114.071521
MLS Listing,,Townhouse,4030 Camden St,Missoula,MT,59808,599900,3,2.0,Missoula,1775,6578,2025,25,338,350,Active,,,https://www.redfin.com/MT/Missoula/4030-Camden-St-59808/home/196277963,MRMLS,30053030,N,Y,46.9010511,-114.0484578
MLS Listing,,Townhouse,2129 W Kent Ave,Missoula,MT,59801,468000,3,2.0,Missoula,1280,3136,2004,25,366,,Active,,,https://www.redfin.com/MT/Missoula/2129B-W-Kent-Ave-59801/home/196280602,MRMLS,30053270,N,Y,46.8512871,-114.0314436
MLS Listing,,Single Family Residential,921 E Beckwith Ave,Missoula,MT,59801,1000000,5,5.0,Missoula,20000,59241,1930,25,50,,Active,,,https://www.redfin.com/MT/Missoula/921-E-Beckwith-Ave-59801/home/147783339,MRMLS,30053515,N,Y,46.8569661,-113.9827767
MLS Listing,,Single Family Residential,1922 34th St,Missoula,MT,59801,525000,3,3.0,Missoula,1954,7623,1960,25,269,,Active,,,https://www.redfin.com/MT/Missoula/1922-34th-St-59801/home/135400002,MRMLS,30053487,N,Y,46.8380897,-114.0275021
MLS Listing,,Single Family Residential,2616 View Dr,Missoula,MT,59804,499000,4,2.5,Missoula,2476,11021,1964,25,202,,Active,,,https://www.redfin.com/MT/Missoula/2616-View-Dr-59804/home/135232909,MRMLS,30053170,N,Y,46.8627176,-114.0439161
MLS Listing,,Single Family Residential,1030 Chief Joseph Cluster,Missoula,MT,59808,2750000,4,4.5,Missoula,5240,25439,2023,28,525,72,Active,,,https://www.redfin.com/MT/Missoula/1030-Chief-Joseph-Cluster-59808/home/165631424,MRMLS,30053410,N,Y,46.9405878,-114.0854901
MLS Listing,,Single Family Residential,4543 Christian Dr,Missoula,MT,59803,865000,5,3.0,Missoula,3062,10498,2021,29,282,5,Active,,,https://www.redfin.com/MT/Missoula/4543-Christian-Dr-59803/home/168927027,MRMLS,30053071,N,Y,46.8072739,-114.0694764
MLS Listing,,Single Family Residential,2614 O'shaughnesy St,Missoula,MT,59808,633000,4,3.0,Missoula,3024,6621,2003,29,209,36,Active,,,https://www.redfin.com/MT/Missoula/2614-Oshaughnesy-St-59808/home/135125710,MRMLS,30053070,N,Y,46.889821,-114.0478257
MLS Listing,,Single Family Residential,4434 Harrison Scott Dr,Missoula,MT,59803,1345000,5,3.5,Missoula,4593,8865,2025,29,293,,Active,,,https://www.redfin.com/MT/Missoula/4434-Harrison-Scott-Dr-59803/home/192589619,MRMLS,30053345,N,Y,46.8095218,-114.0726234
MLS Listing,,Single Family Residential,1005 Sherwood St,Missoula,MT,59802,624000,4,2.0,Missoula,1496,3900,1910,30,417,,Active,August-3-2025 12:00 AM,August-3-2025 11:59 PM,https://www.redfin.com/MT/Missoula/1005-Sherwood-St-59802/home/135117632,MRMLS,30052596,N,Y,46.879785,-114.0052363
MLS Listing,,Single Family Residential,2227 E Crescent Dr,Missoula,MT,59803,539900,4,2.0,Hillview Heights #1,2062,9278,1973,30,262,,Active,,,https://www.redfin.com/MT/Missoula/2227-E-Crescent-Dr-59803/home/135397044,MRMLS,30053027,N,Y,46.8224815,-114.0346001
MLS Listing,,Vacant Land,3760 Mullan Rd,Missoula,MT,59808,750000,,,Missoula,,7840,,30,,,Active,,,https://www.redfin.com/MT/Missoula/3760-Mullan-Rd-59808/home/195434864,BSCMLS,403790,N,Y,46.8858451,-114.0449916
MLS Listing,,Single Family Residential,6250 Timothy Ct,Missoula,MT,59803,799900,5,3.0,Missoula,3300,34325,1992,31,242,5,Active,,,https://www.redfin.com/MT/Missoula/6250-Timothy-Ct-59803/home/135275718,MRMLS,30053031,N,Y,46.8119413,-114.0563739
MLS Listing,,Vacant Land,5234 Elk Ridge Dr,Missoula,MT,59802,600000,,,Missoula,,74052,,31,,,Active,,,https://www.redfin.com/MT/Missoula/5278-Elk-Ridge-Dr-59802/home/143630203,MRMLS,30052965,N,Y,46.9119924,-113.9543444
MLS Listing,,Single Family Residential,2696 Stratford Ln,Missoula,MT,59808,620000,3,2.0,Pleasant View Homes,1756,5576,2003,31,353,30,Active,,,https://www.redfin.com/MT/Missoula/2696-Stratford-Ln-59808/home/135241202,MRMLS,30053173,N,Y,46.895537,-114.0530685
MLS Listing,,Mobile/Manufactured Home,838 Locust St,Missoula,MT,59802,500000,4,3.0,Missoula,2037,5837,1996,31,245,,Active,August-2-2025 12:00 PM,August-2-2025 02:00 PM,https://www.redfin.com/MT/Missoula/838-Locust-St-59802/home/135194897,MRMLS,30052260,N,Y,46.8730545,-113.977833
MLS Listing,,Multi-Family (2-4 Unit),2307 Burlington Ave,Missoula,MT,59801,749000,8,4.0,Missoula,1365,16248,1955,31,549,,Active,,,https://www.redfin.com/MT/Missoula/2307-Burlington-Ave-59801/home/147780050,MRMLS,30052283,N,Y,46.8550359,-114.0345472
MLS Listing,,Single Family Residential,10335 Sienna Loop Unit (Lot 60),Missoula,MT,59808,579990,3,2.0,Missoula,1408,8846,2025,31,412,20,Active,,,https://www.redfin.com/MT/Missoula/10335-Sienna-Loop-59808/unit-Lot-60/home/196247553,MRMLS,30053207,N,Y,46.962374,-114.139197
MLS Listing,,Condo/Co-op,701 39th St,Missoula,MT,59803,1500000,,64.0,Missoula,13224,11238,1968,31,113,,Active,,,https://www.redfin.com/MT/Missoula/701-39th-St-59803/home/147775429,MRMLS,30053204,N,Y,46.8340776,-114.0131029
MLS Listing,,Vacant Land,7006 Max Dr,Missoula,MT,59803,130000,,,Linda Vista,,10953,,31,,5,Active,,,https://www.redfin.com/MT/Missoula/7006-Max-Dr-59803/home/165686022,MRMLS,30053171,N,Y,46.801439,-114.050836
MLS Listing,,Vacant Land,Nhn Bonner 242,Bonner,MT,59823,1299000,,,Bonner,,10541520,,31,,,Active,,,https://www.redfin.com/MT/Bonner/Nhn-Bonner-242-59823/home/196246051,MRMLS,30053114,N,Y,46.86999373,-113.85461876
MLS Listing,,Single Family Residential,2130 Horsetail Ln,Missoula,MT,59808,775000,3,2.0,Missoula,1663,6534,2024,31,466,20,Active,,,https://www.redfin.com/MT/Missoula/2130-Horsetail-Ln-59808/home/181309474,MRMLS,30053091,N,Y,46.889613,-114.0728165
MLS Listing,,Multi-Family (2-4 Unit),839 Evans Ave,Missoula,MT,59801,850000,7,3.0,Missoula,,9450,,31,,,Active,,,https://www.redfin.com/MT/Missoula/839-Evans-Ave-59801/home/135153705,MRMLS,30053117,N,Y,46.855911,-113.984685
MLS Listing,,Single Family Residential,2610 Sheffield Dr,Missoula,MT,59808,595000,3,2.0,Pleasantview,1819,5576,2004,31,327,30,Active,August-3-2025 01:00 PM,August-3-2025 03:00 PM,https://www.redfin.com/MT/Missoula/2610-Sheffield-Dr-59808/home/135113715,MRMLS,30053024,N,Y,46.8943338,-114.0509815
MLS Listing,,Single Family Residential,638 E Kent Ave,Missoula,MT,59801,899000,3,3.0,Missoula,2965,7187,1991,32,303,,Active,,,https://www.redfin.com/MT/Missoula/638-E-Kent-Ave-59801/home/135496692,MRMLS,30053090,N,Y,46.851781,-113.9874032
MLS Listing,,Single Family Residential,3008 Park St,Missoula,MT,59801,839000,4,2.5,Missoula,2576,10183,1958,32,326,,Active,,,https://www.redfin.com/MT/Missoula/3008-Park-St-59801/home/135262815,MRMLS,30051299,N,Y,46.842696,-114.0029214
MLS Listing,,Single Family Residential,7155 Brooke Lynn Ct,Missoula,MT,59803,799000,6,3.0,Missoula,2672,7449,2016,35,299,5,Active,,,https://www.redfin.com/MT/Missoula/7155-Brooke-Lynn-Ct-59803/home/143629631,MRMLS,30052895,N,Y,46.7999727,-114.060585
MLS Listing,,Condo/Co-op,2337 S 3rd St W,Missoula,MT,59801,429900,3,2.5,Missoula,1188,34848,2009,35,362,190,Active,,,https://www.redfin.com/MT/Missoula/2337-S-3rd-St-W-59801/home/135126353,MRMLS,30052953,N,Y,46.8660884,-114.0359995
MLS Listing,,Single Family Residential,226 Mansion Heights Dr,Missoula,MT,59803,775000,3,2.5,Missoula,2052,14069,2022,35,378,83,Active,,,https://www.redfin.com/MT/Missoula/226-Mansion-Heights-Dr-59803/home/165686510,MRMLS,30052063,N,Y,46.8219157,-114.0019597
MLS Listing,,Vacant Land,3485 Ridge View Rd,Missoula,MT,59808,595000,,,Missoula,,436471,,35,,,Active,,,https://www.redfin.com/MT/Missoula/3485-Ridge-View-RD-Unknown/home/192312972,MRMLS,30052910,N,Y,46.979254,-114.045488
MLS Listing,,Single Family Residential,796 Eliza Ct,Missoula,MT,59804,1395000,6,3.5,Missoula,4796,39204,1974,35,291,,Active,,,https://www.redfin.com/MT/Missoula/796-Eliza-Ct-59804/home/135276021,MRMLS,30052807,N,Y,46.8643837,-114.058342
MLS Listing,,Vacant Land,5250 Mallard Way,Missoula,MT,59808,450000,,,Missoula,,871200,,35,,,Active,,,https://www.redfin.com/MT/Missoula/5250-Mallard-Way-59808/home/135199165,MRMLS,30052340,N,Y,46.9212277,-114.1653435
MLS Listing,,Single Family Residential,4617 White St,Missoula,MT,59808,315000,3,2.0,Missoula,1824,,2025,35,173,,Active,,,https://www.redfin.com/MT/Missoula/4617-White-St-59808/home/196206457,MRMLS,30052198,N,Y,46.9090046,-114.0438107
MLS Listing,,Single Family Residential,2201 Greenough Ct W,Missoula,MT,59802,815000,4,3.0,Missoula,2193,10803,1991,35,372,,Active,,,https://www.redfin.com/MT/Missoula/2201-Greenough-Ct-W-59802/home/135097222,MRMLS,30052769,N,Y,46.8834755,-113.9767608
MLS Listing,,Single Family Residential,6610 Justin Ct,Missoula,MT,59803,710000,4,3.0,Missoula,3408,22041,1999,35,208,6,Active,,,https://www.redfin.com/MT/Missoula/6610-Justin-Ct-59803/home/135317065,MRMLS,30052145,N,Y,46.8070239,-114.0510675
MLS Listing,,Condo/Co-op,2801 Highcliff Ct,Missoula,MT,59808,299900,2,1.5,"Cottonwoods at Grant Creek Condominium Assn, Inc.",928,,1992,36,323,341,Active,,,https://www.redfin.com/MT/Missoula/2801-Highcliff-Ct-59808/home/186229871,MRMLS,30052766,N,Y,46.9176681,-114.0342743
MLS Listing,,Single Family Residential,632 Stephens Ave,Missoula,MT,59801,645000,3,3.0,Missoula,1664,5837,1945,36,388,,Active,,,https://www.redfin.com/MT/Missoula/632-Stephens-Ave-59801/home/135218263,MRMLS,30052858,N,Y,46.860077,-114.0072757
MLS Listing,,Single Family Residential,9995 O'brien Creek Rd,Missoula,MT,59804,2800000,5,3.0,Missoula,5499,326700,1990,36,509,,Active,,,https://www.redfin.com/MT/Missoula/9995-Obrien-Creek-Rd-59804/home/135382262,MRMLS,30052750,N,Y,46.8506924,-114.1377179
MLS Listing,,Single Family Residential,7044 Guinevere Dr,Missoula,MT,59803,1125000,4,2.5,Missoula,3686,15246,2025,36,305,5,Active,,,https://www.redfin.com/MT/Missoula/7044-Guinevere-Dr-59803/home/181308964,MRMLS,30052889,N,Y,46.8000181,-114.0508157
MLS Listing,,Condo/Co-op,1010 W Pine St,Missoula,MT,59802,225000,1,1.0,Missoula,656,,1972,36,343,235,Active,,,https://www.redfin.com/MT/Missoula/1010-W-Pine-St-59802/home/135366723,MRMLS,30052204,N,Y,46.8776445,-114.0074841
MLS Listing,,Single Family Residential,2315 W Summit Dr,Missoula,MT,59803,457000,3,1.5,Missoula,1184,8799,1972,36,386,,Active,,,https://www.redfin.com/MT/Missoula/2315-W-Summit-Dr-59803/home/135277291,MRMLS,30052857,N,Y,46.8208551,-114.034908
MLS Listing,,Single Family Residential,3035 Charleston St,Missoula,MT,59804,659000,3,2.5,Missoula,1723,6229,2020,36,382,,Active,,,https://www.redfin.com/MT/Missoula/3035-Charleston-St-59804/home/173166689,MRMLS,30052808,N,Y,46.869119,-114.0534023
MLS Listing,,Single Family Residential,5763 Horn Rd,Missoula,MT,59808,629000,3,2.0,44 Ranch,1690,6577,2024,36,372,20,Active,,,https://www.redfin.com/MT/Missoula/5763-Horn-Rd-59808/home/196195722,MRMLS,30052485,N,Y,46.895313,-114.081172
MLS Listing,,Single Family Residential,340 Daly Ave,Missoula,MT,59801,975000,3,2.0,Missoula,2232,5227,1919,36,437,,Active,,,https://www.redfin.com/MT/Missoula/340-Daly-Ave-59801/home/135369482,MRMLS,30052842,N,Y,46.8613153,-113.9928433
MLS Listing,,Single Family Residential,546 Woodworth Ave,Missoula,MT,59801,779000,4,2.0,Missoula,2198,5850,1948,36,354,,Active,,,https://www.redfin.com/MT/Missoula/546-Woodworth-Ave-59801/home/135239856,MRMLS,30052743,N,Y,46.8533665,-113.9894472
MLS Listing,,Townhouse,1850 S 4th St W,Missoula,MT,59801,423000,1,1.0,Missoula,930,4878,2019,37,455,6,Active,,,https://www.redfin.com/MT/Missoula/1850-S-4th-St-W-59801/home/173166865,MRMLS,30052774,N,Y,46.866347,-114.0256667
MLS Listing,,Townhouse,1029 Stoddard St,Missoula,MT,59802,555000,3,2.5,Missoula,1872,348,2018,37,296,,Active,,,https://www.redfin.com/MT/Missoula/1029-Stoddard-St-59802/home/135422882,MRMLS,30052754,N,Y,46.8837097,-114.0058564
MLS Listing,,Single Family Residential,5497 Cattle Dr,Missoula,MT,59808,775000,3,2.5,Missoula,2556,6403,2022,37,303,20,Active,,,https://www.redfin.com/MT/Missoula/5497-Cattle-Dr-59808/home/181309395,MRMLS,30052117,N,Y,46.893801,-114.075946
MLS Listing,,Single Family Residential,430 E Spruce St,Missoula,MT,59801,525000,1,1.0,C.P. Higgins,1723,1280,1920,37,305,,Active,,,https://www.redfin.com/MT/Missoula/430-E-Spruce-St-59802/home/135325519,MRMLS,30043524,N,Y,46.8726745,-113.9873294
MLS Listing,,Condo/Co-op,737 Sun Pillar Loop,Missoula,MT,59802,2999000,12,12.0,Missoula,8032,18382,2019,38,373,,Active,,,https://www.redfin.com/MT/Missoula/737-Sun-Pillar-Loop-59802/home/168772354,MRMLS,30052709,N,Y,46.8700446,-113.9492539
MLS Listing,,Single Family Residential,2412 Garland Dr,Missoula,MT,59803,599900,3,2.5,PHEASANT RUN,2061,9801,1996,38,291,,Active,,,https://www.redfin.com/MT/Missoula/2412-Garland-Dr-59803/home/135423916,MRMLS,30052077,N,Y,46.8285027,-114.0396553
MLS Listing,,Single Family Residential,10315 Sienna Loop,Missoula,MT,59808,804990,3,2.0,Missoula,3530,7642,2025,38,228,20,Active,,,https://www.redfin.com/MT/Missoula/10315-Sienna-Loop-59808/home/196150333,MRMLS,30052697,N,Y,46.9623953,-114.1387645
MLS Listing,,Single Family Residential,3073 Catherine Ct,Missoula,MT,59804,1195000,3,2.5,Missoula,2816,43560,2006,38,424,,Active,,,https://www.redfin.com/MT/Missoula/3073-Catherine-Ct-59804/home/135378858,MRMLS,30052385,N,Y,46.8422978,-114.0965532
MLS Listing,,Single Family Residential,2514 Gleason St,Missoula,MT,59804,399000,3,2.0,Missoula,1252,11891,1955,38,319,,Active,,,https://www.redfin.com/MT/Missoula/2514-Gleason-St-59804/home/135339423,MRMLS,30050755,N,Y,46.8685697,-114.0401591
MLS Listing,,Vacant Land,2128 S 14th St W,Missoula,MT,59801,165000,,,Missoula,,3833,,38,,,Active,,,https://www.redfin.com/MT/Missoula/2128-S-14th-St-W-59801/home/185513385,MRMLS,30052671,N,Y,46.8570021,-114.0313416
MLS Listing,,Single Family Residential,6350 S Meadowwood Ln,Missoula,MT,59803,899000,3,2.5,Ravenwood Hills,2920,87120,1981,40,308,,Active,,,https://www.redfin.com/MT/Missoula/6350-S-Meadowwood-Ln-59803/home/135489219,MRMLS,30051742,N,Y,46.8102068,-114.0378662
MLS Listing,,Single Family Residential,300 Connell Ave,Missoula,MT,59801,1595000,4,3.0,Missoula,3991,8102,1937,41,400,,Active,,,https://www.redfin.com/MT/Missoula/300-Connell-Ave-59801/home/135392877,MRMLS,30052371,N,Y,46.8622855,-113.9938504
MLS Listing,,Single Family Residential,2711 S Higgins Ave,Missoula,MT,59801,499500,2,1.0,Becks Home,864,6795,1977,41,578,,Active,,,https://www.redfin.com/MT/Missoula/2711-S-Higgins-Ave-59801/home/135265769,MRMLS,30052318,N,Y,46.8455577,-113.9977435
MLS Listing,,Mobile/Manufactured Home,1700 Cooley St,Missoula,MT,59802,160000,2,2.0,Missoula,924,,2020,42,173,,Active,,,https://www.redfin.com/MT/Missoula/1700-Cooley-St-59802/home/147776436,MRMLS,30052255,N,Y,46.8855884,-114.0169254
MLS Listing,,Single Family Residential,11740 Gopher Dr,Missoula,MT,59808,790000,4,3.5,Missoula,3055,114998,1997,42,259,,Active,August-3-2025 12:00 PM,August-3-2025 02:00 PM,https://www.redfin.com/MT/Missoula/11740-Gopher-Dr-59808/home/135210778,MRMLS,30052396,N,Y,46.9830514,-114.1109223
MLS Listing,,Single Family Residential,5465 Remington Dr,Missoula,MT,59808,759900,4,3.0,Remington Flats,2291,5009,2025,42,332,,Active,,,https://www.redfin.com/MT/Missoula/5465-Remington-Dr-59808/home/196150491,MRMLS,30052488,N,Y,46.896132,-114.075497
MLS Listing,,Condo/Co-op,265 S 4th St E,Missoula,MT,59801,699000,2,2.0,Missoula,984,,2023,42,710,334,Active,,,https://www.redfin.com/MT/Missoula/265-S-4th-St-E-59801/home/184866757,MRMLS,30052391,N,Y,46.8657052,-113.99438
MLS Listing,,Single Family Residential,2702 Fleet St,Missoula,MT,59808,515000,3,2.0,Pleasant View,1416,5662,2003,42,364,30,Active,,,https://www.redfin.com/MT/Missoula/2702-Fleet-St-59808/home/135431682,MRMLS,30052284,N,Y,46.8958853,-114.0540385
MLS Listing,,Single Family Residential,7070 Max Dr,Missoula,MT,59803,795000,5,3.0,Missoula,2588,6926,2021,43,307,5,Active,,,https://www.redfin.com/MT/Missoula/7070-Max-Dr-59803/home/168927198,MRMLS,30052336,N,Y,46.7999211,-114.0542374
MLS Listing,,Mobile/Manufactured Home,1813 S Reserve St,Missoula,MT,59801,119000,3,2.0,Missoula,924,3600,1984,43,129,,Active,,,https://www.redfin.com/MT/Missoula/1813-S-Reserve-St-59801/home/147774349,MRMLS,30052338,N,Y,46.8529295,-114.0413519
MLS Listing,,Condo/Co-op,2129 S 6th St W,Missoula,MT,59801,499000,3,3.0,Missoula,2228,,2008,43,224,325,Active,,,https://www.redfin.com/MT/Missoula/2129-S-6th-St-W-59801/home/186420352,MRMLS,30052335,N,Y,46.8639725,-114.031284
MLS Listing,,Single Family Residential,6601 Russian Joe Rd,Missoula,MT,59802,5135000,3,3.5,Missoula,4792,196368,2007,44,1072,2800,Active,,,https://www.redfin.com/MT/Missoula/6601-Russian-Joe-Rd-59802/home/135267590,MRMLS,30052310,N,Y,46.9273289,-113.9797587
MLS Listing,,Single Family Residential,14470 Harpers Bridge Rd,Missoula,MT,59808,615000,2,2.0,Missoula,1300,217800,1993,44,473,,Active,,,https://www.redfin.com/MT/Missoula/14470-Harpers-Bridge-Rd-59808/home/135452324,MRMLS,30052124,N,Y,46.9310772,-114.2012976
MLS Listing,,Single Family Residential,4280 Fox Farm Rd,Missoula,MT,59802,995000,4,2.5,Lincolnwood Subdivision,2242,10062,1978,44,444,,Active,,,https://www.redfin.com/MT/Missoula/4280-Fox-Farm-Rd-59802/home/135188867,MRMLS,30052029,N,Y,46.9047712,-113.9686696
MLS Listing,,Single Family Residential,10331 Conterra Dr Unit (Lot 106),Missoula,MT,59808,629990,3,2.0,Missoula,1800,8140,2025,45,350,20,Active,,,https://www.redfin.com/MT/Missoula/Unknown-59801/unit-Lot-106/home/196123660,MRMLS,30052216,N,Y,46.8579212,-113.9866255
MLS Listing,,Single Family Residential,10262 Covenant Dr,Missoula,MT,59808,569990,3,2.0,Missoula,1574,8001,2025,45,362,20,Active,,,https://www.redfin.com/MT/Missoula/10262-Covenant-DR-59808/home/196123596,MRMLS,30052215,N,Y,46.96062935,-114.142537
MLS Listing,,Vacant Land,5525 Canyon River Rd,Missoula,MT,59802,285000,,,Canyon River Golf Community,,14701,,45,,170,Active,,,https://www.redfin.com/MT/Missoula/5525-Canyon-River-Rd-59802/home/165694827,MRMLS,30052201,N,Y,46.879952,-113.920814
MLS Listing,,Single Family Residential,2331 W Sussex Ave,Missoula,MT,59801,455000,3,2.5,Missoula,1364,3136,2006,45,334,,Active,August-3-2025 02:00 PM,August-3-2025 03:00 PM,https://www.redfin.com/MT/Missoula/2331-W-Sussex-Ave-59801/home/135318814,MRMLS,30052078,N,Y,46.8494112,-114.0354591
MLS Listing,,Condo/Co-op,1250 Basecamp Dr,Missoula,MT,59802,847000,3,3.5,Missoula,2152,,2021,45,394,363,Active,,,https://www.redfin.com/MT/Missoula/1250-Basecamp-Dr-59802/home/184878874,MRMLS,30051934,N,Y,46.8832318,-113.966096
MLS Listing,,Condo/Co-op,215 N Garfield St,Missoula,MT,59801,384900,3,2.5,Missoula,1324,212573,2002,45,291,240,Active,,,https://www.redfin.com/MT/Missoula/215-N-Garfield-St-59801/home/183261186,MRMLS,30052018,N,Y,46.8724994,-114.0246294
MLS Listing,,Vacant Land,2789 Paniolo Pl,Missoula,MT,59808,179000,,,Missoula,,8364,,48,,37,Active,,,https://www.redfin.com/MT/Missoula/2789-Paniolo-Pl-59808/home/173165590,MRMLS,30051753,N,Y,46.896381,-114.107488
MLS Listing,,Single Family Residential,251 Grandview Way,Missoula,MT,59803,485000,3,2.0,Missoula,1523,8886,1992,48,318,,Active,,,https://www.redfin.com/MT/Missoula/251-Grandview-Way-59803/home/135488943,MRMLS,30051947,N,Y,46.8135477,-114.0298009
MLS Listing,,Townhouse,3568 Connery Way,Missoula,MT,59808,539000,3,2.0,Missoula,1548,5184,2019,49,348,350,Active,,,https://www.redfin.com/MT/Missoula/3568-Connery-Way-59808/home/196082758,MRMLS,30051943,N,Y,46.8981444,-114.0451529
MLS Listing,,Single Family Residential,7376 Broken Bow Cluster,Missoula,MT,59808,2499000,6,4.5,Missoula,4836,25439,2026,49,517,113,Active,,,https://www.redfin.com/MT/Missoula/7376-Broken-Bow-Cluster-59808/home/165695987,MRMLS,30050307,N,Y,46.942196,-114.083543
MLS Listing,,Single Family Residential,2616 Garland Dr,Missoula,MT,59803,565000,4,3.0,Missoula,2768,10193,1959,49,204,,Active,,,https://www.redfin.com/MT/Missoula/2616-Garland-Dr-59803/home/135328963,MRMLS,30051743,N,Y,46.8285253,-114.0438962
MLS Listing,,Mobile/Manufactured Home,8105 Pheasant Dr,Missoula,MT,59808,399900,3,2.0,Missoula,1368,11761,1978,49,292,,Active,August-2-2025 01:00 PM,August-2-2025 03:00 PM,https://www.redfin.com/MT/Missoula/8105-Pheasant-Dr-59808/home/135348431,MRMLS,30051907,N,Y,46.8926355,-114.1095513
MLS Listing,,Single Family Residential,1417 Sherwood St,Missoula,MT,59802,375000,4,1.0,Missoula,1407,11064,1940,49,267,,Active,,,https://www.redfin.com/MT/Missoula/1417-Sherwood-St-59802/home/135385310,MRMLS,30050710,N,Y,46.8798229,-114.0115973
MLS Listing,,Single Family Residential,2424 55th St,Missoula,MT,59803,575000,4,2.0,Missoula,2128,10062,1978,49,270,,Active,,,https://www.redfin.com/MT/Missoula/2424-55th-St-59803/home/135497442,MRMLS,30051830,N,Y,46.8200581,-114.0404376
MLS Listing,,Single Family Residential,4206 North Ave W,Missoula,MT,59804,599000,3,1.5,Missoula,2064,8930,1959,49,290,,Active,,,https://www.redfin.com/MT/Missoula/4206-North-Ave-W-59804/home/135363561,MRMLS,30051928,N,Y,46.8525544,-114.0840542
MLS Listing,,Vacant Land,4629 Langdon Ct,Missoula,MT,59804,169000,,,Missoula,,17424,,49,,125,Active,,,https://www.redfin.com/MT/Missoula/4629-Langdon-Ct-59804/home/196077604,MRMLS,30051903,N,Y,46.8273579,-114.080527
MLS Listing,,Single Family Residential,1700 Arthur Ave,Missoula,MT,59801,1395000,5,3.0,Missoula,4552,10062,1955,50,306,,Active,,,https://www.redfin.com/MT/Missoula/1700-Arthur-Ave-59801/home/135487042,MRMLS,30051633,N,Y,46.854856,-113.9886711
MLS Listing,,Vacant Land,NHN Lot B Dickinson St,Missoula,MT,59802,390000,,,Missoula,,10059,,50,,,Active,,,https://www.redfin.com/MT/Missoula/NHN-Lot-B-Dickinson-St-59802/home/196064098,MRMLS,30051856,N,Y,46.88907291,-113.9748205
MLS Listing,,Single Family Residential,3101 Humble Rd,Missoula,MT,59804,1295000,4,3.5,Missoula,2860,43560,1990,50,453,,Active,,,https://www.redfin.com/MT/Missoula/3101-Humble-Rd-59804/home/135090430,MRMLS,30051829,N,Y,46.8424276,-114.092482
MLS Listing,,Mobile/Manufactured Home,2220 S 13th St W,Missoula,MT,59801,250000,2,1.0,Missoula,980,6500,1982,50,255,,Active,,,https://www.redfin.com/MT/Missoula/2220-S-13th-St-W-59801/home/135133331,MRMLS,30051606,N,Y,46.857827,-114.0328712
MLS Listing,,Single Family Residential,3069 Trading Post Pl,Missoula,MT,59808,1999000,6,4.0,Missoula,4160,9235,2018,51,481,37,Active,,,https://www.redfin.com/MT/Missoula/3069-Trading-Post-Pl-59808/home/143629776,MRMLS,30051642,N,Y,46.9009965,-114.1109813
MLS Listing,,Single Family Residential,2320 Cloverdale Dr,Missoula,MT,59803,825000,5,3.0,Meadow Hill Addition,3060,21000,1960,51,270,,Active,,,https://www.redfin.com/MT/Missoula/2320-Cloverdale-Dr-59803/home/135272731,MRMLS,30051652,N,Y,46.8333154,-114.0374423
MLS Listing,,Single Family Residential,2712 Spurgin Rd,Missoula,MT,59804,889900,4,2.0,Dinsmore's Orchard Homes,2754,59023,1960,51,323,,Active,,,https://www.redfin.com/MT/Missoula/2712-Spurgin-Rd-59804/home/135339543,MRMLS,30051471,N,Y,46.860026,-114.0458221
MLS Listing,,Single Family Residential,1940 Dixon Ave,Missoula,MT,59801,550000,5,2.0,Missoula,2572,5401,1959,51,214,,Active,,,https://www.redfin.com/MT/Missoula/1940-Dixon-Ave-59801/home/135486479,MRMLS,30051766,N,Y,46.8408334,-114.0281477
MLS Listing,,Vacant Land,2130 Hummingbird Dr,Missoula,MT,59808,325000,,,El Mar Estates,,15246,,51,,,Active,,,https://www.redfin.com/MT/Missoula/2130-Hummingbird-Dr-59808/home/135386596,MRMLS,30051621,N,Y,46.8911065,-114.1153603
MLS Listing,,Single Family Residential,470 Strand Ave,Missoula,MT,59801,949000,8,4.5,Missoula,3522,7492,1944,51,269,,Active,,,https://www.redfin.com/MT/Missoula/470-Strand-Ave-59801/home/147775288,MRMLS,30051350,N,Y,46.854442,-114.0075903
MLS Listing,,Condo/Co-op,1227 Basecamp Dr,Missoula,MT,59802,750000,3,2.5,BASECAMP CONDOMINIUMS,1800,,2022,52,417,150,Active,,,https://www.redfin.com/MT/Missoula/1227-Basecamp-Dr-59802/home/185463984,MRMLS,30049859,N,Y,46.8833889,-113.9665031
MLS Listing,,Vacant Land,11921 Joker Ln,Missoula,MT,59804,650000,,,Joker Flats,,132422,,52,,,Active,,,https://www.redfin.com/MT/Missoula/11921-Joker-LN-59804/home/196038105,MRMLS,30051721,N,Y,46.896131,-114.16084
MLS Listing,,Single Family Residential,1811 Charlott Ave,Missoula,MT,59801,585000,4,2.0,Carline,2412,9540,1955,52,243,,Active,,,https://www.redfin.com/MT/Missoula/1811-Charlott-Ave-59801/home/135134592,MRMLS,30051349,N,Y,46.838638,-114.0248875
MLS Listing,,Single Family Residential,2201 Rafferty Ln,Missoula,MT,59804,3495000,5,6.5,Missoula,4654,57934,2007,52,751,,Active,,,https://www.redfin.com/MT/Missoula/2201-Rafferty-Ln-59804/home/135427660,MRMLS,30050696,N,Y,46.8502941,-114.0975815
MLS Listing,,Single Family Residential,5900 Longview Dr,Missoula,MT,59803,470000,4,2.0,Missoula,1460,9845,1978,52,322,,Active,,,https://www.redfin.com/MT/Missoula/5900-Longview-Dr-59803/home/135190710,MRMLS,30051387,N,Y,46.815802,-114.0344687
MLS Listing,,Single Family Residential,218 N Garfield St,Missoula,MT,59801,375000,2,1.5,Missoula,960,4792,2004,53,391,,Active,,,https://www.redfin.com/MT/Missoula/218-N-Garfield-St-59801/home/135436407,MRMLS,30051634,N,Y,46.8724472,-114.0240174
MLS Listing,,Single Family Residential,7018 Max Dr,Missoula,MT,59803,929900,4,3.0,Linda Vista,3086,10193,2024,53,301,5,Active,,,https://www.redfin.com/MT/Missoula/7018-Max-Dr-59803/home/181308948,MRMLS,30051561,N,Y,46.8008162,-114.0514614
MLS Listing,,Single Family Residential,7580 Arroyo Ln,Missoula,MT,59808,733500,5,3.0,Country Crest,2572,43560,1994,53,285,8,Active,,,https://www.redfin.com/MT/Missoula/7580-Arroyo-Ln-59808/home/135097519,MRMLS,30051351,N,Y,46.8932442,-114.1021436
MLS Listing,,Single Family Residential,11399 Melody Ln,Missoula,MT,59804,1100000,4,2.5,Missoula,2649,46174,2007,53,415,,Active,,,https://www.redfin.com/MT/Missoula/11399-Melody-Ln-59804/home/135252990,MRMLS,30050841,N,Y,46.897293,-114.1562941
MLS Listing,,Multi-Family (2-4 Unit),3115 S Clark St,Missoula,MT,59801,399000,4,2.0,Missoula,1896,9757,1960,53,210,,Active,,,https://www.redfin.com/MT/Missoula/3115-S-Clark-St-59801/home/135237916,MRMLS,30051552,N,Y,46.8417559,-114.0371709
MLS Listing,,Townhouse,5237 Ginger Quill Rd,Missoula,MT,59802,895000,3,2.0,Missoula,2183,8276,2024,54,410,250,Active,,,https://www.redfin.com/MT/Missoula/5237-Ginger-Quill-Rd-59802/home/188221208,MRMLS,30050998,N,Y,46.8744167,-113.9287086
MLS Listing,,Single Family Residential,5959 Hayes Creek Rd,Missoula,MT,59804,1409000,4,3.5,Missoula,5606,107158,2004,54,251,,Active,August-3-2025 11:00 AM,August-3-2025 01:00 PM,https://www.redfin.com/MT/Missoula/5959-Hayes-Creek-Rd-59804/home/135498067,MRMLS,30051381,N,Y,46.8160263,-114.0962407
MLS Listing,,Single Family Residential,10190 Kona Ranch Rd,Missoula,MT,59808,1200000,5,3.0,Missoula,3320,217800,1996,56,361,,Active,,,https://www.redfin.com/MT/Missoula/10190-Kona-Ranch-Rd-59808/home/135210379,MRMLS,30051436,N,Y,46.9002952,-114.1390177
MLS Listing,,Single Family Residential,720 Anglers Bend Way,Missoula,MT,59802,925000,3,2.0,Canyon River,2215,8370,2007,56,418,325,Active,,,https://www.redfin.com/MT/Missoula/720-Anglers-Bend-Way-59802/home/135357528,MRMLS,30051472,N,Y,46.877184,-113.9241288
MLS Listing,,Single Family Residential,12088 Okeefe Creek Blvd,Missoula,MT,59808,830000,5,4.0,Missoula,3192,185566,1997,56,260,,Active,,,https://www.redfin.com/MT/Missoula/12088-Okeefe-Creek-Blvd-59808/home/135411917,MRMLS,30051420,N,Y,46.9867794,-114.125471
MLS Listing,,Single Family Residential,4448 Martindale Way,Missoula,MT,59808,464999,2,2.0,Missoula,1464,2831,2007,56,318,20,Active,,,https://www.redfin.com/MT/Missoula/4448-Martindale-Way-59808/home/135316641,MRMLS,30051262,N,Y,46.9152992,-114.0603696
MLS Listing,,Single Family Residential,4750 Mark Ct,Missoula,MT,59803,714999,4,3.0,Missoula,2800,20037,1992,57,255,5,Active,,,https://www.redfin.com/MT/Missoula/4750-Mark-Ct-59803/home/135493057,MRMLS,30051228,N,Y,46.8101548,-114.0630228
MLS Listing,,Single Family Residential,1655 Sunflower Dr,Missoula,MT,59802,789900,3,3.0,Syringa Addition,2526,10019,1974,57,313,,Active,August-3-2025 01:00 PM,August-3-2025 03:00 PM,https://www.redfin.com/MT/Missoula/1655-Sunflower-Dr-59802/home/135411561,MRMLS,30051211,N,Y,46.8949519,-113.9608056
MLS Listing,,Single Family Residential,2322 Mary Jane Blvd,Missoula,MT,59808,525000,3,2.0,Pleasant View Homes,1774,5980,2005,57,296,30,Active,,,https://www.redfin.com/MT/Missoula/2322-Mary-Jane-Blvd-59808/home/135504625,MRMLS,30050888,N,Y,46.8925973,-114.0520109
MLS Listing,,Single Family Residential,4337 Christian Dr,Missoula,MT,59803,785000,3,3.0,Linda Vista,2996,9451,2024,57,262,5,Active,,,https://www.redfin.com/MT/Missoula/4337-Christian-Dr-59803/home/181308860,MRMLS,30051358,N,Y,46.811702,-114.0751208
MLS Listing,,Vacant Land,Parcel C Hwy 93 S,Missoula,MT,59804,220000,,,Missoula,,94089,,57,,,Active,,,https://www.redfin.com/MT/Missoula/Parcel-C-U-S-Highway-93-S-59804/home/191088301,MRMLS,30051356,N,Y,46.81594713,-114.09264807
MLS Listing,,Single Family Residential,13463 Bunchgrass Ln,Missoula,MT,59808,719000,3,2.0,Missoula,1892,43560,2025,57,380,35,Active,August-3-2025 12:30 PM,August-3-2025 02:30 PM,https://www.redfin.com/MT/Missoula/13463-Bunchgrass-Ln-59808/home/165695488,MRMLS,30051210,N,Y,47.000259,-114.179461
MLS Listing,,Single Family Residential,3721 Brandon Way,Missoula,MT,59803,749900,4,3.0,Missoula,2934,15864,1999,58,256,5,Active,,,https://www.redfin.com/MT/Missoula/3721-Brandon-Way-59803/home/135327247,MRMLS,30051298,N,Y,46.8065997,-114.0523716
MLS Listing,,Single Family Residential,2606 Sycamore St,Missoula,MT,59802,4550000,3,3.5,Missoula,5250,68214,2011,58,867,,Active,,,https://www.redfin.com/MT/Missoula/2606-Sycamore-St-59802/home/135471133,MRMLS,30051306,N,Y,46.889271,-113.9720824
MLS Listing,,Single Family Residential,2438 Chuck Wagon Dr,Missoula,MT,59808,626900,3,2.5,Missoula,1696,4400,2021,58,370,20,Active,,,https://www.redfin.com/MT/Missoula/2438-Chuck-Wagon-Dr-59808/home/181309397,MRMLS,30049753,N,Y,46.8933851,-114.0757292
MLS Listing,,Single Family Residential,3821 Dore Ln,Missoula,MT,59801,735000,6,4.0,Missoula,3250,8712,1977,58,226,,Active,,,https://www.redfin.com/MT/Missoula/3821-Dore-Ln-59801/home/147776505,MRMLS,30051182,N,Y,46.8348081,-114.0358722
MLS Listing,,Single Family Residential,6109 Mainview Dr,Missoula,MT,59803,599700,4,3.0,Hillview Heights,2494,11107,1981,58,240,,Active,,,https://www.redfin.com/MT/Missoula/6109-Mainview-Dr-59803/home/135398223,MRMLS,30050924,N,Y,46.8130539,-114.0326963
MLS Listing,,Single Family Residential,2761 Contour Rd,Missoula,MT,59802,8999000,5,6.0,Missoula,9065,92347,2002,58,993,,Active,,,https://www.redfin.com/MT/Missoula/2761-Contour-Rd-59802/home/135275730,MRMLS,30049685,N,Y,46.8918165,-113.9509912
MLS Listing,,Single Family Residential,3827 Lancaster Rd,Missoula,MT,59808,620000,3,2.0,PLEASANT VIEW HOMES,2130,5967,2007,58,291,30,Active,,,https://www.redfin.com/MT/Missoula/3827-Lancaster-Rd-59808/home/135504440,MRMLS,30050668,N,Y,46.8972368,-114.0464594
MLS Listing,,Single Family Residential,140 Fairway Dr,Missoula,MT,59803,1495000,4,4.5,Missoula,4786,11979,1992,59,312,,Active,,,https://www.redfin.com/MT/Missoula/140-Fairway-Dr-59803/home/135302598,MRMLS,30051010,N,Y,46.8301456,-114.0003823
MLS Listing,,Townhouse,2411 Pale Evening Ct,Missoula,MT,59808,915000,4,3.5,Missoula,2550,2800,2023,59,359,100,Active,,,https://www.redfin.com/MT/Missoula/2411-Pale-Evening-Ct-59808/home/181309343,MRMLS,30051175,N,Y,46.893503,-114.139911
MLS Listing,,Townhouse,1861 E Broadway St,Missoula,MT,59802,449000,3,2.5,Missoula,2092,1220,1980,59,215,370,Active,,,https://www.redfin.com/MT/Missoula/1861-E-Broadway-St-59802/home/135379966,MRMLS,30051113,N,Y,46.8629022,-113.9594402
MLS Listing,,Single Family Residential,1935 S 8th St W,Missoula,MT,59801,374500,1,1.0,Missoula,880,6490,1940,60,426,,Active,,,https://www.redfin.com/MT/Missoula/1935-S-8th-St-W-59801/home/135448625,MRMLS,30050310,N,Y,46.8621493,-114.0272635
MLS Listing,,Single Family Residential,15405 Us Highway 93 N,Missoula,MT,59808,649900,5,2.0,Missoula,2112,435600,1964,60,308,,Active,,,https://www.redfin.com/MT/Missoula/15405-US-Highway-93-N-59808/home/135294202,MRMLS,30049778,N,Y,47.019179,-114.118646
MLS Listing,,Single Family Residential,1133 Pacific Dr,Missoula,MT,59803,3395000,5,5.0,Missoula,7418,81457,2022,62,458,,Active,,,https://www.redfin.com/MT/Missoula/1133-Pacific-Dr-59803/home/165636374,MRMLS,30050709,N,Y,46.82556,-113.991815
MLS Listing,,Single Family Residential,2700 Lyon Creek Rd,Missoula,MT,59804,1499995,2,2.5,Missoula,3040,747925,1980,63,493,,Active,,,https://www.redfin.com/MT/Missoula/2700-Lyon-Creek-Rd-59804/home/143636487,MRMLS,30050536,N,Y,46.8466764,-114.1454725
MLS Listing,,Single Family Residential,2705 Lyon Creek Rd,Missoula,MT,59804,939000,2,2.0,Missoula,1530,439956,1980,63,614,,Active,,,https://www.redfin.com/MT/Missoula/2705-Lyon-Creek-Rd-59804/home/135448255,MRMLS,30050530,N,Y,46.8459433,-114.1448994
MLS Listing,,Single Family Residential,5368 Horn Rd,Missoula,MT,59808,620000,5,3.0,44 Ranch,3124,4966,2008,63,198,20,Active,,,https://www.redfin.com/MT/Missoula/5368-Horn-Rd-59808/home/135258646,MRMLS,30050899,N,Y,46.8956943,-114.0733889
MLS Listing,,Single Family Residential,409 Bentley Park Loop,Missoula,MT,59801,535000,4,3.0,Missoula,2112,4138,2003,63,253,,Active,August-2-2025 11:00 AM,August-2-2025 01:00 PM,https://www.redfin.com/MT/Missoula/409-Bentley-Park-Loop-59801/home/135504876,MRMLS,30050799,N,Y,46.8693166,-114.0376972
MLS Listing,,Single Family Residential,722 Oak St,Missoula,MT,59801,448000,1,1.0,Missoula,576,3528,1940,63,778,,Active,,,https://www.redfin.com/MT/Missoula/722-Oak-St-59801/home/135226493,MRMLS,30050832,N,Y,46.8644507,-114.0108945
MLS Listing,,Condo/Co-op,2211 S Russell St,Missoula,MT,59801,399900,3,2.5,Missoula,1794,,2006,64,223,225,Active,,,https://www.redfin.com/MT/Missoula/2211-S-Russell-St-59801/home/195831370,MRMLS,30050868,N,Y,46.8509855,-114.018658
MLS Listing,,Single Family Residential,2404 56th St,Missoula,MT,59803,577500,5,4.0,Missoula,2688,21250,1974,64,215,,Active,,,https://www.redfin.com/MT/Missoula/2404-56th-St-59803/home/135159250,MRMLS,30050703,N,Y,46.818958,-114.036949
MLS Listing,,Single Family Residential,831 Hastings Ave,Missoula,MT,59801,975000,7,2.5,University District,3024,7790,1945,65,322,,Active,,,https://www.redfin.com/MT/Missoula/831-Hastings-Ave-59801/home/135157409,MRMLS,30050611,N,Y,46.8549287,-113.9842025
MLS Listing,,Single Family Residential,3 Rosebud Ln,Missoula,MT,59801,589900,3,2.0,Missoula,1863,10236,1964,65,317,,Active,,,https://www.redfin.com/MT/Missoula/3-Rosebud-Ln-59801/home/135274193,MRMLS,30050766,N,Y,46.8403348,-114.0215852
MLS Listing,,Townhouse,714 Skyla Ct,Missoula,MT,59801,439000,3,2.0,Missoula,1310,4249,1998,65,335,83,Active,,,https://www.redfin.com/MT/Missoula/714-Skyla-Ct-59801/home/185880520,MRMLS,30050202,N,Y,46.8767543,-114.0279524
MLS Listing,,Single Family Residential,565 S Johnson St,Missoula,MT,59801,559999,4,2.0,Missoula,2472,6795,1950,65,227,,Active,,,https://www.redfin.com/MT/Missoula/565-S-Johnson-St-59801/home/135281508,MRMLS,30049736,N,Y,46.8663828,-114.0284678
MLS Listing,,Single Family Residential,1145 Pacific Dr,Missoula,MT,59803,2395000,5,4.0,Wild Flower Hills,5061,80586,1997,65,473,,Active,,,https://www.redfin.com/MT/Missoula/1145-Pacific-Dr-59803/home/135237522,MRMLS,30050573,N,Y,46.8258658,-113.991241
MLS Listing,,Single Family Residential,1191 Big Flat Rd,Missoula,MT,59804,1199000,4,3.0,Missoula,3920,219106,2024,66,306,8,Active,,,https://www.redfin.com/MT/Missoula/1191-Big-Flat-Rd-59804/home/165619821,MRMLS,30050604,N,Y,46.8740573,-114.1405458
MLS Listing,,Single Family Residential,4830 Arnica Rd,Missoula,MT,59803,945000,4,4.0,Missoula,2900,240451,1989,67,326,,Active,,,https://www.redfin.com/MT/Missoula/4830-Arnica-Rd-59803/home/135452980,MRMLS,30050209,N,Y,46.8252023,-113.9703081
MLS Listing,,Single Family Residential,2669 Bunkhouse Pl,Missoula,MT,59808,998000,3,2.0,The Ranch Club,2130,9322,2019,70,469,25,Active,,,https://www.redfin.com/MT/Missoula/2669-Bunkhouse-Pl-59808/home/135502312,MRMLS,30050496,N,Y,46.8964112,-114.1118454
MLS Listing,,Multi-Family (2-4 Unit),3220 S Clark St,Missoula,MT,59801,625000,9,9.0,Missoula,2425,4312,1976,70,258,,Active,,,https://www.redfin.com/MT/Missoula/3220-S-Clark-St-59801/home/147773765,MRMLS,30050438,N,Y,46.8408649,-114.0366521
MLS Listing,,Multi-Family (2-4 Unit),819 Charlo St,Missoula,MT,59802,989000,8,4.0,Missoula,3046,2831,2015,71,325,,Active,,,https://www.redfin.com/MT/Missoula/819-Charlo-St-59802/home/143629676,MRMLS,30050271,N,Y,46.8878644,-114.0021618
MLS Listing,,Multi-Family (2-4 Unit),1935 S 12th St W,Missoula,MT,59801,850000,9,6.0,Missoula,3552,5734,2001,71,239,,Active,,,https://www.redfin.com/MT/Missoula/1935-S-12th-St-W-59801/home/147774101,MRMLS,30050393,N,Y,46.8582764,-114.0273476
MLS Listing,,Mobile/Manufactured Home,2310 Sage Hen Ct,Missoula,MT,59808,325000,3,2.0,El Mar Estates,1136,11761,1976,71,286,,Active,,,https://www.redfin.com/MT/Missoula/2310-Sage-Hen-Ct-59808/home/135338289,MRMLS,30050353,N,Y,46.8926696,-114.1128109
MLS Listing,,Vacant Land,Lot 84 Bunchgrass Ln,Missoula,MT,59808,205000,,,Missoula,,37461,,71,,35,Active,,,https://www.redfin.com/MT/Unknown/Lot-84-Bunchgrass-Ln-59808/home/183274241,MRMLS,30050279,N,Y,47.00222139,-114.17887324
MLS Listing,,Single Family Residential,2283 Depot Way,Missoula,MT,59808,570000,4,2.5,Missoula,1737,3892,2025,71,328,25,Active,,,https://www.redfin.com/MT/Missoula/2283-Depot-Way-59808/home/195877010,MRMLS,30050211,N,Y,46.8921875,-114.0529744
MLS Listing,,Single Family Residential,4884 Lower Miller Creek Rd,Missoula,MT,59803,996000,4,4.0,Missoula,3810,20037,1994,72,261,,Active,,,https://www.redfin.com/MT/Missoula/4884-Lower-Miller-Creek-Rd-59803/home/135237481,MRMLS,30049627,N,Y,46.8194442,-114.059461
MLS Listing,,Single Family Residential,609 Castle Pines Dr,Missoula,MT,59802,2200000,5,3.5,Missoula,4625,93654,1996,72,476,,Active,,,https://www.redfin.com/MT/Missoula/609-Castle-Pines-Rd-59802/home/135465730,MRMLS,30049647,N,Y,46.9074091,-113.9735176
MLS Listing,,Single Family Residential,2110 Burlington Ave,Missoula,MT,59801,399000,2,1.0,Missoula,946,3615,1937,73,422,,Active,,,https://www.redfin.com/MT/Missoula/2110-Burlington-Ave-59801/home/135226109,MRMLS,30049948,N,Y,46.8553197,-114.0304303
MLS Listing,,Single Family Residential,920 S Johnson St,Missoula,MT,59801,459900,3,2.0,Missoula,1157,4268,1960,73,397,,Active,,,https://www.redfin.com/MT/Missoula/920-S-Johnson-St-59801/home/135413135,MRMLS,30050171,N,Y,46.8628216,-114.0279036
MLS Listing,,Single Family Residential,11754 Windemere Dr,Missoula,MT,59804,2800000,6,6.0,Missoula,7866,217800,2007,73,356,17,Active,,,https://www.redfin.com/MT/Missoula/11754-Windemere-Dr-59804/home/135427886,MRMLS,30044487,N,Y,46.892696,-114.1592619
MLS Listing,,Single Family Residential,10780 Grant Creek Rd,Missoula,MT,59808,799000,4,2.0,Missoula,3384,236095,2002,74,236,,Active,,,https://www.redfin.com/MT/Missoula/10780-Grant-Creek-Rd-59808/home/135363946,MRMLS,30050138,N,Y,46.9731412,-113.9965253
MLS Listing,,Single Family Residential,2719 Carnoustie Way,Missoula,MT,59808,995000,5,3.0,Missoula,3232,12632,2004,74,308,21,Active,,,https://www.redfin.com/MT/Missoula/2719-Carnoustie-Way-59808/home/135249995,MRMLS,30049742,N,Y,46.8992798,-114.1179585
MLS Listing,,Condo/Co-op,432 W Spruce St,Missoula,MT,59802,850000,2,2.0,Missoula,1306,7797,1920,74,651,325,Active,,,https://www.redfin.com/MT/Missoula/432-W-Spruce-St-59802/home/135328252,MRMLS,30050095,N,Y,46.8759087,-113.9979392
MLS Listing,,Single Family Residential,3690 Big Flat Rd,Missoula,MT,59804,2000000,3,2.0,Missoula,2496,2817896,1961,74,801,,Active,,,https://www.redfin.com/MT/Missoula/3690-Big-Flat-Rd-59804/home/135935012,MRMLS,30048081,N,Y,46.908328,-114.182714
MLS Listing,,Single Family Residential,4104 23rd Ave,Missoula,MT,59803,519900,5,3.0,Missoula,2720,10934,1960,75,191,,Active,,,https://www.redfin.com/MT/Missoula/4104-23rd-Ave-59803/home/135481887,MRMLS,30049615,N,Y,46.8339812,-114.0350347
MLS Listing,,Single Family Residential,116 South Ave E,Missoula,MT,59801,574900,4,2.0,Missoula,1408,6255,1940,76,408,,Active,,,https://www.redfin.com/MT/Missoula/116-South-Ave-E-59801/home/135337272,MRMLS,30049880,N,Y,46.8489752,-113.9966679
MLS Listing,,Vacant Land,1645 Shadow Ln,Missoula,MT,59803,320000,,,Mountain Shadows West Phase 2,,19602,,77,,,Active,,,https://www.redfin.com/MT/Missoula/1645-Shadow-Ln-59803/home/165617381,MRMLS,30049825,N,Y,46.827971,-114.020711
MLS Listing,,Single Family Residential,2965 Terrace Dr,Missoula,MT,59803,2285999,6,4.5,Missoula,5536,110598,1998,77,413,,Active,,,https://www.redfin.com/MT/Missoula/2965-Terrace-Dr-59803/home/135267053,MRMLS,30048115,N,Y,46.8042098,-114.0379135
MLS Listing,,Vacant Land,3032 Eaton St,Missoula,MT,59801,214900,,,Missoula,,8058,,77,,,Active,,,https://www.redfin.com/MT/Missoula/3032-Eaton-St-59801/home/165680988,MRMLS,30049453,N,Y,46.8430206,-114.0340283
MLS Listing,,Single Family Residential,1310 Linnea Ln,Missoula,MT,59801,510511,4,2.5,Missoula,1623,4835,2007,78,315,,Active,,,https://www.redfin.com/MT/Missoula/1310-Linnea-Ln-59801/home/135253878,MRMLS,30049883,N,Y,46.8592501,-114.033226
MLS Listing,,Single Family Residential,2112 & 2112 1/2 W Central Ave,Missoula,MT,59801,595000,4,2.0,Carline Addition,1392,6229,1955,78,427,,Active,,,https://www.redfin.com/MT/Missoula/2135-1-W-Central-Ave-59801/home/195924102,MRMLS,30049754,N,Y,46.8503979,-114.0311964
MLS Listing,,Multi-Family (2-4 Unit),751 Sun Pillar Loop Unit Sun Pillar Loop,Missoula,MT,59802,1900000,5,5.0,Missoula,3600,,2020,78,528,,Active,,,https://www.redfin.com/MT/Missoula/751-Sun-Pillar-Loop-59802/home/189452496,MRMLS,30044170,N,Y,46.8704064,-113.9493439
MLS Listing,,Single Family Residential,4482 Harrison Scott Dr,Missoula,MT,59803,919900,3,2.0,Missoula,3981,12648,2024,79,231,5,Active,,,https://www.redfin.com/MT/Missoula/4482-Harrison-Scott-Dr-59803/home/195807997,MRMLS,30046338,N,Y,46.808925,-114.07129
MLS Listing,,Single Family Residential,1815 Homestead Dr,Missoula,MT,59808,799900,5,3.0,Missoula,3488,47045,1998,79,229,,Active,,,https://www.redfin.com/MT/Missoula/1815-Homestead-Dr-59808/home/135495932,MRMLS,30049520,N,Y,46.8858658,-114.0937961
MLS Listing,,Single Family Residential,422 W Spruce St,Missoula,MT,59802,825000,4,1.5,Higgins and McCormick Addition,2218,5837,1912,80,372,,Active,,,https://www.redfin.com/MT/Missoula/422-W-Spruce-St-59802/home/147776893,MRMLS,30047996,N,Y,46.8758036,-113.9976942
MLS Listing,,Single Family Residential,110 Hillcrest Loop,Missoula,MT,59803,1200000,3,3.0,Missoula,3028,46174,1955,80,396,,Active,,,https://www.redfin.com/MT/Missoula/110-Hillcrest-Loop-59803/home/135293920,MRMLS,30047813,N,Y,46.8410902,-113.9926574
MLS Listing,,Single Family Residential,705 N 3rd St W,Missoula,MT,59802,609999,3,2.0,Missoula,1600,5271,1925,80,381,,Active,,,https://www.redfin.com/MT/Missoula/705-N-3rd-St-W-59802/home/135373220,MRMLS,30046643,N,Y,46.8811817,-113.9974124
MLS Listing,,Single Family Residential,2225 Pattee Canyon Rd,Missoula,MT,59803,662000,2,1.0,Missoula,945,195584,1963,81,701,,Active,,,https://www.redfin.com/MT/Missoula/2225-Pattee-Canyon-Rd-59803/home/135263556,MRMLS,30049592,N,Y,46.8282939,-113.9694225
MLS Listing,,Vacant Land,608 S Davis St,Missoula,MT,59801,150000,,,Missoula,,4671,,81,,,Active,,,https://www.redfin.com/MT/Missoula/608-N-Davis-St-59801/home/195233408,MRMLS,30049542,N,Y,46.8753892,-114.0364615
MLS Listing,,Vacant Land,606 S Davis St,Missoula,MT,59801,150000,,,Missoula,,5072,,81,,,Active,,,https://www.redfin.com/MT/Missoula/606-S-Davis-St-59801/home/195957783,MRMLS,30049543,N,Y,46.8656953,-114.0363725
MLS Listing,,Townhouse,2775 Riata Rd,Missoula,MT,59808,509900,3,2.5,REMINGTON FLATS,1686,3179,2025,81,302,,Active,,,https://www.redfin.com/MT/Missoula/2775-Riata-Rd-59808/home/195226666,MRMLS,30047989,N,Y,46.897076,-114.071835
MLS Listing,,Vacant Land,2315 Baetis Ct,Missoula,MT,59808,389500,,,Freestone,,27007,,82,,100,Active,,,https://www.redfin.com/MT/Missoula/2315-Baetis-Ct-59808/home/184899124,MRMLS,30049416,N,Y,46.8918474,-114.1370796
MLS Listing,,Single Family Residential,2390 Mahogany Dun Way,Missoula,MT,59808,2156500,3,3.5,Freestone,3620,29185,2025,82,596,100,Active,,,https://www.redfin.com/MT/Missoula/2390-Royal-Coachman-Dr-59808/home/187252609,MRMLS,30049413,N,Y,46.893384,-114.135877
MLS Listing,,Single Family Residential,4618 Christian Dr,Missoula,MT,59803,995000,6,4.0,Linda Vista Subdivision,4344,8168,2018,82,229,5,Active,,,https://www.redfin.com/MT/Missoula/4618-Christian-Dr-59803/home/147773032,MRMLS,30044379,N,Y,46.806781,-114.0667226
MLS Listing,,Single Family Residential,300 Evans Ave,Missoula,MT,59801,1225000,4,3.0,Missoula,2450,7797,1925,82,500,,Active,,,https://www.redfin.com/MT/Missoula/300-Evans-Ave-59801/home/135470758,MRMLS,30047433,N,Y,46.8563375,-113.9939141
MLS Listing,,Vacant Land,3068 Rustler Dr,Missoula,MT,59808,170000,,,Ranch Club,,14593,,83,,37,Active,,,https://www.redfin.com/MT/Missoula/3068-Rustler-Dr-59808/home/135229861,MRMLS,30049467,N,Y,46.900808,-114.115816
MLS Listing,,Townhouse,4632 Stoneybrook Way,Missoula,MT,59802,879000,3,3.0,Missoula,2705,5653,2016,84,325,400,Active,,,https://www.redfin.com/MT/Missoula/4632-Stoneybrook-Way-59802/home/168771381,MRMLS,30049393,N,Y,46.8784924,-113.9334786
MLS Listing,,Single Family Residential,455 Mount Ave,Missoula,MT,59801,510000,4,2.0,GLENWOOD PARK,2730,6795,1956,84,187,,Active,,,https://www.redfin.com/MT/Missoula/455-Mount-Ave-59801/home/135363934,MRMLS,30047688,N,Y,46.8558168,-114.0069834
MLS Listing,,Single Family Residential,318 Dearborn Ave,Missoula,MT,59801,599000,4,2.5,Missoula,1800,3789,2004,84,333,,Active,,,https://www.redfin.com/MT/Missoula/318-Dearborn-Ave-59801/home/135505017,MRMLS,30048071,N,Y,46.8473187,-114.0018368
MLS Listing,,Condo/Co-op,2905 O'shaughnesy St,Missoula,MT,59808,355000,2,2.0,Meadow Views Condominiums,1092,,2005,85,325,285,Active,,,https://www.redfin.com/MT/Missoula/2905-O-Shaughnesy-St-59808/home/195646766,MRMLS,30047520,N,Y,46.8921617,-114.0481974
MLS Listing,,Single Family Residential,2736 Paniolo Pl,Missoula,MT,59808,985000,4,3.0,Missoula,2261,10193,2025,85,436,37,Active,,,https://www.redfin.com/MT/Missoula/2736-Paniolo-Pl-59808/home/173165613,MRMLS,30048119,N,Y,46.8953968,-114.1053389
MLS Listing,,Single Family Residential,13380 Harpers Bridge Rd,Missoula,MT,59808,690000,2,1.0,Missoula,1120,348697,1976,86,616,,Active,,,https://www.redfin.com/MT/Missoula/13380-Harpers-Bridge-Rd-59808/home/135167961,MRMLS,30047949,N,Y,46.9288342,-114.1839256
MLS Listing,,Single Family Residential,1765 Cyprus Ct,Missoula,MT,59801,675000,6,3.0,Missoula,2704,17424,1975,86,250,,Active,,,https://www.redfin.com/MT/Missoula/1765-Cyprus-Ct-59801/home/135390805,MRMLS,30048017,N,Y,46.8353184,-114.0238984
MLS Listing,,Vacant Land,2324 Cicada Ct,Missoula,MT,59808,365000,,,Freestone,,23522,,86,,100,Active,,,https://www.redfin.com/MT/Missoula/2324-Cicada-CT-Unknown/home/191035052,MRMLS,30048096,N,Y,46.892628,-114.13512
MLS Listing,,Vacant Land,2310 Baetis Ct,Missoula,MT,59808,429500,,,Missoula,,34848,,86,,100,Active,,,https://www.redfin.com/MT/Missoula/2310-Baetis-Ct-59808/home/185263313,MRMLS,30048104,N,Y,46.891933,-114.1364
MLS Listing,,Vacant Land,9656 Royal Coachman Dr,Missoula,MT,59808,375500,,,Missoula,,25700,,86,,100,Active,,,https://www.redfin.com/MT/Missoula/9656-Royal-Coachman-Dr-59808/home/191228904,MRMLS,30048141,N,Y,46.8981227,-114.1377972
MLS Listing,,Vacant Land,215-235 Grant St,Missoula,MT,59801,949000,,,Missoula,,24611,,87,,,Active,,,https://www.redfin.com/MT/Missoula/215-N-Grant-St-59801/home/192020323,MRMLS,30047624,N,Y,46.8719677,-114.0262594
MLS Listing,,Condo/Co-op,2002 S 6th St W,Missoula,MT,59801,394525,2,2.0,Missoula,1312,13983,2005,87,301,250,Active,,,https://www.redfin.com/MT/Missoula/2002-S-6th-St-W-59801/home/135542568,MRMLS,30046759,N,Y,46.8643472,-114.0285707
MLS Listing,,Vacant Land,NHN Pulp Mill Rd,Frenchtown,MT,59834,1100000,,,Frenchtown,,4020588,,87,,,Active,,,https://www.redfin.com/MT/Frenchtown/NHN-Pulp-Mill-RD-59834/home/195614485,MRMLS,30047735,N,Y,46.96593415,-114.18381615
MLS Listing,,Townhouse,2316 Mary Jane Blvd,Missoula,MT,59808,599900,3,2.5,Missoula,2578,1054,2022,87,233,183,Active,,,https://www.redfin.com/MT/Missoula/2316-Mary-Jane-Blvd-59808/home/195613594,MRMLS,30047912,N,Y,46.8923282,-114.0517318
MLS Listing,,Single Family Residential,7202 Shaver Dr,Missoula,MT,59803,589000,3,2.5,Linda Vista,1713,5815,2025,88,344,5,Active,,,https://www.redfin.com/MT/Missoula/7202-Shaver-Dr-59803/home/195606233,MRMLS,30048035,N,Y,46.8017138,-114.0528773
MLS Listing,,Single Family Residential,7204 Shaver Dr,Missoula,MT,59803,619000,4,2.5,Linda Vista,1752,5904,2025,88,353,5,Active,,,https://www.redfin.com/MT/Missoula/7204-Shaver-Dr-59803/home/195606132,MRMLS,30048021,N,Y,46.8017138,-114.0528773
MLS Listing,,Single Family Residential,7206 Shaver Dr,Missoula,MT,59803,629000,3,2.5,Linda Vista,1752,5649,2025,88,359,5,Active,,,https://www.redfin.com/MT/Missoula/7206-Shaver-Dr-59803/home/195605547,MRMLS,30047994,N,Y,46.8017138,-114.0528773
MLS Listing,,Single Family Residential,8000 Tucker Ln,Missoula,MT,59808,1875000,4,4.0,Missoula,4073,348480,2001,88,460,,Active,,,https://www.redfin.com/MT/Missoula/8000-Tucker-Ln-59808/home/135151554,MRMLS,30047942,N,Y,46.969874,-114.1087127
MLS Listing,,Single Family Residential,2421 Half Hitch Dr,Missoula,MT,59808,698000,5,3.0,44 Ranch,2856,4400,2017,88,244,20,Active,,,https://www.redfin.com/MT/Missoula/2421-Half-Hitch-Dr-59808/home/143629798,MRMLS,30047876,N,Y,46.8931721,-114.075287
MLS Listing,,Single Family Residential,4863 Scott Allen Dr,Missoula,MT,59803,739900,4,3.0,Linda Vista,2904,14500,1998,91,255,3,Active,,,https://www.redfin.com/MT/Missoula/4863-Scott-Allen-Dr-59803/home/135435590,MRMLS,30047758,N,Y,46.8060593,-114.055722
MLS Listing,,Single Family Residential,9457 Royal Coachman Dr Unit CL3,Missoula,MT,59808,1426500,3,2.5,Freestone,2283,13939,2025,91,625,100,Active,,,https://www.redfin.com/MT/Missoula/9457-Royal-Coachman-Dr-59808/unit-CL3/home/195605112,MRMLS,30047713,N,Y,46.8981227,-114.1377972
MLS Listing,,Townhouse,7 Brookside Way,Missoula,MT,59802,799900,4,2.5,Brookside Estates,3632,4000,2003,91,220,550,Active,August-3-2025 01:00 PM,August-3-2025 03:00 PM,https://www.redfin.com/MT/Missoula/7-Brookside-Way-59802/home/135091217,MRMLS,30047763,N,Y,46.897331,-113.9664385
MLS Listing,,Vacant Land,9390 Barons Ct,Missoula,MT,59808,425000,,,Missoula,,179031,,91,,,Active,,,https://www.redfin.com/MT/Missoula/9390-Baron-s-Ct-59808/home/195591487,MRMLS,30047623,N,Y,46.9794075,-114.1273579
MLS Listing,,Multi-Family (2-4 Unit),929 S Johnson St,Missoula,MT,59801,444000,4,2.0,Missoula,1680,4661,2004,91,264,,Active,,,https://www.redfin.com/MT/Missoula/929-S-Johnson-St-59801/home/147779713,MRMLS,30047684,N,Y,46.8628646,-114.0287888
MLS Listing,,Single Family Residential,438 Jefferson St,Missoula,MT,59802,649900,2,2.5,Missoula,1312,3600,1910,91,495,,Active,,,https://www.redfin.com/MT/Missoula/438-Jefferson-St-59802/home/135461392,MRMLS,30047529,N,Y,46.8721003,-113.9869866
MLS Listing,,Single Family Residential,10363 Conterra Dr Lot 104,Missoula,MT,59808,639990,3,2.0,Missoula,1800,8099,2025,91,356,20,Active,,,https://www.redfin.com/MT/Missoula/10363-Conterra-DR-59808/unit-104/home/195587759,MRMLS,30047792,N,Y,46.96162268,-114.14151536
MLS Listing,,Single Family Residential,9475 Royal Coachman Dr Lot CL4,Missoula,MT,59808,1115000,2,2.5,Freestone,1585,9583,2025,92,703,100,Active,,,https://www.redfin.com/MT/Missoula/9475-Royal-Coachman-Dr-59808/unit-CL4/home/195582524,MRMLS,30047746,N,Y,46.8981227,-114.1377972
MLS Listing,,Townhouse,4112 A Geary Ln,Missoula,MT,59808,479900,2,2.0,Hellgate Meadows,1200,3833,2005,92,400,36,Active,,,https://www.redfin.com/MT/Missoula/4112-Geary-Ln-59808/unit-A/home/135503975,MRMLS,30047382,N,Y,46.8900386,-114.0498964
MLS Listing,,Townhouse,2773 Ruger Rd,Missoula,MT,59808,505000,3,2.5,Remington Flats,1669,3914,2025,92,303,,Active,,,https://www.redfin.com/MT/Missoula/2773-Ruger-RD-Unknown/home/195155237,MRMLS,30047663,N,Y,46.89690207,-114.07143192
MLS Listing,,Townhouse,2703 Riata Rd,Missoula,MT,59808,517500,3,2.5,Remington Flats,1571,3193,2025,92,329,,Active,,,https://www.redfin.com/MT/Missoula/2703-Riata-Rd-59808/home/195580257,MRMLS,30047661,N,Y,46.896469,-114.071825
MLS Listing,,Single Family Residential,2603 Quinn Ct,Missoula,MT,59804,495000,3,2.0,The Grove,1336,7057,2001,92,371,30,Active,,,https://www.redfin.com/MT/Missoula/2603-Quinn-Ct-59804/home/135491274,MRMLS,30047365,N,Y,46.8710315,-114.0424328
MLS Listing,,Vacant Land,NHN O'keefe Creek Blvd Lot 3,Missoula,MT,59808,174900,,,O'Keefe View Estates,,88427,,92,,,Active,,,https://www.redfin.com/MT/Unknown/NHN-O-Keefe-Creek-Blvd-59808/unit-3/home/195579318,MRMLS,30047576,N,Y,46.98014418,-114.14405373
MLS Listing,,Vacant Land,NHN O'keefe Creek Blvd Lot 2,Missoula,MT,59808,164900,,,O'Keefe View Estates,,87556,,92,,,Active,,,https://www.redfin.com/MT/Unknown/NHN-O-Keefe-Creek-Blvd-59808/unit-2/home/195579317,MRMLS,30047579,N,Y,46.979387,-114.1442731
MLS Listing,,Townhouse,1410 S 5th St W,Missoula,MT,59801,419000,2,1.5,Missoula,900,1002,2022,92,466,,Active,,,https://www.redfin.com/MT/Missoula/1410-S-5th-St-W-59801/home/195577831,MRMLS,30047689,N,Y,46.8652714,-114.0176412
MLS Listing,,Condo/Co-op,1623 Clements Rd,Missoula,MT,59804,351000,2,2.0,Missoula,1200,,1966,92,293,483,Active,,,https://www.redfin.com/MT/Missoula/1623-Clements-Rd-59804/home/135286959,MRMLS,30047680,N,Y,46.8549729,-114.0819794
MLS Listing,,Single Family Residential,2214 S 12th St W,Missoula,MT,59801,599900,3,3.0,Missoula,1860,3541,2024,93,323,,Active,,,https://www.redfin.com/MT/Missoula/2214-S-12th-St-W-59801/home/186985611,MRMLS,30047589,N,Y,46.8587491,-114.0330118
MLS Listing,,Single Family Residential,9294 Trigger Ct,Missoula,MT,59808,1600000,4,3.0,Missoula,3446,127195,2016,93,464,,Active,,,https://www.redfin.com/MT/Missoula/9294-Trigger-Ct-59808/home/168931240,MRMLS,30046999,N,Y,46.9804479,-114.1289008
MLS Listing,,Vacant Land,2705 Emery Pl,Missoula,MT,59804,235000,,,Missoula,,9278,,94,,14,Active,,,https://www.redfin.com/MT/Missoula/2705-Emery-Pl-59804/home/165643142,MRMLS,30047525,N,Y,46.8691888,-114.0448642
MLS Listing,,Single Family Residential,12050 US Hwy 93 N,Missoula,MT,59808,615000,3,2.5,Missoula,2976,39639,1986,94,207,,Active,,,https://www.redfin.com/MT/Missoula/12050-U-S-Highway-93-N-59808/home/195552957,MRMLS,30047490,N,Y,46.986915,-114.123469
MLS Listing,,Single Family Residential,430 Kensington Ave,Missoula,MT,59801,734900,3,3.5,Glenwood Park,2952,8407,1961,95,249,,Active,,,https://www.redfin.com/MT/Missoula/430-Kensington-Ave-59801/home/135152867,MRMLS,30047441,N,Y,46.8535652,-114.0062262
MLS Listing,,Single Family Residential,7850 Stegner Dr,Missoula,MT,59808,985000,3,4.0,Missoula,2144,102802,1978,95,459,,Active,August-3-2025 01:30 PM,August-3-2025 03:30 PM,https://www.redfin.com/MT/Missoula/7850-Stegner-Dr-59808/home/135184310,MRMLS,30047326,N,Y,46.8860438,-114.1059399
MLS Listing,,Vacant Land,NHN Hillview Way,Missoula,MT,59803,1150000,,,Missoula,,1145628,,95,,,Active,,,https://www.redfin.com/MT/Missoula/Nhn-Hillview-Way-59803/home/186981267,MRMLS,30047418,N,Y,46.8289929,-114.02688503
MLS Listing,,Single Family Residential,1312 Bridgecourt Way,Missoula,MT,59801,445000,3,1.5,Missoula,1268,2091,1997,95,351,50,Active,,,https://www.redfin.com/MT/Missoula/1312-Bridgecourt-Way-59801/home/135482946,MRMLS,30046720,N,Y,46.8591068,-114.037025
MLS Listing,,Single Family Residential,528 S 3rd St W,Missoula,MT,59801,665000,4,2.0,Missoula,1707,6490,1920,98,390,,Active,,,https://www.redfin.com/MT/Missoula/528-S-3rd-St-W-59801/home/135491958,MRMLS,30047317,N,Y,46.8672224,-114.0044121
MLS Listing,,Vacant Land,12564 Loiselle Ln,Missoula,MT,59808,875000,,,Missoula,,3865950,,98,,,Active,,,https://www.redfin.com/MT/Missoula/12564-Loiselle-Ln-59808/home/184732728,MRMLS,30047289,N,Y,46.9811959,-114.1811
MLS Listing,,Condo/Co-op,2402-2418 Leo Ave,Missoula,MT,59808,4590000,36,36.0,Missoula,16568,49527,2000,98,277,,Active,,,https://www.redfin.com/MT/Missoula/2402-Leo-Ave-59808/home/195512742,MRMLS,30047263,N,Y,46.8896993,-114.0221486
MLS Listing,,Single Family Residential,"10695 Royal Coachman, Cl1 Dr",Missoula,MT,59808,1527000,2,2.5,Missoula,2509,13939,2025,99,609,100,Active,,,https://www.redfin.com/MT/Missoula/10695-Royal-Coachman-Dr-59808/home/181309354,MRMLS,30047094,N,Y,46.8928748,-114.1393836
MLS Listing,,Single Family Residential,360 White House Ln,Bonner,MT,59823,499900,3,1.5,Bonner,2011,24567,1925,99,249,90,Active,,,https://www.redfin.com/MT/Bonner/360-White-House-Ln-59823/home/187254999,MRMLS,30047154,N,Y,46.873937,-113.865611
MLS Listing,,Single Family Residential,10314 Conterra Dr,Missoula,MT,59808,584990,3,2.0,Missoula,1574,7717,2025,100,372,20,Active,,,https://www.redfin.com/MT/Missoula/10314-Conterra-DR-59808/home/195438184,MRMLS,30047137,N,Y,46.96226045,-114.14137944
MLS Listing,,Single Family Residential,203 High Park Way,Missoula,MT,59803,575000,4,2.0,Missoula,2144,14288,1975,101,268,,Active,,,https://www.redfin.com/MT/Missoula/203-High-Park-Way-59803/home/135161127,MRMLS,30039698,N,Y,46.8322483,-114.0072869
MLS Listing,,Single Family Residential,8876 Santa Anita Rd,Missoula,MT,59808,689990,3,2.0,Missoula,1800,8791,2025,101,383,20,Active,,,https://www.redfin.com/MT/Missoula/8876-Santa-Anita-RD-59808/home/195477974,MRMLS,30046984,N,Y,46.95708465576172,-114.12068176269531
MLS Listing,,Multi-Family (2-4 Unit),1419 S 2nd St W,Missoula,MT,59802,825000,4,4.0,Missoula,,3175,2023,102,,,Active,,,https://www.redfin.com/MT/Missoula/1419-S-2nd-St-W-59801/home/195472340,MRMLS,30046919,N,Y,46.8675836,-114.017941
MLS Listing,,Multi-Family (2-4 Unit),2515 and 2517 S 3rd St W,Missoula,MT,59804,1100000,,10.0,Missoula,1612,13601,1977,102,682,,Active,,,https://www.redfin.com/MT/Missoula/2515-S-3rd-St-W-59804/home/147781168,MRMLS,30046459,N,Y,46.8665795,-114.0407535
MLS Listing,,Multi-Family (2-4 Unit),2511 and 2513 S 3rd St W,Missoula,MT,59804,1100000,,11.0,Missoula,1612,13024,1977,102,682,,Active,,,https://www.redfin.com/MT/Missoula/2511-S-3rd-St-W-59804/home/147781169,MRMLS,30046403,N,Y,46.8664071,-114.0403671
MLS Listing,,Single Family Residential,1136 Van Buren St,Missoula,MT,59802,599000,4,2.0,Missoula,1880,8100,1950,102,319,,Active,,,https://www.redfin.com/MT/Missoula/1136-Van-Buren-St-59802/home/135134488,MRMLS,30046904,N,Y,46.874052,-113.9756933
MLS Listing,,Single Family Residential,332 E Central Ave,Missoula,MT,59801,825000,4,2.0,Missoula,1872,5793,1930,102,441,,Active,,,https://www.redfin.com/MT/Missoula/332-E-Central-Ave-59801/home/135393983,MRMLS,30046878,N,Y,46.8508685,-113.9927674
MLS Listing,,Single Family Residential,5055 Jordan Ct,Missoula,MT,59803,679900,3,2.0,Missoula,1910,22477,1999,105,356,8,Active,August-3-2025 01:00 PM,August-3-2025 03:00 PM,https://www.redfin.com/MT/Missoula/5055-Jordan-Ct-59803/home/135367647,MRMLS,30046765,N,Y,46.8155496,-114.0688773
MLS Listing,,Single Family Residential,7855 Parkwood Dr,Missoula,MT,59808,950000,4,4.0,Missoula,4434,30099,1996,105,214,10,Active,August-3-2025 02:00 PM,August-3-2025 04:00 PM,https://www.redfin.com/MT/Missoula/7855-Parkwood-Dr-59808/home/135332732,MRMLS,30046650,N,Y,46.9457198,-114.0119135
