SALE TYPE,SOLD DATE,PROPERTY TYPE,ADDRESS,CITY,STATE OR PROVINCE,ZIP OR POSTAL CODE,PRICE,BEDS,BATHS,LOCATION,SQUARE FEET,LOT SIZE,YEAR BUILT,DAYS ON MARKET,$/SQUARE FEET,HOA/MONTH,STATUS,NEXT OPEN HOUSE START TIME,NEXT OPEN HOUSE END TIME,URL (SEE https://www.redfin.com/buy-a-home/comparative-market-analysis FOR INFO ON PRICING),SOURCE,MLS#,FAVORITE,INTERESTED,LATITUDE,LONGITUDE
"In accordance with local MLS rules, some MLS listings are not included in the download"
MLS Listing,,Single Family Residential,1735 S 25 St,Lincoln,NE,68502,375000,7,2.5,7HCN131 - Mt Emerald Historic District,3310,8712,1920,1,113,,Active,,,https://www.redfin.com/NE/Lincoln/1735-S-25th-St-68502/home/134387283,GPRMLS,22517675,N,Y,40.7946391,-96.6862044
MLS Listing,,Vacant Land,8330 Colby Ct,Lincoln,NE,68505,1000000,,,East Central Lincoln,,103566,,1,,,Active,,,https://www.redfin.com/NE/Lincoln/8330-Colby-Ct-68505/home/195741883,GPRMLS,22521616,N,Y,40.8335415,-96.6065186
MLS Listing,,Single Family Residential,6928 Ballard Ave,Lincoln,NE,68507,164900,2,1.0,Havelock - Low,888,6970,1915,1,186,,Active,,,https://www.redfin.com/NE/Lincoln/6928-Ballard-Ave-68507/home/134484829,GPRMLS,22521614,N,Y,40.8561583,-96.6257608
MLS Listing,,Single Family Residential,8700 Honeybee Ln,Lincoln,NE,68526,849900,5,3.0,Jensen View,3633,9123,2025,1,234,13,Active,August-3-2025 02:00 PM,August-3-2025 03:00 PM,https://www.redfin.com/NE/Lincoln/8700-Honeybee-Ln-68526/home/195781259,GPRMLS,22521615,N,Y,40.7182588,-96.6016991
MLS Listing,,Single Family Residential,1150 Lake St,Lincoln,NE,68502,159900,1,1.0,Original Plat,528,5227,1946,1,303,,Active,,,https://www.redfin.com/NE/Lincoln/1150-Lake-St-68502/home/135375578,GPRMLS,22521613,N,Y,40.7882393,-96.704128
MLS Listing,,Townhouse,5730 Brickmark Pl,Lincoln,NE,68516,599900,4,3.0,Alex Lane Townhomes Addition,2636,6486,2025,1,228,,Active,,,https://www.redfin.com/NE/Lincoln/5730-Brickmark-Ln-68516/home/187791283,GPRMLS,22521589,N,Y,40.7470121,-96.6421375
MLS Listing,,Townhouse,5724 Brickmark Pl,Lincoln,NE,68516,579900,3,3.0,Alex Lane Townhomes Addition,2632,4284,2025,1,220,,Active,,,https://www.redfin.com/NE/Lincoln/5724-Brickmark-Ln-68516/home/196774270,GPRMLS,22521584,N,Y,40.7470141,-96.6422928
MLS Listing,,Single Family Residential,8901 Appaloosa Ln,Lincoln,NE,68520,869975,5,4.0,WHITE HORSE 3RD ADDITION,3684,10400,2025,1,236,13,Active,August-3-2025 01:00 PM,August-3-2025 02:30 PM,https://www.redfin.com/NE/Lincoln/8901-Appaloosa-Ln-68520/home/182595507,GPRMLS,22521567,N,Y,40.8024847,-96.5995753
MLS Listing,,Single Family Residential,8909 Appaloosa Ln,Lincoln,NE,68520,859975,5,3.5,White Horse,3617,12350,2025,1,238,13,Active,August-3-2025 01:00 PM,August-3-2025 02:30 PM,https://www.redfin.com/NE/Lincoln/8909-Appaloosa-Ln-68520/home/182595506,GPRMLS,22521565,N,Y,40.802588,-96.599258
MLS Listing,,Single Family Residential,1401 S 58 St,Lincoln,NE,68506,259000,2,1.5,Park Manor North,1368,8712,1955,1,189,,Active,August-3-2025 01:00 PM,August-3-2025 03:00 PM,https://www.redfin.com/NE/Lincoln/1401-S-58th-St-68506/home/135197489,GPRMLS,22521549,N,Y,40.7986699,-96.6412422
MLS Listing,,Single Family Residential,2767 California Ct,Lincoln,NE,68510,184000,2,1.0,Elliot - Low,933,2614,1920,1,197,,Active,August-3-2025 01:00 PM,August-3-2025 02:30 PM,https://www.redfin.com/NE/Lincoln/2767-California-Ct-68510/home/134358585,GPRMLS,22513431,N,Y,40.805359,-96.6806447
MLS Listing,,Single Family Residential,4000 Worthington Ave,Lincoln,NE,68502,220000,3,2.0,SOUTH HILLS,1866,6619,1953,1,118,,Active,,,https://www.redfin.com/NE/Lincoln/4000-Worthington-Ave-68502/home/134334146,GPRMLS,22518964,N,Y,40.7734897,-96.6929677
MLS Listing,,Single Family Residential,2771 S 34th St,Lincoln,NE,68506,229900,2,2.0,Peterson's Subdivision,1228,7012,1946,1,187,,Active,August-3-2025 01:00 PM,August-3-2025 02:30 PM,https://www.redfin.com/NE/Lincoln/2771-S-34th-St-68506/home/135186181,GPRMLS,22520849,N,Y,40.7848373,-96.6719011
MLS Listing,,Townhouse,2201 Winding Way,Lincoln,NE,68506,287000,3,3.0,TH-Lincoln Meadows,2030,2614,1978,1,141,166,Active,,,https://www.redfin.com/NE/Lincoln/2201-Winding-Way-68506/home/135280699,GPRMLS,22513636,N,Y,40.7907174,-96.6332137
MLS Listing,,Single Family Residential,3430 N 74th St,Lincoln,NE,68507,319900,3,3.0,Golf Park / Hallcrest,2128,6534,1978,1,150,,Active,August-1-2025 05:30 PM,August-1-2025 07:30 PM,https://www.redfin.com/NE/Lincoln/3430-N-74th-St-68507/home/135071112,GPRMLS,22517445,N,Y,40.8468491,-96.6208733
MLS Listing,,Single Family Residential,960 Barker Ln,Lincoln,NE,68521,325000,3,2.5,Hartland's Garden Valley,1253,7405,2018,1,259,32,Active,,,https://www.redfin.com/NE/Lincoln/960-Barker-Ln-68521/home/144070872,GPRMLS,22520054,N,Y,40.8772573,-96.7062831
MLS Listing,,Single Family Residential,928 Clark St,Lincoln,NE,68510,239999,3,2.0,Woods Park,1284,6534,1947,1,187,,Active,,,https://www.redfin.com/NE/Lincoln/928-Clark-Ave-68510/home/134621086,GPRMLS,22519889,N,Y,40.803801,-96.666485
MLS Listing,,Single Family Residential,6301 SW 34 Ct,Lincoln,NE,68523,523000,4,1.0,09-17-v2OD / SILVER BELL?,1736,197032,1900,1,301,,Active,August-2-2025 01:00 PM,August-2-2025 02:00 PM,https://www.redfin.com/NE/Lincoln/6301-SW-34th-St-68523/home/134705348,GPRMLS,22521537,N,Y,40.7490878,-96.7705963
MLS Listing,,Single Family Residential,857 W Alameda St,Lincoln,NE,68523,449230,4,3.5,SW Village,2638,7616,2025,1,170,33,Active,,,https://www.redfin.com/NE/Lincoln/857-W-Alameda-ST-68523/home/196757296,GPRMLS,22521526,N,Y,40.7306409,-96.7601057
MLS Listing,,Single Family Residential,833 W El Alameda St,Lincoln,NE,68523,494980,5,3.0,SW Village,2720,9600,2025,1,182,33,Active,,,https://www.redfin.com/NE/Lincoln/833-W-El-Alameda-St-68523/home/196756023,GPRMLS,22521512,N,Y,40.7528722,-96.7337587
MLS Listing,,Multi-Family (2-4 Unit),3821 Saint Paul Ave,Lincoln,NE,68504,390000,7,4.0,North Central Lincoln,3158,7810,1972,1,123,,Active,,,https://www.redfin.com/NE/Lincoln/3821-Saint-Paul-Ave-68504/home/164665923,GPRMLS,22521509,N,Y,40.839068,-96.6661557
MLS Listing,,Single Family Residential,7331 Whitewater Ln,Lincoln,NE,68521,380000,4,5.0,Stone Bridge Creek,2470,7405,2006,1,154,8,Active,August-3-2025 01:00 PM,August-3-2025 02:00 PM,https://www.redfin.com/NE/Lincoln/7331-Whitewater-Ln-68521/home/134562316,GPRMLS,22521506,N,Y,40.8851206,-96.7005112
MLS Listing,,Single Family Residential,2429 NW 57th St,Lincoln,NE,68524,310000,4,3.0,Olympic Heights West,1835,7110,2020,1,169,30,Active,August-1-2025 05:00 PM,August-1-2025 06:30 PM,https://www.redfin.com/NE/Lincoln/2429-NW-57th-St-68524/home/169992630,GPRMLS,22515561,N,Y,40.837341,-96.797557
MLS Listing,,Single Family Residential,4831 N 25th St,Lincoln,NE,68521,315000,3,2.0,Bicentennial Estates,2106,6000,1991,1,150,8,Active,August-1-2025 05:00 PM,August-1-2025 06:30 PM,https://www.redfin.com/NE/Lincoln/4831-N-25th-St-68521/home/134274016,GPRMLS,22521482,N,Y,40.8595251,-96.6851778
MLS Listing,,Multi-Family (5+ Unit),405 N 25th St,Lincoln,NE,68503,330000,,5.0,EDDYS,,,1900,1,,,Active,,,https://www.redfin.com/NE/Lincoln/405-N-25th-St-68503/home/134706096,GPRMLS,22521479,N,Y,40.8171252,-96.6854906
MLS Listing,,Single Family Residential,901 S 24th St,Lincoln,NE,68510,151900,1,1.0,Near South,981,3990,1900,1,155,,Active,,,https://www.redfin.com/NE/Lincoln/901-S-24th-St-68510/home/134948458,GPRMLS,22521463,N,Y,40.8045731,-96.6869006
MLS Listing,,Single Family Residential,9901 Sweet Water Rd,Lincoln,NE,68527,514900,4,3.0,Waterford Estates North,2945,10890,2016,1,175,23,Active,,,https://www.redfin.com/NE/Lincoln/9901-Sweet-Water-Rd-68527/home/136080361,GPRMLS,22521459,N,Y,40.8235164,-96.5872144
MLS Listing,,Single Family Residential,7610 N 50th St,Lincoln,NE,68514,321260,3,2.5,Northbank Preserve,1150,6595,2025,1,279,10,Active,,,https://www.redfin.com/NE/Lincoln/7610-N-50th-ST-68514/home/193804990,GPRMLS,22521455,N,Y,40.9644088,-96.6370893
MLS Listing,,Vacant Land,8833 Grey Hawk Ct,Lincoln,NE,68526,189000,,,Boulder Ridge,,13296,,1,,13,Active,,,https://www.redfin.com/NE/Lincoln/8833-Greyhawk-Ct-68526/home/169774468,GPRMLS,22521456,N,Y,40.7446794,-96.5992296
MLS Listing,,Single Family Residential,4911 S 76th St,Lincoln,NE,68516,469000,5,3.0,Edenton North,3574,9685,2004,1,131,4,Active,August-2-2025 01:00 PM,August-2-2025 03:00 PM,https://www.redfin.com/NE/Lincoln/4911-S-76th-St-68516/home/134687829,GPRMLS,22518013,N,Y,40.7643546,-96.6176558
MLS Listing,,Condo/Co-op,1540 N Cotner Blvd Unit A7,Lincoln,NE,68505,98500,1,1.0,Cotner Center Condominium,731,436,1974,1,135,315,Active,,,https://www.redfin.com/NE/Lincoln/1540-N-Cotner-Blvd-68505/unit-A7/home/135198958,GPRMLS,22521435,N,Y,40.8282264,-96.6297521
MLS Listing,,Townhouse,2601 Bishop Ln #15,Lincoln,NE,68502,357000,2,2.0,Bishop Square,1636,6970,1974,1,218,380,Active,,,https://www.redfin.com/NE/Lincoln/2601-S-Bishop-Hts-68502/unit-15/home/134976816,GPRMLS,22521429,N,Y,40.7727829,-96.6836941
MLS Listing,,Townhouse,7720 Viburnum Dr,Lincoln,NE,68516,595000,4,2.5,THE PRESERVE ON ANTELOPE CREEK 20TH ADDI,3066,5807,2016,1,194,175,Active,August-2-2025 01:00 PM,August-2-2025 02:30 PM,https://www.redfin.com/NE/Lincoln/7720-Viburnum-Dr-68516/home/136087596,GPRMLS,22521427,N,Y,40.768274,-96.614472
MLS Listing,,Condo/Co-op,3001 S 51st Street Ct #440,Lincoln,NE,68506,159000,2,1.0,Van Dorn Villa Condominium,935,,1986,1,170,455,Active,,,https://www.redfin.com/NE/Lincoln/3001-S-51st-Street-Ct-68506/unit-440/home/135394373,GPRMLS,22521423,N,Y,40.782984,-96.651712
MLS Listing,,Condo/Co-op,4359 Normal Blvd #30,Lincoln,NE,68506,215000,2,1.0,Eagle Hollow,995,1742,1985,1,216,285,Active,,,https://www.redfin.com/NE/Lincoln/4359-Normal-Blvd-68506/unit-30/home/135315184,GPRMLS,22521418,N,Y,40.7881288,-96.6591765
MLS Listing,,Townhouse,4029 N 18th St,Lincoln,NE,68521,240000,3,2.5,Hunters Pointe,1738,5040,2007,1,138,115,Active,,,https://www.redfin.com/NE/Lincoln/4029-N-18th-St-68521/home/134796930,GPRMLS,22521417,N,Y,40.8518385,-96.6960566
MLS Listing,,Single Family Residential,5746 Lenox Ave,Lincoln,NE,68510,315000,3,3.0,Taylor Park,2414,9834,1961,1,130,,Active,August-2-2025 03:00 PM,August-2-2025 05:00 PM,https://www.redfin.com/NE/Lincoln/5746-Lenox-Ave-68510/home/135432470,GPRMLS,22521413,N,Y,40.8108815,-96.6404712
MLS Listing,,Single Family Residential,5410 Brandywine Cir,Lincoln,NE,68516,375000,4,3.0,Tierra/Briarhurst West,2372,7405,1990,1,158,,Active,,,https://www.redfin.com/NE/Lincoln/5410-Brandywine-Cir-68516/home/135336051,GPRMLS,22521412,N,Y,40.7597682,-96.6686962
MLS Listing,,Single Family Residential,7533 Sherman St,Lincoln,NE,68506,380000,4,3.0,Fox Hollow Addition,2657,9148,1978,1,143,,Active,August-3-2025 01:00 PM,August-3-2025 02:00 PM,https://www.redfin.com/NE/Lincoln/7533-Sherman-St-68506/home/134403286,GPRMLS,22521405,N,Y,40.778419,-96.6170287
MLS Listing,,Single Family Residential,2640 NW 49th St,Lincoln,NE,68524,240000,3,1.0,OLYMPIC HEIGHTS ADDITION,1210,8329,1981,1,198,,Active,August-2-2025 10:00 AM,August-2-2025 11:00 AM,https://www.redfin.com/NE/Lincoln/2640-NW-49th-St-68524/home/134501707,GPRMLS,22521403,N,Y,40.8398589,-96.7880242
MLS Listing,,Single Family Residential,5909 Minter Ln,Lincoln,NE,68516,431000,3,3.0,Village Gardens,2575,6534,2014,1,167,100,Active,,,https://www.redfin.com/NE/Lincoln/5909-Minter-Ln-68516/home/135294381,GPRMLS,22521398,N,Y,40.7374082,-96.6402653
MLS Listing,,Single Family Residential,7401 Greenwood Ct,Lincoln,NE,68507,249900,2,1.5,GOLF PARK FIRST ADDITION,1324,6534,1979,1,189,,Active,,,https://www.redfin.com/NE/Lincoln/7401-Greenwood-Ct-68507/home/134739665,GPRMLS,22521395,N,Y,40.8430569,-96.6205967
MLS Listing,,Single Family Residential,5946 Elkcrest Dr,Lincoln,NE,68516,325000,4,2.0,Colonial Hills,1864,11417,1974,1,174,,Active,,,https://www.redfin.com/NE/Lincoln/5946-Elkcrest-Dr-68516/home/135043827,GPRMLS,22521389,N,Y,40.7669246,-96.6383054
MLS Listing,,Single Family Residential,503 N 106th St,Lincoln,NE,68527,640000,5,3.5,Dominion Stevens Creek,3324,13939,2020,2,193,7,Active,August-3-2025 01:00 PM,August-3-2025 02:00 PM,https://www.redfin.com/NE/Lincoln/503-N-106th-St-68527/home/169777128,GPRMLS,22520537,N,Y,40.8179535,-96.5755617
MLS Listing,,Single Family Residential,2330 Potter St,Lincoln,NE,68503,205000,3,1.0,Dayton,992,6344,1991,2,207,,Active,,,https://www.redfin.com/NE/Lincoln/2330-Potter-St-68503/home/135154148,GPRMLS,22520078,N,Y,40.8300547,-96.6860687
MLS Listing,,Single Family Residential,1744 W Set Aside Cir,Lincoln,NE,68523,875000,4,3.5,Cardwell Reserve,3357,14578,2008,2,261,250,Active,August-2-2025 02:00 PM,August-2-2025 03:30 PM,https://www.redfin.com/NE/Lincoln/1744-W-Set-Aside-Cir-68523/home/135228087,GPRMLS,22519693,N,Y,40.7347684,-96.7481865
MLS Listing,,Single Family Residential,636 W Joel St,Lincoln,NE,68521,274900,3,1.5,Highlands North,1702,8276,1979,2,162,,Active,August-2-2025 01:00 PM,August-2-2025 03:00 PM,https://www.redfin.com/NE/Lincoln/636-W-Joel-St-68521/home/134312668,GPRMLS,22521195,N,Y,40.8737711,-96.7300476
MLS Listing,,Single Family Residential,2833 SW 80th St,Lincoln,NE,68532,740000,5,4.0,Meadow View North,4353,45000,2005,2,170,30,Active,August-2-2025 01:00 PM,August-2-2025 02:30 PM,https://www.redfin.com/NE/Lincoln/2833-SW-80th-St-68532/home/134546682,GPRMLS,22519270,N,Y,40.7838928,-96.8301203
MLS Listing,,Single Family Residential,2225 Stockwell St,Lincoln,NE,68502,329900,4,2.5,South Hills,1901,8558,1956,2,174,,Active,,,https://www.redfin.com/NE/Lincoln/2225-Stockwell-St-68502/home/135001987,GPRMLS,22515604,N,Y,40.775586,-96.6893163
MLS Listing,,Single Family Residential,507 N 105th St,Lincoln,NE,68527,665000,5,3.5,Dominion at Stevens Creek,3266,15359,2021,2,204,7,Active,August-3-2025 01:00 PM,August-3-2025 02:00 PM,https://www.redfin.com/NE/Lincoln/507-N-105th-St-68527/home/169777114,GPRMLS,22520075,N,Y,40.8184016,-96.5766127
MLS Listing,,Single Family Residential,8025 Talbot Trl,Lincoln,NE,68506,379900,4,2.0,Trendwood,1956,10019,1967,2,194,,Active,,,https://www.redfin.com/NE/Lincoln/8025-Talbot-Trl-68506/home/134306502,GPRMLS,22521386,N,Y,40.797369,-96.6109139
MLS Listing,,Single Family Residential,2650 Woods Blvd,Lincoln,NE,68502,310000,3,2.0,Country Club Manor,1196,9583,1960,2,259,,Active,,,https://www.redfin.com/NE/Lincoln/2650-Woods-Blvd-68502/home/135029727,GPRMLS,22521379,N,Y,40.7724504,-96.6830676
MLS Listing,,Townhouse,10327 Wayborough Ln,Lincoln,NE,68527,398000,3,3.0,Waterford Townhomes,2363,4433,2021,2,168,150,Active,,,https://www.redfin.com/NE/Lincoln/10327-Wayborough-Ln-68527/home/176367096,GPRMLS,22521378,N,Y,40.8139872,-96.579581
MLS Listing,,Single Family Residential,427 N 24th St,Lincoln,NE,68503,219900,4,2.0,Malone,1579,4792,1886,2,139,,Active,August-2-2025 01:00 PM,August-2-2025 02:00 PM,https://www.redfin.com/NE/Lincoln/427-N-24th-St-68503/home/135082906,GPRMLS,22521368,N,Y,40.8174967,-96.6868901
MLS Listing,,Single Family Residential,3741 H St,Lincoln,NE,68510,224900,2,2.0,Woods Park East,1713,7645,1941,2,131,,Active,,,https://www.redfin.com/NE/Lincoln/3741-H-St-68510/home/135344963,GPRMLS,22521366,N,Y,40.8068951,-96.6671717
MLS Listing,,Single Family Residential,2510 S 9th St,Lincoln,NE,68502,185000,2,1.0,Lincoln,1050,6970,1900,2,176,,Active,,,https://www.redfin.com/NE/Lincoln/2510-S-9th-St-68502/home/134345520,GPRMLS,22521364,N,Y,40.7879773,-96.7083222
MLS Listing,,Single Family Residential,3427 A St,Lincoln,NE,68510,195000,3,2.0,Antelope Creek,1606,6970,1929,2,121,,Active,,,https://www.redfin.com/NE/Lincoln/3427-A-St-68510/home/134627415,GPRMLS,22521361,N,Y,40.7987562,-96.6710074
MLS Listing,,Townhouse,1944 Flagstone Rd,Lincoln,NE,68521-5856,330000,3,2.5,Stone Bridge Creek,1732,12057,2025,2,191,,Active,,,https://www.redfin.com/NE/Lincoln/1944-Flagstone-Rd-68521/home/196698604,GPRMLS,22518300,N,Y,40.8851858,-96.6931762
MLS Listing,,Townhouse,1940 Flagstone Rd,Lincoln,NE,68521-5856,320000,3,2.5,Stone Bridge Creek,1732,3415,2025,2,185,,Active,,,https://www.redfin.com/NE/Lincoln/1940-Flagstone-Rd-68521/home/196698603,GPRMLS,22518298,N,Y,40.8851829,-96.6932382
MLS Listing,,Townhouse,3241 Mickaela Dr,Lincoln,NE,68521,254900,4,3.0,TH-NW Territories,1788,4792,1997,2,143,4,Active,August-3-2025 01:00 PM,August-3-2025 03:00 PM,https://www.redfin.com/NE/Lincoln/3241-Mickaela-Ln-68521/home/134394104,GPRMLS,22521358,N,Y,40.8466163,-96.7307233
MLS Listing,,Single Family Residential,602 S 40 St,Lincoln,NE,68510,205000,2,2.0,Witherbee Gardens,834,6534,1948,2,246,,Active,,,https://www.redfin.com/NE/Lincoln/602-S-40th-St-68510/home/134304806,GPRMLS,22521355,N,Y,40.807862,-96.6630292
MLS Listing,,Single Family Residential,6215 Randolph St,Lincoln,NE,68510,295000,3,2.0,Eastridge,1464,9450,1952,2,202,,Active,August-3-2025 01:00 PM,August-3-2025 02:30 PM,https://www.redfin.com/NE/Lincoln/6215-Randolph-St-68510/home/134353563,GPRMLS,22521349,N,Y,40.807238,-96.6356649
MLS Listing,,Townhouse,1131 Furnas Ave,Lincoln,NE,68521,195000,3,2.5,Belmont,1335,5883,2025,2,146,,Active,,,https://www.redfin.com/NE/Lincoln/1131-Furnas-Ave-68521/home/134414279,GPRMLS,22521331,N,Y,40.840836,-96.70497
MLS Listing,,Single Family Residential,2802 S 12th St,Lincoln,NE,68502,210000,2,1.0,Garfield Park - Low,1645,6098,1926,2,128,,Active,August-3-2025 01:00 PM,August-3-2025 03:00 PM,https://www.redfin.com/NE/Lincoln/2802-S-12th-St-68502/home/135146541,GPRMLS,22521322,N,Y,40.7843099,-96.7042599
MLS Listing,,Townhouse,7949 Ponce Dr,Lincoln,NE,68516,539000,4,3.0,The Woodlands at Yankee Hill,3105,7338,2025,2,174,4,Active,,,https://www.redfin.com/NE/Lincoln/7949-Ponce-Dr-68516/home/195260764,GPRMLS,22521321,N,Y,40.7182567,-96.610462
MLS Listing,,Single Family Residential,2934 S 13th St,Lincoln,NE,68502,130000,2,1.0,Garfield Park - Low,768,4100,1929,2,169,,Active,,,https://www.redfin.com/NE/Lincoln/2934-S-13th-St-68502/home/135361515,GPRMLS,22521318,N,Y,40.7828359,-96.7025908
MLS Listing,,Condo/Co-op,3001 S 51 Street Court,Lincoln,NE,68506,150000,2,1.0,Van Dorn Villa Condominium,935,,1986,2,160,37,Active,,,https://www.redfin.com/NE/Lincoln/3001-S-51st-Street-Ct-68506/home/135397729,GPRMLS,22521310,N,Y,40.782522,-96.653127
MLS Listing,,Single Family Residential,4730 Hillside St,Lincoln,NE,68506,245000,3,1.5,PESHAS SUBDIVISION,1330,7100,1920,2,184,,Active,,,https://www.redfin.com/NE/Lincoln/4730-Hillside-St-68506/home/134771167,GPRMLS,22521303,N,Y,40.7782492,-96.6545724
MLS Listing,,Townhouse,6541 S 58th St,Lincoln,NE,68516,268000,3,2.5,Joshuas Glen,1739,3913,2015,2,154,140,Active,,,https://www.redfin.com/NE/Lincoln/6541-S-58th-St-68516/home/136071448,GPRMLS,22521301,N,Y,40.7460292,-96.6411597
MLS Listing,,Single Family Residential,1800 Morningside Dr,Lincoln,NE,68506,295900,3,1.5,Park Manor South,1725,10897,1956,2,172,,Active,August-2-2025 11:00 AM,August-2-2025 12:30 PM,https://www.redfin.com/NE/Lincoln/1800-Morningside-Dr-68506/home/134837243,GPRMLS,22521298,N,Y,40.7950899,-96.634668
MLS Listing,,Townhouse,6165 Laroche Rd,Lincoln,NE,68526,295000,3,2.5,TH - Allegrini,1965,2860,2006,2,150,75,Active,,,https://www.redfin.com/NE/Lincoln/6165-Laroche-Rd-68526/home/135292599,GPRMLS,22521297,N,Y,40.7495234,-96.6014938
MLS Listing,,Single Family Residential,3227 S 29th St,Lincoln,NE,68502,459000,3,2.5,Country Club,2812,6500,1942,2,163,,Active,August-3-2025 03:00 PM,August-3-2025 05:00 PM,https://www.redfin.com/NE/Lincoln/3227-S-29th-St-68502/home/135328511,GPRMLS,22521286,N,Y,40.7798084,-96.6803351
MLS Listing,,Single Family Residential,1641 W B St,Lincoln,NE,68522,399999,7,2.0,West Washington-Low,2410,18731,1900,2,166,,Active,August-3-2025 03:00 PM,August-3-2025 04:00 PM,https://www.redfin.com/NE/Lincoln/1641-W-B-St-68522/home/135367649,GPRMLS,22521284,N,Y,40.7998402,-96.7456775
MLS Listing,,Townhouse,1135 Furnas Ave,Lincoln,NE,68521,195000,3,2.5,Belmon,1335,5890,2025,2,146,,Active,,,https://www.redfin.com/NE/Lincoln/1135-Furnas-Ave-68521/home/134480957,GPRMLS,22521283,N,Y,40.840835,-96.704804
MLS Listing,,Single Family Residential,3744 S 52nd St,Lincoln,NE,68506,139900,3,1.5,College View,1302,6201,1900,2,107,,Active,,,https://www.redfin.com/NE/Lincoln/3744-S-52nd-St-68506/home/134866321,GPRMLS,22521282,N,Y,40.7751941,-96.649061
MLS Listing,,Single Family Residential,2000 N 53rd St,Lincoln,NE,68504,280000,3,2.0,MILLS ADDITION TO UNIVERSITY PLACE,1575,7223,1956,2,178,,Active,,,https://www.redfin.com/NE/Lincoln/2000-N-53rd-St-68504/home/134265262,GPRMLS,22521278,N,Y,40.8325092,-96.6469084
MLS Listing,,Townhouse,5829 S 94th St,Lincoln,NE,68526,389000,3,2.5,TH - Vintage Heights Central,2149,4620,2025,2,181,160,Active,August-3-2025 01:00 PM,August-3-2025 02:00 PM,https://www.redfin.com/NE/Lincoln/5829-S-94th-St-68526/home/176366363,GPRMLS,22521276,N,Y,40.7539928,-96.5936381
MLS Listing,,Single Family Residential,1722 NW 55th St,Lincoln,NE,68528,395000,4,3.0,Village West,1997,11328,2025,2,198,13,Active,,,https://www.redfin.com/NE/Lincoln/1722-NW-55th-St-68528/home/173496135,GPRMLS,22521269,N,Y,40.8301655,-96.795118
MLS Listing,,Single Family Residential,3028 Vine St,Lincoln,NE,68503,157900,2,1.0,Hartley,1012,2284,1912,2,156,,Active,,,https://www.redfin.com/NE/Lincoln/3028-Vine-St-68503/home/134510817,GPRMLS,22521270,N,Y,40.8209449,-96.6775709
MLS Listing,,Single Family Residential,2431 Saint Thomas Dr,Lincoln,NE,68502,289900,4,2.0,Country Club,2420,10019,1956,2,120,,Active,,,https://www.redfin.com/NE/Lincoln/2431-Saint-Thomas-Dr-68502/home/134756648,GPRMLS,22521264,N,Y,40.7746436,-96.6864639
MLS Listing,,Townhouse,6961 Naples Ct,Lincoln,NE,68526,265000,3,2.5,Allegrini,1739,2700,2004,2,152,125,Active,August-3-2025 03:00 PM,August-3-2025 05:00 PM,https://www.redfin.com/NE/Lincoln/6961-Naples-Ct-68526/home/135354216,GPRMLS,22521261,N,Y,40.7411151,-96.5999001
MLS Listing,,Single Family Residential,4401 S 46 St,Lincoln,NE,68516,315000,4,2.5,Fiene Terrace,2424,6970,1964,2,130,,Active,August-2-2025 10:00 AM,August-2-2025 12:00 PM,https://www.redfin.com/NE/Lincoln/4401-S-46th-St-68516/home/134433313,GPRMLS,22521258,N,Y,40.7688146,-96.6570937
MLS Listing,,Single Family Residential,9767 Napa Ridge Dr,Lincoln,NE,68526,435000,4,3.0,Vintage Heights East,2350,11326,2020,3,185,19,Active,August-2-2025 01:00 PM,August-2-2025 02:30 PM,https://www.redfin.com/NE/Lincoln/9767-Napa-Ridge-Dr-68526/home/144071246,GPRMLS,22521254,N,Y,40.7463356,-96.5875296
MLS Listing,,Single Family Residential,6601 Sumner St,Lincoln,NE,68506,436900,4,3.5,7HEA222 - Huntington,3145,13068,1966,3,139,,Active,August-3-2025 11:00 AM,August-3-2025 12:30 PM,https://www.redfin.com/NE/Lincoln/6601-Sumner-St-68506/home/135187481,GPRMLS,22518980,N,Y,40.7954872,-96.6316161
MLS Listing,,Single Family Residential,612 N 107th St,Lincoln,NE,68527,532000,4,3.0,Dominion at Stevens Creek,2980,8276,2025,3,179,8,Active,,,https://www.redfin.com/NE/Lincoln/612-N-107th-St-68527/home/182304453,GPRMLS,22521232,N,Y,40.8189176,-96.5738636
MLS Listing,,Single Family Residential,2843 Washington St,Lincoln,NE,68502,299000,3,1.5,Antelope Park / Near South - Low,1210,6400,2025,3,247,,Active,,,https://www.redfin.com/NE/Lincoln/2843-Washington-St-68502/home/196685944,GPRMLS,22521220,N,Y,40.7977836,-96.679482
MLS Listing,,Single Family Residential,7321 S 96th Ct,Lincoln,NE,68526,1395000,4,3.5,HERITAGE LAKES,5422,14302,2007,3,257,120,Active,,,https://www.redfin.com/NE/Lincoln/7321-S-96th-Ct-68526/home/135453774,GPRMLS,22521218,N,Y,40.7367459,-96.5899058
MLS Listing,,Single Family Residential,1015 W Panorama Rd,Lincoln,NE,68523,385000,3,2.5,SOUTHWEST VILLAGE HEIGHTS 7TH ADDITION,1612,6229,2023,3,239,33,Active,,,https://www.redfin.com/NE/Lincoln/1015-W-Panorama-Rd-68523/home/186037039,GPRMLS,22521211,N,Y,40.7489094,-96.7373283
MLS Listing,,Multi-Family (2-4 Unit),2430 R St,Lincoln,NE,68503,265000,,4.0,EDDYS,,,1900,3,,,Active,,,https://www.redfin.com/NE/Lincoln/2430-R-St-68503/home/134647997,GPRMLS,22521209,N,Y,40.8171291,-96.6857622
MLS Listing,,Single Family Residential,4720 Firebush Ln,Lincoln,NE,68516,1225000,4,3.0,Preserve on Antelope Creek,3669,8984,2024,3,334,175,Active,,,https://www.redfin.com/NE/Lincoln/4720-Firebush-Ln-68516/home/134786342,GPRMLS,22521206,N,Y,40.7654652,-96.6098207
MLS Listing,,Townhouse,6236 Windhaven Dr,Lincoln,NE,68521,240000,2,2.0,Wilderness View Townhomes,1200,3920,2009,3,200,100,Active,,,https://www.redfin.com/NE/Lincoln/6236-Windhaven-Dr-68512/home/134572549,GPRMLS,22521198,N,Y,40.7491437,-96.7083024
MLS Listing,,Single Family Residential,7566 S 32nd St,Lincoln,NE,68516,420000,4,3.5,PINE LAKE HEIGHTS 2ND ADDITION,3034,7405,1996,3,138,6,Active,,,https://www.redfin.com/NE/Lincoln/7566-S-32nd-St-68516/home/134758983,GPRMLS,22521194,N,Y,40.7344218,-96.6723656
MLS Listing,,Single Family Residential,3741 D St,Lincoln,NE,68510,255000,2,1.0,Linden Terrace,1261,7128,1946,3,202,,Active,August-3-2025 04:00 PM,August-3-2025 05:00 PM,https://www.redfin.com/NE/Lincoln/3741-D-St-68510/home/135184990,GPRMLS,22521182,N,Y,40.8023505,-96.6667653
MLS Listing,,Townhouse,7240 Dorchester Ct,Lincoln,NE,68521,295000,4,5.5,TH-Stone Bridge Creek,2181,5227,2006,3,135,17,Active,,,https://www.redfin.com/NE/Lincoln/7240-Dorchester-Ct-68521/home/135293411,GPRMLS,22521165,N,Y,40.883073,-96.6927961
MLS Listing,,Single Family Residential,938 W Avondale St,Lincoln,NE,68523,529950,5,3.0,Southwest Village Heights,2866,8712,2025,3,185,8,Active,,,https://www.redfin.com/NE/Lincoln/938-W-Avondale-Ct-68523/home/195155019,GPRMLS,22521159,N,Y,40.7551263,-96.7322778
MLS Listing,,Single Family Residential,2316 D St,Lincoln,NE,68502,195000,3,1.5,Near South - Low,1210,7450,2025,3,161,,Active,,,https://www.redfin.com/NE/Lincoln/2316-D-St-68502/home/134392938,GPRMLS,22521152,N,Y,40.8027076,-96.6874146
MLS Listing,,Multi-Family (2-4 Unit),409 N 25th St,Lincoln,NE,68503,260000,,4.0,EDDYS,,,1900,3,,,Active,,,https://www.redfin.com/NE/Lincoln/409-N-25th-St-68503/home/134696028,GPRMLS,22521148,N,Y,40.8172617,-96.6855115
MLS Listing,,Single Family Residential,3646 S 77th St,Lincoln,NE,68506,427400,4,3.5,Fox Hollow,3173,9108,1987,3,135,,Active,August-3-2025 03:00 PM,August-3-2025 04:30 PM,https://www.redfin.com/NE/Lincoln/3646-S-77th-St-68506/home/134423835,GPRMLS,22521144,N,Y,40.7753292,-96.6150007
MLS Listing,,Single Family Residential,6711 Sumner St,Lincoln,NE,68506,435000,3,3.5,Huntington,2788,17463,1974,4,156,,Active,,,https://www.redfin.com/NE/Lincoln/6711-Sumner-St-68506/home/135425576,GPRMLS,22518771,N,Y,40.7954872,-96.6297333
MLS Listing,,Single Family Residential,1910 S 53rd St St,Lincoln,NE,68506,390000,5,3.5,Woods Bros Fairview Acres,2683,10890,1955,4,145,,Active,August-3-2025 01:00 PM,August-3-2025 02:30 PM,https://www.redfin.com/NE/Lincoln/1910-S-53rd-St-68506/home/135225427,GPRMLS,22520765,N,Y,40.7931534,-96.6474079
MLS Listing,,Single Family Residential,9679 Topher Blvd,Lincoln,NE,68526,579950,4,3.0,South Lake South,3077,13068,2021,4,188,8,Active,,,https://www.redfin.com/NE/Lincoln/9679-Topher-Blvd-68526/home/169775286,GPRMLS,22521104,N,Y,40.7276281,-96.5889192
MLS Listing,,Single Family Residential,7522 Himalayas Dr,Lincoln,NE,68516,595000,5,4.0,Grandview Estates,3232,11761,2025,4,184,15,Active,,,https://www.redfin.com/NE/Lincoln/7522-Himalayas-Dr-68516/home/144071747,GPRMLS,22521100,N,Y,40.7134933,-96.6146734
MLS Listing,,Single Family Residential,335 N 105 St,Lincoln,NE,68527,439000,3,2.0,DOMINION/SHADOW CREEK,1584,6534,2024,4,277,8,Active,August-2-2025 01:00 PM,August-2-2025 02:30 PM,https://www.redfin.com/NE/Lincoln/335-N-105th-St-68527/home/194107337,GPRMLS,22521084,N,Y,40.815929,-96.577066
MLS Listing,,Single Family Residential,4340 W Ludwig Dr,Lincoln,NE,68528,399900,4,3.0,Ashley Heights,2189,7841,2017,4,183,10,Active,August-3-2025 01:00 PM,August-3-2025 02:00 PM,https://www.redfin.com/NE/Lincoln/4340-W-Ludwig-Dr-68528/home/136084753,GPRMLS,22521081,N,Y,40.8345175,-96.7821858
MLS Listing,,Single Family Residential,6820 Rexford Dr,Lincoln,NE,68506,405000,3,2.5,Huntington,2881,13881,1974,4,141,,Active,,,https://www.redfin.com/NE/Lincoln/6820-Rexford-Dr-68506/home/135347348,GPRMLS,22521076,N,Y,40.7980653,-96.6279739
MLS Listing,,Townhouse,6812 S 90th St,Lincoln,NE,68526,260000,3,2.5,Allegrini,1739,10890,2003,4,150,125,Active,,,https://www.redfin.com/NE/Lincoln/6812-S-90th-St-68526/home/134909568,GPRMLS,22521060,N,Y,40.7422187,-96.5968325
MLS Listing,,Single Family Residential,4135 Garfield St,Lincoln,NE,68506,259900,2,2.0,Devaney,1965,7405,1950,4,132,,Active,,,https://www.redfin.com/NE/Lincoln/4135-Garfield-St-68506/home/134541845,GPRMLS,22521055,N,Y,40.7960147,-96.6612714
MLS Listing,,Single Family Residential,6521 S 21st St,Lincoln,NE,68512,850000,6,3.5,Rolling Hills Ridge,4788,11267,2014,4,178,13,Active,August-3-2025 01:00 PM,August-3-2025 03:00 PM,https://www.redfin.com/NE/Lincoln/6521-S-21st-St-68512/home/135237017,GPRMLS,22521047,N,Y,40.7468754,-96.6930109
MLS Listing,,Condo/Co-op,139 N 11th St #502,Lincoln,NE,68508,215000,1,1.0,Georgian Place Condominium,518,5495,1984,4,415,371,Active,,,https://www.redfin.com/NE/Lincoln/139-N-11th-St-68508/unit-502/home/135053839,GPRMLS,22521045,N,Y,40.8145337,-96.7058011
MLS Listing,,Single Family Residential,3300 N 93rd St,Lincoln,NE,68507,475000,5,3.0,Prairie Village North,2717,8276,2019,5,175,7,Active,August-3-2025 01:00 PM,August-3-2025 02:30 PM,https://www.redfin.com/NE/Lincoln/3300-N-93rd-St-68507/home/136090817,GPRMLS,22520881,N,Y,40.8460661,-96.5940521
MLS Listing,,Single Family Residential,3445 N 66th St,Lincoln,NE,68507,239900,3,2.0,HAVELOCK,2148,14375,1952,5,112,,Active,August-3-2025 02:30 PM,August-3-2025 03:30 PM,https://www.redfin.com/NE/Lincoln/3445-N-66th-St-68507/home/134260679,GPRMLS,22521023,N,Y,40.8473085,-96.6306817
MLS Listing,,Townhouse,6701 S 57 St,Lincoln,NE,68516,298000,2,2.0,Shadow Pines,1300,5500,1999,5,229,190,Active,August-3-2025 01:00 PM,August-3-2025 02:30 PM,https://www.redfin.com/NE/Lincoln/6701-S-57th-St-68516/home/134546044,GPRMLS,22521021,N,Y,40.7443733,-96.6432791
MLS Listing,,Single Family Residential,3769 Garfield St,Lincoln,NE,68506,224900,3,2.0,Devaney,1410,6534,1945,6,160,,Active,,,https://www.redfin.com/NE/Lincoln/3769-Garfield-St-68506/home/134823288,GPRMLS,22521017,N,Y,40.7960216,-96.6664431
MLS Listing,,Single Family Residential,1140 Aldrich Rd,Lincoln,NE,68510,540000,3,2.0,Piedmont,2879,25700,1935,6,188,,Active,August-3-2025 01:00 PM,August-3-2025 02:30 PM,https://www.redfin.com/NE/Lincoln/1140-Aldrich-Rd-68510/home/134507237,GPRMLS,22521011,N,Y,40.8018434,-96.6491977
MLS Listing,,Single Family Residential,7346 S 29th St,Lincoln,NE,68516,370000,3,3.0,Porter Ridge West,2528,9583,1996,6,146,,Active,August-3-2025 01:00 PM,August-3-2025 02:00 PM,https://www.redfin.com/NE/Lincoln/7346-S-29th-St-68516/home/134964141,GPRMLS,22520984,N,Y,40.7365698,-96.6755693
MLS Listing,,Single Family Residential,8918 S 72nd St,Lincoln,NE,68516,440000,5,3.0,THE WOODLANDS AT YANKEE HILL ADDITION,2510,9583,2012,7,175,4,Active,,,https://www.redfin.com/NE/Lincoln/8918-S-72nd-St-68516/home/134601165,GPRMLS,22520976,N,Y,40.7222119,-96.6228476
MLS Listing,,Single Family Residential,2221 S 57th St,Lincoln,NE,68506,219900,2,1.5,Second Addition To Normal,738,7405,1954,7,298,,Active,August-3-2025 01:00 PM,August-3-2025 02:00 PM,https://www.redfin.com/NE/Lincoln/2221-S-57th-St-68506/home/135030726,GPRMLS,22520973,N,Y,40.7899192,-96.6431123
MLS Listing,,Townhouse,4933 Spire St,Lincoln,NE,68516,499900,4,3.0,Tower Heights,2533,7841,2024,7,197,125,Active,,,https://www.redfin.com/NE/Lincoln/4933-Spire-St-68516/home/182594314,GPRMLS,22520971,N,Y,40.724503,-96.652588
MLS Listing,,Single Family Residential,921 Cottonwood Dr,Lincoln,NE,68510,320000,3,1.5,WEDGEWOOD MANOR FIRST ADDITION,1460,10646,1964,7,219,,Active,August-3-2025 02:00 PM,August-3-2025 03:30 PM,https://www.redfin.com/NE/Lincoln/921-Cottonwood-Dr-68510/home/135135363,GPRMLS,22520955,N,Y,40.8030873,-96.6127737
MLS Listing,,Single Family Residential,943 W Avondale St,Lincoln,NE,68523,482000,5,3.0,Southwest Village,2314,7405,2025,7,208,35,Active,,,https://www.redfin.com/NE/Lincoln/943-W-Avondale-St-68523/home/196616351,GPRMLS,22520968,N,Y,40.7549853,-96.7339655
MLS Listing,,Single Family Residential,1250 N 55th St,Lincoln,NE,68504,200000,3,1.0,HANSON PLAZA FIRST ADDITION,1245,6468,1960,7,161,,Active,,,https://www.redfin.com/NE/Lincoln/1250-N-55th-St-68504/home/134470614,GPRMLS,22519442,N,Y,40.8265588,-96.6450122
MLS Listing,,Single Family Residential,631 N 108th St,Lincoln,NE,68527,547387,6,3.0,Dominion At Stevens Creek,3310,10454,2026,7,165,8,Active,,,https://www.redfin.com/NE/Lincoln/631-N-108th-St-68527/home/182305686,GPRMLS,22520957,N,Y,40.819285,-96.5732762
MLS Listing,,Single Family Residential,7800 Cherrywood Dr,Lincoln,NE,68510,267000,4,2.0,MAPLE VILLAGE,1490,8712,1962,7,179,,Active,,,https://www.redfin.com/NE/Lincoln/7800-Cherrywood-Dr-68510/home/135286179,GPRMLS,22520953,N,Y,40.8129369,-96.6141172
MLS Listing,,Single Family Residential,10220 Starlight Bay,Lincoln,NE,68527,1095000,4,3.5,Waterford Estates,3943,11057,2019,7,278,61,Active,,,https://www.redfin.com/NE/Lincoln/10220-Starlight-Bay-68527/home/169777068,GPRMLS,22520944,N,Y,40.8223703,-96.5833854
MLS Listing,,Multi-Family (2-4 Unit),6417 Burlington Ave,Lincoln,NE,68507,550000,12,8.0,HAVELOCK,,7179,1996,7,,,Active,,,https://www.redfin.com/NE/Lincoln/6417-Burlington-Ave-68507/home/160647653,GPRMLS,22520931,N,Y,40.8589223,-96.6324504
MLS Listing,,Single Family Residential,5110 S 66th St,Lincoln,NE,68516,339000,3,3.0,Colonial Hills,1922,10019,1975,7,176,,Active,,,https://www.redfin.com/NE/Lincoln/5110-S-66th-St-68516/home/134300487,GPRMLS,22520928,N,Y,40.7626228,-96.6315749
MLS Listing,,Single Family Residential,920 Lamplighter Ln,Lincoln,NE,68510,375000,4,2.0,Carriage Hill,1842,8378,1972,7,204,,Active,,,https://www.redfin.com/NE/Lincoln/920-Lamplighter-Ln-68510/home/134262701,GPRMLS,22520915,N,Y,40.8024312,-96.6080916
MLS Listing,,Townhouse,6011 Windhaven Dr,Lincoln,NE,68512,269900,3,2.5,Wilderness View,1739,4233,2008,7,155,90,Active,August-2-2025 02:00 PM,August-2-2025 04:00 PM,https://www.redfin.com/NE/Lincoln/6011-Windhaven-Dr-68512/home/135248146,GPRMLS,22520907,N,Y,40.7509497,-96.7087789
MLS Listing,,Single Family Residential,3919 Pace Blvd,Lincoln,NE,68502,314900,4,1.0,South Lincoln - CVDU,1674,10454,1963,7,188,,Active,,,https://www.redfin.com/NE/Lincoln/3919-Pace-Blvd-68502/home/134941109,GPRMLS,22520901,N,Y,40.7733319,-96.6870052
MLS Listing,,Single Family Residential,1319 W Cademon Cir,Lincoln,NE,68523,625000,3,3.0,Cardwell Preserve,2951,14375,2009,7,212,125,Active,August-2-2025 01:00 PM,August-2-2025 04:00 PM,https://www.redfin.com/NE/Lincoln/1319-W-Cademon-Cir-68523/home/135320639,GPRMLS,22520896,N,Y,40.7342512,-96.7429309
MLS Listing,,Single Family Residential,1721 Vavrina Ln,Lincoln,NE,68512,357000,3,3.0,Vavrina Meadows,1705,6098,2003,7,209,11,Active,,,https://www.redfin.com/NE/Lincoln/1721-Vavrina-Ln-68512/home/134562068,GPRMLS,22520895,N,Y,40.7330552,-96.69686
MLS Listing,,Single Family Residential,3526 Garfield St,Lincoln,NE,68506,249900,2,1.0,East Lawn Terrace,1275,6534,1925,7,196,,Active,,,https://www.redfin.com/NE/Lincoln/3526-Garfield-St-68506/home/134760654,GPRMLS,22520891,N,Y,40.7964236,-96.6697312
MLS Listing,,Townhouse,2628 Bishop Rd,Lincoln,NE,68502,289900,2,2.0,Bishop Square,1850,4792,1976,7,157,380,Active,,,https://www.redfin.com/NE/Lincoln/2628-Bishop-Rd-68502/home/134707774,GPRMLS,22520887,N,Y,40.7738906,-96.6828929
MLS Listing,,Single Family Residential,7915 Maxine Dr,Lincoln,NE,68516,460000,4,3.0,The Woodlands,2543,8276,2020,7,181,5,Active,August-2-2025 10:30 AM,August-2-2025 12:00 PM,https://www.redfin.com/NE/Lincoln/7915-Maxine-Dr-68516/home/144071688,GPRMLS,22520862,N,Y,40.7224138,-96.6124616
MLS Listing,,Single Family Residential,9240 Castle Pine Dr,Lincoln,NE,68516,625000,5,3.0,Wilderness Hills,3598,10019,2025,7,174,8,Active,,,https://www.redfin.com/NE/Lincoln/9240-Castle-Pine-Dr-68516/home/182594443,GPRMLS,22520853,N,Y,40.7193822,-96.6709839
MLS Listing,,Single Family Residential,401 NW 16th St,Lincoln,NE,68528,265000,3,2.5,West O,1413,8458,1993,7,188,,Active,August-3-2025 01:00 PM,August-3-2025 02:00 PM,https://www.redfin.com/NE/Lincoln/401-NW-16th-St-68528/home/135371889,GPRMLS,22520847,N,Y,40.8166331,-96.7447702
MLS Listing,,Single Family Residential,8810 Appaloosa Ln,Lincoln,NE,68520,900000,6,3.5,White Horse,3849,14374,2022,7,234,10,Active,,,https://www.redfin.com/NE/Lincoln/8810-Appaloosa-Ln-68520/home/182595496,GPRMLS,22520842,N,Y,40.8025417,-96.6010079
MLS Listing,,Condo/Co-op,3001 S 51st Street Ct #472,Lincoln,NE,68506,150000,2,2.0,VAN DORN VILLA CONDO,935,267863,1986,7,160,455,Active,,,https://www.redfin.com/NE/Lincoln/3001-S-51st-Street-Ct-68506/unit-472/home/135393705,GPRMLS,22520837,N,Y,40.782984,-96.651712
MLS Listing,,Townhouse,1927 Battista Ave,Lincoln,NE,68521,312999,2,2.5,STONE BRIDGE CREEK,1757,8712,2025,7,178,165,Active,August-3-2025 01:00 PM,August-3-2025 02:30 PM,https://www.redfin.com/NE/Lincoln/1927-Battista-Pl-68521/home/187789823,GPRMLS,22520835,N,Y,40.8799933,-96.6910382
MLS Listing,,Condo/Co-op,725 R St #5,Lincoln,NE,68508,1300000,2,2.5,The Option Rowhouse,2493,918,2010,7,521,455,Active,,,https://www.redfin.com/NE/Lincoln/725-R-St-68508/unit-5/home/135259015,GPRMLS,22520820,N,Y,40.8167612,-96.7107288
MLS Listing,,Single Family Residential,1840 E Bermuda Dr,Lincoln,NE,68506,290000,3,2.0,Park Manor South,2005,9426,1957,7,145,,Active,August-3-2025 02:30 PM,August-3-2025 03:30 PM,https://www.redfin.com/NE/Lincoln/1840-E-Bermuda-Dr-68506/home/134343348,GPRMLS,22520812,N,Y,40.7943488,-96.6283004
MLS Listing,,Single Family Residential,7310 Kearney Ave,Lincoln,NE,68507,259900,3,2.0,Norwood Park,1876,7285,1965,7,139,,Active,,,https://www.redfin.com/NE/Lincoln/7310-Kearney-Ave-68507/home/134953314,GPRMLS,22520810,N,Y,40.8532192,-96.6205577
MLS Listing,,Single Family Residential,7520 Sonatta Cir,Lincoln,NE,68516,445000,4,3.0,Grand Terrace,2272,11326,2010,8,196,13,Active,,,https://www.redfin.com/NE/Lincoln/7520-Sonatta-Ct-68516/home/134595636,GPRMLS,22519751,N,Y,40.7356992,-96.611672
MLS Listing,,Single Family Residential,5008 Bunker Hill Rd,Lincoln,NE,68521,265000,3,2.0,Bicentennial Estates,1025,7405,1988,8,259,8,Active,August-2-2025 11:00 AM,August-2-2025 12:00 PM,https://www.redfin.com/NE/Lincoln/5008-Bunker-Hill-Rd-68521/home/134288606,GPRMLS,22520796,N,Y,40.8610304,-96.6855487
MLS Listing,,Single Family Residential,1015 N 100th St,Lincoln,NE,68527,675000,5,3.0,WATERFORD ESTATES 3RD ADDITION,3278,12000,2013,8,206,21,Active,,,https://www.redfin.com/NE/Lincoln/1015-N-100th-St-68527/home/135257484,GPRMLS,22520795,N,Y,40.8224047,-96.5870336
MLS Listing,,Single Family Residential,7320 Irene Ct,Lincoln,NE,68516,534900,4,3.0,The Woodlands,2726,11326,2016,8,196,6,Active,,,https://www.redfin.com/NE/Lincoln/7320-Irene-Ct-68516/home/136074283,GPRMLS,22520780,N,Y,40.7202939,-96.6199763
MLS Listing,,Single Family Residential,2220 S 9th St,Lincoln,NE,68502,175000,1,1.0,South Bottoms - Low,624,6970,1900,8,280,,Active,,,https://www.redfin.com/NE/Lincoln/2220-S-9th-St-68502/home/134831310,GPRMLS,22520767,N,Y,40.7904742,-96.7081875
MLS Listing,,Townhouse,7100 Oldpost Rd #20,Lincoln,NE,68506,299000,2,3.0,TH-Wellington Greens,2097,3049,1974,8,143,185,Active,,,https://www.redfin.com/NE/Lincoln/7100-Old-Post-Rd-68506/unit-20/home/134880511,GPRMLS,22520759,N,Y,40.7888931,-96.6244105
MLS Listing,,Single Family Residential,10340 S 77th St,Lincoln,NE,68516,496573,6,3.0,Grandview Estates,3297,9583,2025,8,151,15,Active,,,https://www.redfin.com/NE/Lincoln/10340-S-77th-St-68516/home/195111556,GPRMLS,22520758,N,Y,40.7087685,-96.6164213
MLS Listing,,Single Family Residential,4240 N 70th St,Lincoln,NE,68507,189900,2,1.0,Norwood Park,892,6970,1910,8,213,,Active,,,https://www.redfin.com/NE/Lincoln/4240-N-70th-St-68507/home/135015792,GPRMLS,22520746,N,Y,40.8558032,-96.6245878
MLS Listing,,Single Family Residential,1991 Calvert St,Lincoln,NE,68502,399900,3,3.0,Fairfax,2406,9148,1957,8,166,,Active,August-3-2025 01:00 PM,August-3-2025 02:00 PM,https://www.redfin.com/NE/Lincoln/1991-Calvert-St-68502/home/135361913,GPRMLS,22520736,N,Y,40.7771311,-96.6923633
MLS Listing,,Vacant Land,7315 Isidore Dr,Lincoln,NE,68516,87000,,,Grandview Estates 10th Addition,,,,8,,13,Active,,,https://www.redfin.com/NE/Lincoln/7315-Isidore-Dr-68516/home/182594558,GPRMLS,22520723,N,Y,40.7102039,-96.6205241
MLS Listing,,Single Family Residential,5431 Danbury Rd,Lincoln,NE,68512,345000,4,2.5,Southwood,2438,10890,1971,8,142,3,Active,,,https://www.redfin.com/NE/Lincoln/5431-Danbury-Rd-68512/home/134253592,GPRMLS,22520713,N,Y,40.7581708,-96.690822
MLS Listing,,Condo/Co-op,3001 S 51st Street Court #2207,Lincoln,NE,68506,175000,2,2.0,Van Dorn Villa Condominium,1205,6534,1989,8,145,440,Active,,,https://www.redfin.com/NE/Lincoln/3001-S-51st-Street-Ct-68506/unit-2207/home/134724211,GPRMLS,22520708,N,Y,40.782984,-96.651712
MLS Listing,,Single Family Residential,4435 South St,Lincoln,NE,68506,229900,2,2.0,Bryan Fairview,1893,6374,1954,8,121,,Active,,,https://www.redfin.com/NE/Lincoln/4435-South-St-68506/home/134529359,GPRMLS,22520702,N,Y,40.7914344,-96.6576777
MLS Listing,,Townhouse,2237 S 90th Bay,Lincoln,NE,68520,559950,3,3.5,LOKAHI AT WANDERING CREEK 1ST ADDITION,2446,7039,2025,8,229,43,Active,,,https://www.redfin.com/NE/Lincoln/2237-S-90th-Bay-68520/home/182596177,GPRMLS,22520694,N,Y,40.7902459,-96.5974641
MLS Listing,,Single Family Residential,2763 E St,Lincoln,NE,68510,289000,4,2.0,Elliot - Low,1600,6249,1920,8,181,,Active,,,https://www.redfin.com/NE/Lincoln/2763-E-St-68510/home/134769022,GPRMLS,22520689,N,Y,40.8037558,-96.680987
MLS Listing,,Single Family Residential,1847 W Apricot Ln,Lincoln,NE,68522,330000,3,2.0,Hartland's Southwest,1232,8712,2005,8,268,,Active,,,https://www.redfin.com/NE/Lincoln/1847-W-Apricot-Ln-68522/home/134801018,GPRMLS,22520665,N,Y,40.7953117,-96.7572761
MLS Listing,,Single Family Residential,806 Charleston St,Lincoln,NE,68508,169000,3,2.0,North Bottoms,1163,4792,1900,8,145,,Active,,,https://www.redfin.com/NE/Lincoln/806-Charleston-St-68508/home/134246821,GPRMLS,22520685,N,Y,40.8258377,-96.7097147
MLS Listing,,Townhouse,8800 Bristlecone Dr,Lincoln,NE,68526,399999,3,3.0,Grandview Estates,2173,6240,2025,8,184,150,Active,August-3-2025 01:00 PM,August-3-2025 02:30 PM,https://www.redfin.com/NE/Lincoln/8800-Bristlecone-Dr-68526/home/192612803,GPRMLS,22520683,N,Y,40.7140289,-96.601581
MLS Listing,,Single Family Residential,8911 Ranch Gate Rd,Lincoln,NE,68520,749900,5,3.5,White Horse,3343,11050,2025,8,224,13,Active,,,https://www.redfin.com/NE/Lincoln/8911-Ranch-Gate-Rd-68520/home/176367127,GPRMLS,22520657,N,Y,40.801782,-96.5988692
MLS Listing,,Townhouse,10210 Ina St,Roca,NE,68430,513689,4,3.0,Iron Ridge,3049,9583,2024,8,168,,Active,August-3-2025 12:00 PM,August-3-2025 12:45 PM,https://www.redfin.com/NE/Roca/10210-Ina-St-68430/home/176364490,GPRMLS,22520644,N,Y,40.7099488,-96.6830742
MLS Listing,,Single Family Residential,6700 S Ridge Dr,Lincoln,NE,68512,659900,3,3.5,Ridge Pointe,3727,16149,2002,8,177,21,Active,,,https://www.redfin.com/NE/Lincoln/6700-S-Ridge-Dr-68512/home/134795718,GPRMLS,22520639,N,Y,40.7428619,-96.6862505
MLS Listing,,Single Family Residential,5001 W Sparrow Ln,Lincoln,NE,68528,339900,5,3.0,OAK HILLS,2340,8512,1992,8,145,,Active,,,https://www.redfin.com/NE/Lincoln/5001-W-Sparrow-Ln-68528/home/134414514,GPRMLS,22520642,N,Y,40.8342236,-96.7896028
MLS Listing,,Single Family Residential,1044 N 106th St,Lincoln,NE,68527,529950,5,3.0,Dominion at Stevens Creek,2858,10890,2025,8,185,8,Active,,,https://www.redfin.com/NE/Lincoln/1044-N-106th-St-68527/home/173281371,GPRMLS,22520643,N,Y,40.8233078,-96.5749588
MLS Listing,,Single Family Residential,6238 S 82nd St,Lincoln,NE,68516,450000,4,3.0,Parkers Landing,2934,7803,2004,8,153,6,Active,August-3-2025 01:00 PM,August-3-2025 02:30 PM,https://www.redfin.com/NE/Lincoln/6238-S-82nd-St-68516/home/135292965,GPRMLS,22520637,N,Y,40.7491067,-96.6089882
MLS Listing,,Single Family Residential,10330 S 77th St,Lincoln,NE,68516,499851,6,3.0,Grandview Estates,3297,9583,2025,8,152,15,Active,,,https://www.redfin.com/NE/Lincoln/10330-S-77th-St-68516/home/195103467,GPRMLS,22520638,N,Y,40.7087685,-96.6164213
MLS Listing,,Single Family Residential,5933 La Salle St,Lincoln,NE,68516,349000,3,2.5,Colonial Hills,2270,10122,1975,8,154,,Active,August-3-2025 01:30 PM,August-3-2025 02:30 PM,https://www.redfin.com/NE/Lincoln/5933-La-Salle-St-68516/home/135043783,GPRMLS,22520636,N,Y,40.7667944,-96.6392545
MLS Listing,,Single Family Residential,4201 Everett St,Lincoln,NE,68506,249999,2,1.0,Kimballcrest,1416,10125,1950,8,177,,Active,,,https://www.redfin.com/NE/Lincoln/4201-Everett-St-68506/home/135439988,GPRMLS,22520635,N,Y,40.7969013,-96.660879
MLS Listing,,Single Family Residential,932 Manatt St,Lincoln,NE,68521,239500,3,2.0,Belmont,1240,8712,1960,8,193,,Active,,,https://www.redfin.com/NE/Lincoln/932-Manatt-St-68521/home/134700484,GPRMLS,22520629,N,Y,40.8485988,-96.7075879
MLS Listing,,Single Family Residential,3134 N Cotner Blvd,Lincoln,NE,68507,235000,3,2.0,Cotner Terrace,1270,5742,1946,9,185,,Active,August-3-2025 01:00 PM,August-3-2025 02:30 PM,https://www.redfin.com/NE/Lincoln/3134-N-Cotner-Blvd-68507/home/134619936,GPRMLS,22516886,N,Y,40.844024,-96.6288518
MLS Listing,,Single Family Residential,4301 Birch Hollow Dr,Lincoln,NE,68516-5102,530000,4,3.5,Cripple Creek 2nd Addition,2968,14375,1987,9,179,4,Active,,,https://www.redfin.com/NE/Lincoln/4301-Birch-Hollow-Dr-68516/home/135171476,GPRMLS,22520218,N,Y,40.7471236,-96.6586717
MLS Listing,,Single Family Residential,9600 Cotswold Ln,Lincoln,NE,68526,645000,4,3.0,Heritage Lakes,2924,10782,2010,9,221,60,Active,August-3-2025 01:00 PM,August-3-2025 03:00 PM,https://www.redfin.com/NE/Lincoln/9600-Cotswold-Ln-68526/home/134582987,GPRMLS,22520002,N,Y,40.7402897,-96.5895921
MLS Listing,,Single Family Residential,6180 Franciscan Dr,Lincoln,NE,68526,549900,4,3.5,Vintage Heights 22nd Addition,3271,6534,2015,9,168,,Active,August-3-2025 04:00 PM,August-3-2025 05:00 PM,https://www.redfin.com/NE/Lincoln/6180-Franciscan-Dr-68526/home/136070672,GPRMLS,22520619,N,Y,40.749421,-96.599294
MLS Listing,,Single Family Residential,9527 Breashears St,Lincoln,NE,68516,568000,5,3.0,The Woodlands,2974,7841,2024,9,191,4,Active,August-2-2025 02:00 PM,August-2-2025 04:00 PM,https://www.redfin.com/NE/Lincoln/9527-Breashears-St-68516/home/187792410,GPRMLS,22520611,N,Y,40.7163099,-96.6113752
MLS Listing,,Single Family Residential,4010 N 7th St,Lincoln,NE,68521,258999,3,1.0,Wassung Park,960,610,1978,9,270,,Active,,,https://www.redfin.com/NE/Lincoln/4010-N-7th-St-68521/home/134412205,GPRMLS,22520608,N,Y,40.8513545,-96.7104365
MLS Listing,,Single Family Residential,6927 Holdrege St,Lincoln,NE,68505,245000,3,2.0,ENDOWMENT PLACE,1525,10454,1960,9,161,,Active,,,https://www.redfin.com/NE/Lincoln/6927-Holdrege-St-68505/home/135431432,GPRMLS,22520603,N,Y,40.8277178,-96.6258995
MLS Listing,,Single Family Residential,724 S 44th St,Lincoln,NE,68510,244900,4,2.0,Witherbee Gardens,1430,5861,1942,9,171,,Active,,,https://www.redfin.com/NE/Lincoln/724-S-44th-St-68510/home/134316933,GPRMLS,22520597,N,Y,40.8065166,-96.6582142
MLS Listing,,Single Family Residential,5230 S 37 St,Lincoln,NE,68516,259900,3,2.5,BRIARHURST WEST ADDITION,1424,7841,1976,9,183,9,Active,August-1-2025 05:30 PM,August-1-2025 07:00 PM,https://www.redfin.com/NE/Lincoln/5230-S-37th-St-68516/home/134501847,GPRMLS,22520590,N,Y,40.7609738,-96.6673642
MLS Listing,,Multi-Family (2-4 Unit),2500 NW 8 St,Lincoln,NE,68521,199900,2,2.0,Lincoln,1560,7106,1950,9,128,,Active,August-3-2025 01:00 PM,August-3-2025 02:30 PM,https://www.redfin.com/NE/Lincoln/2500-NW-8th-St-68521/home/135318380,GPRMLS,22520587,N,Y,40.8377599,-96.7328764
MLS Listing,,Townhouse,5917 S 94th St,Lincoln,NE,68526,389950,4,3.5,Garden View at Vintage Heights,2317,4958,2025,9,168,160,Active,August-3-2025 01:00 PM,August-3-2025 02:30 PM,https://www.redfin.com/NE/Lincoln/5917-S-94th-St-68526/home/176366380,GPRMLS,22520584,N,Y,40.7528236,-96.5937734
MLS Listing,,Single Family Residential,1106 N 29th St,Lincoln,NE,68503,179900,3,1.0,Hartley,1036,4390,1920,9,174,,Active,,,https://www.redfin.com/NE/Lincoln/1106-N-29th-St-68503/home/134468839,GPRMLS,22520566,N,Y,40.8247618,-96.6797737
MLS Listing,,Vacant Land,Block 3 Lot 10 W Hall Dr,Lincoln,NE,68532,110000,,,Meadow View South,,26136,,9,,30,Active,,,https://www.redfin.com/NE/Denton-Precinct/Block-3-Lot-10-W-Hall-Dr-68532/home/196558673,GPRMLS,22520563,N,Y,40.7731181,-96.8266027
MLS Listing,,Single Family Residential,3319 N 60th St,Lincoln,NE,68507,225000,3,1.0,Havelock,1255,7405,1950,9,179,,Active,August-3-2025 04:00 PM,August-3-2025 05:00 PM,https://www.redfin.com/NE/Lincoln/3319-N-60th-St-68507/home/134880752,GPRMLS,22520557,N,Y,40.8459529,-96.6388298
MLS Listing,,Townhouse,7021 Claystone Dr,Lincoln,NE,68521,399999,3,3.0,Stone Bridge Creek,2173,6240,2025,9,184,165,Active,August-3-2025 01:00 PM,August-3-2025 02:30 PM,https://www.redfin.com/NE/Lincoln/7021-Claystone-Dr-68521/home/187789877,GPRMLS,22520553,N,Y,40.880783,-96.6931665
MLS Listing,,Single Family Residential,1300 Scenic Ln,Lincoln,NE,68505,295000,3,2.0,North Meadowlane,2160,6970,1963,9,137,,Active,,,https://www.redfin.com/NE/Lincoln/1300-Scenic-Ln-68505/home/135433762,GPRMLS,22520539,N,Y,40.8263445,-96.6162358
MLS Listing,,Townhouse,2926 Sheila Ln,Lincoln,NE,68516,390000,3,3.0,Wilderness Hills Townhomes,2255,4065,2021,9,173,130,Active,,,https://www.redfin.com/NE/Lincoln/2926-Sheila-Ln-68516/home/174691063,GPRMLS,22520536,N,Y,40.7135098,-96.6788493
MLS Listing,,Single Family Residential,3028 Starr St,Lincoln,NE,68503,215000,3,3.0,Babcocks Subdivision,1624,10890,1910,9,132,,Active,,,https://www.redfin.com/NE/Lincoln/3028-Starr-St-68503/home/134623240,GPRMLS,22511933,N,Y,40.8272534,-96.676896
MLS Listing,,Townhouse,1730 Sawyer St,Lincoln,NE,68505,255000,3,2.5,NORTHERN LIGHTS TOWNHOMES ADDITION,1738,3300,2005,9,147,300,Active,,,https://www.redfin.com/NE/Lincoln/1730-Sawyer-St-68505/home/134686503,GPRMLS,22520530,N,Y,40.8304365,-96.6092916
MLS Listing,,Single Family Residential,5803 Woodstock Ave,Lincoln,NE,68512,509000,4,3.5,Skyline Rolling Hills North,3021,11893,1990,9,168,13,Active,,,https://www.redfin.com/NE/Lincoln/5803-Woodstock-Ave-68512/home/134695033,GPRMLS,22520517,N,Y,40.7537862,-96.6985951
MLS Listing,,Single Family Residential,2535 S St,Lincoln,NE,68503,199900,3,1.0,HAWLEYS ADDITION,1411,6970,1900,9,142,,Active,,,https://www.redfin.com/NE/Lincoln/2535-S-St-68503/home/135376367,GPRMLS,22520511,N,Y,40.8177301,-96.6843869
MLS Listing,,Single Family Residential,7710 Sandalwood Dr,Lincoln,NE,68510,399000,3,1.0,Wedgewood,2468,10454,1967,10,162,,Active,August-3-2025 01:00 PM,August-3-2025 03:00 PM,https://www.redfin.com/NE/Lincoln/7710-Sandalwood-Dr-68510/home/134534835,GPRMLS,22519592,N,Y,40.8068096,-96.6146256
MLS Listing,,Single Family Residential,9425 Breashears St,Lincoln,NE,68516,559000,5,3.5,The Woodlands,3111,9215,2025,10,180,4,Active,,,https://www.redfin.com/NE/Lincoln/9425-Breashears-St-68516/home/187792414,GPRMLS,22520490,N,Y,40.7171054,-96.6113807
MLS Listing,,Single Family Residential,3141 N 68th St,Lincoln,NE,68507,225500,3,2.0,FIRST ADDITION,768,8712,1954,10,294,,Active,,,https://www.redfin.com/NE/Lincoln/3141-N-68th-St-68507/home/135090509,GPRMLS,22519375,N,Y,40.8444128,-96.6277858
MLS Listing,,Single Family Residential,5201 Happy Hollow Ln,Lincoln,NE,68516,435000,5,3.0,Jerrold Heights,2775,8712,1992,10,157,,Active,August-3-2025 02:00 PM,August-3-2025 03:00 PM,https://www.redfin.com/NE/Lincoln/5201-Happy-Hollow-Ln-68516/home/135077494,GPRMLS,22520480,N,Y,40.7438545,-96.6483127
MLS Listing,,Single Family Residential,4438 Sherman St,Lincoln,NE,68506,275000,3,2.0,16-05-116-011-000,1227,12197,1958,10,224,,Active,August-2-2025 10:30 AM,August-2-2025 11:30 AM,https://www.redfin.com/NE/Lincoln/4438-Sherman-St-68506/home/134336568,GPRMLS,22520469,N,Y,40.7795551,-96.6583612
MLS Listing,,Single Family Residential,7421 Lambert Pl,Lincoln,NE,68516,399000,4,3.5,Porter Ridge / Pine Lake Heights,2476,8169,1998,10,161,,Active,,,https://www.redfin.com/NE/Lincoln/7421-Lambert-Pl-68516/home/134552515,GPRMLS,22520463,N,Y,40.7359285,-96.6794759
MLS Listing,,Single Family Residential,1605 Harwood St,Lincoln,NE,68502,169900,2,1.0,BURRS C C SUBDIVISION,1100,6970,1910,10,154,,Active,August-1-2025 06:00 PM,August-1-2025 07:00 PM,https://www.redfin.com/NE/Lincoln/1605-Harwood-St-68502/home/134322878,GPRMLS,22520454,N,Y,40.7930888,-96.6980249
MLS Listing,,Townhouse,306 Half Moon Dr,Lincoln,NE,68527,319500,3,2.5,Waterford Estates,1836,2614,2021,10,174,150,Active,,,https://www.redfin.com/NE/Lincoln/306-Half-Moon-Dr-68527/home/176367081,GPRMLS,22520324,N,Y,40.815139,-96.5798499
MLS Listing,,Single Family Residential,6115 NW 6th St,Lincoln,NE,68521,260000,3,2.0,Highland North,1440,6534,1979,10,181,,Active,,,https://www.redfin.com/NE/Lincoln/6115-NW-6th-St-68521/home/134323110,GPRMLS,22520441,N,Y,40.8714077,-96.7305943
MLS Listing,,Single Family Residential,3929 Lewis Ave,Lincoln,NE,68521,395000,4,2.0,LINCOLN VIEW,1340,7405,1956,10,295,,Active,,,https://www.redfin.com/NE/Lincoln/3929-Lewis-Ave-68521/home/134716549,GPRMLS,22520439,N,Y,40.8508456,-96.7050687
MLS Listing,,Townhouse,230 Parkside Ln,Lincoln,NE,68521,240000,3,2.0,FAIRFIELD PARK FIRST ADDITION,1638,2953,1986,10,147,77,Active,,,https://www.redfin.com/NE/Lincoln/230-Parkside-Ln-68521/home/134428981,GPRMLS,22520430,N,Y,40.850138,-96.717617
MLS Listing,,Single Family Residential,8947 Himark Ln,Lincoln,NE,68526,825000,3,2.5,HiMark,3532,17024,2019,10,234,21,Active,,,https://www.redfin.com/NE/Lincoln/8947-Himark-Ln-68526/home/144071094,GPRMLS,22520405,N,Y,40.765956,-96.5969
MLS Listing,,Townhouse,10709 Shore Front Dr,Lincoln,NE,68527,369900,4,3.5,Dominion at Steven's Creek,2687,5280,2024,10,138,125,Active,,,https://www.redfin.com/NE/Lincoln/10709-Shore-Front-Dr-68527/home/190503246,GPRMLS,22520386,N,Y,40.817244,-96.573796
MLS Listing,,Townhouse,7140 Stony Ridge Rd,Lincoln,NE,68507,210000,2,1.0,Stony Ridge,1058,1984,1988,10,198,100,Active,,,https://www.redfin.com/NE/Lincoln/7140-Stony-Ridge-Rd-68507/home/134486015,GPRMLS,22520384,N,Y,40.8443259,-96.6233565
MLS Listing,,Single Family Residential,2235 S 95th St,Lincoln,NE,68520,639950,5,3.0,WANDERING CREEK 14TH ADDITION,2840,9105,2025,10,225,43,Active,,,https://www.redfin.com/NE/Lincoln/2235-S-95th-St-68520/home/196533405,GPRMLS,22520382,N,Y,40.789623,-96.591607
MLS Listing,,Townhouse,5559 N 26th Plz,Lincoln,NE,68521,210000,2,2.0,TH- AUTUMNRIDGE/ PRICE,1170,6098,2003,10,179,96,Active,,,https://www.redfin.com/NE/Lincoln/5559-N-26th-Pl-68521/home/134839719,GPRMLS,22520381,N,Y,40.8677761,-96.682814
MLS Listing,,Single Family Residential,8933 S 30th St,Lincoln,NE,68516,565000,6,5.0,WILDERNESS HILLS ADDITION,3802,8276,2009,10,149,8,Active,August-2-2025 01:00 PM,August-2-2025 02:30 PM,https://www.redfin.com/NE/Lincoln/8933-S-30th-St-68516/home/134589812,GPRMLS,22520380,N,Y,40.7221482,-96.6776971
MLS Listing,,Single Family Residential,4210 Greenwood St,Lincoln,NE,68504,235000,2,2.0,University Place West,1460,8712,1960,10,161,,Active,August-3-2025 02:30 PM,August-3-2025 03:30 PM,https://www.redfin.com/NE/Lincoln/4210-Greenwood-St-68504/home/135408109,GPRMLS,22520372,N,Y,40.8437566,-96.6611442
MLS Listing,,Single Family Residential,7001 Travis Dr,Lincoln,NE,68516,759900,5,3.0,Clarendon Hills 1st Addition,2149,143748,1979,11,354,,Active,August-3-2025 01:00 PM,August-3-2025 02:00 PM,https://www.redfin.com/NE/Lincoln/7001-Travis-Dr-68516/home/134428246,GPRMLS,22520251,N,Y,40.731658,-96.6244311
MLS Listing,,Single Family Residential,2121 Milrose Branch Rd,Lincoln,NE,68520,675000,5,3.0,WANDERING CREEK,3222,10454,2025,11,209,11,Active,August-2-2025 12:00 PM,August-2-2025 01:00 PM,https://www.redfin.com/NE/Lincoln/2121-Milrose-Branch-Rd-68520/home/187793897,GPRMLS,22520333,N,Y,40.7910715,-96.5925135
MLS Listing,,Single Family Residential,3400 Fox Hollow Cir,Lincoln,NE,68506,369900,4,3.0,FOX HOLLOW ADDITION,2150,11326,1987,11,172,,Active,August-3-2025 11:30 AM,August-3-2025 12:30 PM,https://www.redfin.com/NE/Lincoln/3400-Fox-Hollow-Cir-68506/home/135118413,GPRMLS,22520319,N,Y,40.777895,-96.6195438
MLS Listing,,Single Family Residential,5231 S 50th St,Lincoln,NE,68516,325000,3,2.0,South Haven Hills / Quail Valley,1670,7405,1966,11,195,,Active,August-2-2025 10:00 AM,August-2-2025 11:00 AM,https://www.redfin.com/NE/Lincoln/5231-S-50th-St-68516/home/134313810,GPRMLS,22519748,N,Y,40.7609001,-96.6516484
MLS Listing,,Single Family Residential,1818 Jefferson Ave,Lincoln,NE,68502,219000,2,1.5,Antelope Park / Near South - Low,1260,4792,1945,11,174,,Active,August-3-2025 12:00 PM,August-3-2025 01:30 PM,https://www.redfin.com/NE/Lincoln/1818-Jefferson-Ave-68502/home/135437448,GPRMLS,22520316,N,Y,40.7940025,-96.6768297
MLS Listing,,Condo/Co-op,3001 S 51st Street Court #206,Lincoln,NE,68506,155000,2,1.0,Van Dorn Villa Condominium,935,267894,1986,11,166,450,Active,,,https://www.redfin.com/NE/Lincoln/3001-S-51st-Street-Ct-68506/unit-206/home/135030523,GPRMLS,22520296,N,Y,40.782984,-96.651712
MLS Listing,,Townhouse,8921 Peregrine Rd,Lincoln,NE,68505,406950,4,3.5,TH-Prairie Village North,2305,5763,2025,11,177,150,Active,,,https://www.redfin.com/NE/Lincoln/8921-Peregrine-Rd-68505/home/192613894,GPRMLS,22520293,N,Y,40.824486,-96.6008669
MLS Listing,,Townhouse,8911 Peregrine Rd,Lincoln,NE,68505,406950,4,3.5,TH-Prairie Village North,2305,5406,2025,11,177,150,Active,,,https://www.redfin.com/NE/Lincoln/8911-Peregrine-Rd-68505/home/192613893,GPRMLS,22520291,N,Y,40.824487,-96.601035
MLS Listing,,Townhouse,8920 Peregrine Rd,Lincoln,NE,68505,419950,4,3.5,TH-Prairie Village North,2305,7156,2025,11,182,150,Active,,,https://www.redfin.com/NE/Lincoln/8920-Peregrine-Rd-68505/home/192613897,GPRMLS,22520287,N,Y,40.825002,-96.600837
MLS Listing,,Townhouse,8910 Peregrine Rd,Lincoln,NE,68505,406950,4,3.5,TH-Prairie Village North,2305,7232,2025,11,177,150,Active,,,https://www.redfin.com/NE/Lincoln/8910-Peregrine-Rd-68505/home/192613896,GPRMLS,22520286,N,Y,40.824928,-96.601055
MLS Listing,,Single Family Residential,7377 Yankee Woods Dr,Lincoln,NE,68516,435000,4,3.0,The Woodlands,2202,9600,2011,11,198,5,Active,,,https://www.redfin.com/NE/Lincoln/7377-Yankee-Woods-Dr-68516/home/134286954,GPRMLS,22520283,N,Y,40.7213073,-96.6176393
MLS Listing,,Single Family Residential,6833 Summerset Ct,Lincoln,NE,68516,459900,4,3.0,Forest Lake Estates,2749,3485,1990,11,167,218,Active,August-2-2025 12:30 PM,August-2-2025 02:00 PM,https://www.redfin.com/NE/Lincoln/6833-Summerset-Ct-68516/home/134733012,GPRMLS,22520281,N,Y,40.7641109,-96.6270748
MLS Listing,,Townhouse,6835 Weigel Bay,Lincoln,NE,68516,434900,4,3.0,Pine Woods,2230,4890,2024,11,195,150,Active,August-3-2025 02:30 PM,August-3-2025 03:30 PM,https://www.redfin.com/NE/Lincoln/6835-Weigel-Bay-68516/home/187479752,GPRMLS,22520274,N,Y,40.7391429,-96.627756
MLS Listing,,Townhouse,6757 S 90th St,Lincoln,NE,68526,264900,3,2.5,Allegrini,1739,10890,2003,11,152,125,Active,,,https://www.redfin.com/NE/Lincoln/6757-S-90th-St-68526/home/134972214,GPRMLS,22520262,N,Y,40.7425842,-96.5973799
MLS Listing,,Single Family Residential,6517 S 90th St,Lincoln,NE,68526,728950,4,3.0,Boulder Ridge,3550,10454,2023,11,205,8,Active,August-3-2025 03:00 PM,August-3-2025 04:30 PM,https://www.redfin.com/NE/Lincoln/6517-S-90th-St-68526/home/179478483,GPRMLS,22520249,N,Y,40.7455274,-96.5982288
MLS Listing,,Single Family Residential,3718 Timberline Ct,Lincoln,NE,68506,439900,3,3.5,Fox Hollow,2746,9081,1986,11,160,,Active,,,https://www.redfin.com/NE/Lincoln/3718-Timberline-Ct-68506/home/135061571,GPRMLS,22520223,N,Y,40.7750476,-96.6121288
MLS Listing,,Single Family Residential,1112 S 23 St,Lincoln,NE,68502,150000,2,1.0,hillsdale,883,6970,1900,11,170,,Active,August-3-2025 04:00 PM,August-3-2025 05:00 PM,https://www.redfin.com/NE/Lincoln/1112-S-23rd-St-68502/home/195985812,GPRMLS,22520221,N,Y,40.8021293,-96.6877595
MLS Listing,,Single Family Residential,6019 Baldwin Ave,Lincoln,NE,68507,219900,3,2.0,Uni Place,1902,9002,1955,13,116,,Active,,,https://www.redfin.com/NE/Lincoln/6019-Baldwin-Ave-68507/home/134726763,GPRMLS,22520201,N,Y,40.8380429,-96.6383735
MLS Listing,,Single Family Residential,2425 Wilderness Ridge Dr,Lincoln,NE,68512,699900,4,3.5,WILDERNESS RIDGE 2ND ADDITION,2315,10890,2000,13,302,42,Active,,,https://www.redfin.com/NE/Lincoln/2425-Wilderness-Ridge-Dr-68512/home/135450083,GPRMLS,22519505,N,Y,40.7226151,-96.6861477
MLS Listing,,Townhouse,550 Lakeside Dr #43,Lincoln,NE,68528,225000,3,2.0,Surfside Estates,1596,1555,2002,14,141,300,Active,,,https://www.redfin.com/NE/Lincoln/550-Lakeside-Dr-68528/unit-43/home/135319507,GPRMLS,22518633,N,Y,40.8183146,-96.7491975
MLS Listing,,Single Family Residential,7530 S 29th St,Lincoln,NE,68516,424900,4,3.5,Porter Ridge / Pine Lake Heights,2828,10454,1996,14,150,,Active,August-3-2025 01:00 PM,August-3-2025 02:00 PM,https://www.redfin.com/NE/Lincoln/7530-S-29th-St-68516/home/134779012,GPRMLS,22520178,N,Y,40.7343249,-96.6749866
MLS Listing,,Single Family Residential,2001 Morningside Dr,Lincoln,NE,68506,287500,3,2.0,Park Manor,1725,10019,1956,14,167,,Active,August-3-2025 02:30 PM,August-3-2025 03:30 PM,https://www.redfin.com/NE/Lincoln/2001-Morningside-Dr-68506/home/135438799,GPRMLS,22520168,N,Y,40.792586,-96.6342229
MLS Listing,,Single Family Residential,2760 Shadowbrook Dr,Lincoln,NE,68516,510000,4,3.0,Wilderness Hills,3127,6970,2011,14,163,,Active,August-3-2025 03:00 PM,August-3-2025 04:00 PM,https://www.redfin.com/NE/Lincoln/2760-Shadowbrook-Dr-68516/home/134829692,GPRMLS,22519329,N,Y,40.714922,-96.6804515
MLS Listing,,Single Family Residential,2201 Woodscrest Ave,Lincoln,NE,68502,489900,4,2.5,Lincoln,3963,6774,1920,14,124,,Active,August-2-2025 01:00 PM,August-2-2025 02:00 PM,https://www.redfin.com/NE/Lincoln/2201-Woodscrest-Ave-68502/home/134320808,GPRMLS,22520155,N,Y,40.7850704,-96.6894748
MLS Listing,,Single Family Residential,7700 Ali Dr,Lincoln,NE,68507,449900,6,3.5,Regent Heights,3263,10019,1992,14,138,4,Active,,,https://www.redfin.com/NE/Lincoln/7700-Ali-Dr-68507/home/135402685,GPRMLS,22520146,N,Y,40.8413792,-96.6174511
MLS Listing,,Single Family Residential,9423 S 86th St,Lincoln,NE,68526,880000,5,2.5,Jensen View Estates,3945,10174,2025,14,223,13,Active,,,https://www.redfin.com/NE/Lincoln/9423-S-86th-St-68526/home/188087346,GPRMLS,22520142,N,Y,40.718027,-96.604235
MLS Listing,,Single Family Residential,6530 Blackstone Rd,Lincoln,NE,68526,445000,3,3.0,Vintage Heights,3020,8712,2004,14,147,19,Active,,,https://www.redfin.com/NE/Lincoln/6530-Blackstone-Rd-68526/home/135232568,GPRMLS,22520134,N,Y,40.745069,-96.5944945
MLS Listing,,Single Family Residential,945 N 108th St,Lincoln,NE,68527,579985,6,3.0,Dominion Stevens Creek,3318,9360,2025,14,175,8,Active,,,https://www.redfin.com/NE/Lincoln/945-N-108th-St-68527/home/175056301,GPRMLS,22520105,N,Y,40.822242,-96.5728813
MLS Listing,,Single Family Residential,241 Wedgewood Dr,Lincoln,NE,68510,419000,3,2.5,Wedgewood Manor,2030,10454,1964,14,206,,Active,,,https://www.redfin.com/NE/Lincoln/241-Wedgewood-Dr-68510/home/135286145,GPRMLS,22520098,N,Y,40.81081,-96.6208315
MLS Listing,,Mobile/Manufactured Home,3619 NW Quincy Ct #184,Lincoln,NE,68521,69000,3,2.0,MH - Contempo,1069,4280,2020,14,65,650,Active,,,https://www.redfin.com/NE/Lincoln/3619-NW-Quincy-Ct-68521/unit-184/home/135287961,GPRMLS,22520097,N,Y,40.8479447,-96.7229545
MLS Listing,,Single Family Residential,4939 Martin St,Lincoln,NE,68504,239900,3,1.5,University Place South,1488,7841,1965,14,161,,Active,,,https://www.redfin.com/NE/Lincoln/4939-Martin-St-68504/home/135418742,GPRMLS,22520091,N,Y,40.8301613,-96.6513358
MLS Listing,,Single Family Residential,7441 S 19th St,Lincoln,NE,68512,399900,3,2.5,Vavrina Meadows,2058,7841,2000,14,194,8,Active,August-3-2025 04:00 PM,August-3-2025 05:00 PM,https://www.redfin.com/NE/Lincoln/7441-S-19th-St-68512/home/134560471,GPRMLS,22520085,N,Y,40.7345268,-96.696253
MLS Listing,,Townhouse,3200 Gunsmoke Dr,Lincoln,NE,68507,304900,3,3.0,TH - Prairie Village North,2290,4356,2010,14,133,90,Active,August-2-2025 01:00 PM,August-2-2025 02:30 PM,https://www.redfin.com/NE/Lincoln/3200-Gunsmoke-Dr-68507/home/134583260,GPRMLS,22520045,N,Y,40.844967,-96.5993067
MLS Listing,,Single Family Residential,3522 S 75 St,Lincoln,NE,68506,400000,3,3.0,Fox Hollow,2618,9100,1979,14,153,,Active,August-3-2025 12:00 PM,August-3-2025 02:00 PM,https://www.redfin.com/NE/Lincoln/3522-S-75th-St-68506/home/134432702,GPRMLS,22519730,N,Y,40.7766778,-96.6184256
MLS Listing,,Single Family Residential,5950 Clear Creek Dr,Lincoln,NE,68516,500000,4,3.5,BIG THOMPSON CREEK 1ST ADDITION,3409,10859,2005,14,147,8,Active,,,https://www.redfin.com/NE/Lincoln/5950-Clear-Creek-Dr-68516/home/134563450,GPRMLS,22520015,N,Y,40.7289451,-96.6395104
MLS Listing,,Single Family Residential,2815 SW 78th St,Lincoln,NE,68532,640000,4,3.0,Meadow View North,2609,60800,2012,14,245,30,Active,August-3-2025 01:00 PM,August-3-2025 02:00 PM,https://www.redfin.com/NE/Lincoln/2815-SW-78th-St-68532/home/135355296,GPRMLS,22520014,N,Y,40.78432,-96.827125
MLS Listing,,Single Family Residential,367 Bushclover Rd,Lincoln,NE,68521,539000,3,6.0,Fallbrook,3358,7967,2010,14,161,165,Active,,,https://www.redfin.com/NE/Lincoln/367-Bushclover-Rd-68521/home/135454078,GPRMLS,22520004,N,Y,40.8773028,-96.724359
MLS Listing,,Townhouse,4901 Spire St,Lincoln,NE,68516,499900,4,3.0,TOWER HEIGHTS ADDITION,2533,7841,2025,14,197,125,Active,,,https://www.redfin.com/NE/Lincoln/4901-Spire-St-68516/home/182594310,GPRMLS,22519990,N,Y,40.7245575,-96.6532155
MLS Listing,,Single Family Residential,610 N 105th St,Lincoln,NE,68527,495000,5,3.0,Dominion Stevens Creek,3138,8276,2020,14,158,8,Active,August-3-2025 03:30 PM,August-3-2025 05:00 PM,https://www.redfin.com/NE/Lincoln/610-N-105th-St-68527/home/169777121,GPRMLS,22519984,N,Y,40.8191846,-96.5759305
MLS Listing,,Single Family Residential,6651 Verano Dr,Lincoln,NE,68523,515000,5,3.0,Southwest Village Heights,2932,7405,2020,15,176,33,Active,August-3-2025 01:00 PM,August-3-2025 03:00 PM,https://www.redfin.com/NE/Lincoln/6651-Verano-Dr-68523/home/173913050,GPRMLS,22519381,N,Y,40.7452791,-96.734594
MLS Listing,,Single Family Residential,1130 Garden Valley Rd,Lincoln,NE,68521,265000,3,2.0,Hartland's Garden Valley,1542,5227,2007,15,172,,Active,,,https://www.redfin.com/NE/Lincoln/1130-Garden-Valley-Rd-68521/home/134286336,GPRMLS,22519368,N,Y,40.8774573,-96.7040758
MLS Listing,,Mobile/Manufactured Home,2010 Northville Cir,Lincoln,NE,68521,75000,3,2.0,MH-MarkIV,1560,,1971,15,48,685,Active,,,https://www.redfin.com/NE/Lincoln/2010-Northville-Cir-68521/home/134539164,GPRMLS,22519969,N,Y,40.8562867,-96.6918201
MLS Listing,,Single Family Residential,1916 Monterey Dr,Lincoln,NE,68506,277000,3,2.0,Park Manor South,1651,9187,1960,15,168,,Active,,,https://www.redfin.com/NE/Lincoln/1916-Monterey-Dr-68506/home/134890997,GPRMLS,22519964,N,Y,40.7932929,-96.6292494
MLS Listing,,Single Family Residential,6325 Nashway Cir,Lincoln,NE,68516,465000,4,3.5,VILLAGE MEADOWS 10TH ADDITION,2898,8276,2015,15,160,6,Active,August-2-2025 10:30 AM,August-2-2025 12:30 PM,https://www.redfin.com/NE/Lincoln/6325-Nashway-Cir-68516/home/136062930,GPRMLS,22519959,N,Y,40.729713,-96.6340431
MLS Listing,,Single Family Residential,2600 Ridgeline Ct,Lincoln,NE,68512,699900,4,2.5,RIDGE POINTE 1ST ADDITION,4052,15246,2004,15,173,,Active,,,https://www.redfin.com/NE/Lincoln/2600-Ridgeline-Ct-68512/home/135350581,GPRMLS,22519951,N,Y,40.7433858,-96.6841283
MLS Listing,,Townhouse,8601 Delphinium Ln,Lincoln,NE,68505,278000,4,3.0,Morning Glory Estates 1st Addition,1820,8280,2003,15,153,,Active,,,https://www.redfin.com/NE/Lincoln/8601-Delphinium-Ln-68505/home/135321428,GPRMLS,22519943,N,Y,40.8299957,-96.603204
MLS Listing,,Townhouse,8605 Delphinium Ln,Lincoln,NE,68505,278000,4,3.0,Morning Glory Estates,1764,5760,2003,15,158,,Active,,,https://www.redfin.com/NE/Lincoln/8605-Delphinium-Ln-68505/home/134911061,GPRMLS,22519942,N,Y,40.8299742,-96.6031079
MLS Listing,,Townhouse,8351 S Tularosa Ct,Lincoln,NE,68516,300000,3,2.5,Porter Ridge West,1850,2178,2004,15,162,100,Active,,,https://www.redfin.com/NE/Lincoln/8351-S-Tularosa-Ct-68516/home/135226369,GPRMLS,22519838,N,Y,40.727449,-96.677496
MLS Listing,,Single Family Residential,235 S 26th St,Lincoln,NE,68510,130000,4,2.0,Downtown,1878,6000,1900,15,69,,Active,,,https://www.redfin.com/NE/Lincoln/235-S-26th-St-68510/home/134525809,GPRMLS,22519832,N,Y,40.8116964,-96.6840425
MLS Listing,,Single Family Residential,229 S 26th St,Lincoln,NE,68510,125500,3,2.0,Downtown,1436,6000,1900,15,87,,Active,,,https://www.redfin.com/NE/Lincoln/229-S-26th-St-68510/home/134521378,GPRMLS,22519831,N,Y,40.8118202,-96.684045
MLS Listing,,Multi-Family (2-4 Unit),245 S 26th St,Lincoln,NE,68510,179000,5,2.0,Downtown,2240,10521,1900,15,80,,Active,,,https://www.redfin.com/NE/Lincoln/245-S-26th-St-68510/home/189049207,GPRMLS,22519828,N,Y,40.8115571,-96.6840911
MLS Listing,,Single Family Residential,9360 Whispering Wind Rd,Lincoln,NE,68512,845000,4,3.0,Wilderness Ridge,3058,11761,2004,15,276,42,Active,,,https://www.redfin.com/NE/Lincoln/9360-Whispering-Wind-Rd-68512/home/135234902,GPRMLS,22519815,N,Y,40.7174449,-96.6857508
MLS Listing,,Single Family Residential,1225 N 101st St,Lincoln,NE,68527,489900,4,3.0,Waterford Estates North,2679,8630,2016,15,183,8,Active,August-3-2025 01:00 PM,August-3-2025 02:00 PM,https://www.redfin.com/NE/Lincoln/1225-N-101st-St-68527/home/136091801,GPRMLS,22519808,N,Y,40.824393,-96.584649
MLS Listing,,Single Family Residential,7432 Grand Oaks Dr,Lincoln,NE,68516,399000,3,3.5,Edenton North,2766,10454,1990,15,144,8,Active,,,https://www.redfin.com/NE/Lincoln/7432-Grand-Oaks-Dr-68516/home/135012497,GPRMLS,22519800,N,Y,40.7592077,-96.6192456
MLS Listing,,Single Family Residential,1815 SW 30th St,Lincoln,NE,68522,268000,3,2.0,Timber Valley,1399,5663,2006,15,192,38,Active,,,https://www.redfin.com/NE/Lincoln/1815-SW-30th-St-68522/home/135322216,GPRMLS,22519786,N,Y,40.7960294,-96.7648547
MLS Listing,,Single Family Residential,1701 Buckingham Dr,Lincoln,NE,68506,449500,4,4.0,Regency Estates 1st Addition,3588,9776,1984,16,125,,Active,August-2-2025 01:00 PM,August-2-2025 02:00 PM,https://www.redfin.com/NE/Lincoln/1701-Buckingham-Dr-68506/home/134557818,GPRMLS,22519620,N,Y,40.7956731,-96.6163903
MLS Listing,,Townhouse,6418 Lone Tree Dr,Lincoln,NE,68512,645000,4,3.0,The Ridge,3217,4500,2022,16,200,258,Active,August-3-2025 01:00 PM,August-3-2025 03:00 PM,https://www.redfin.com/NE/Lincoln/6418-Lone-Tree-Dr-68512/home/135178271,GPRMLS,22519146,N,Y,40.746847,-96.682973
MLS Listing,,Single Family Residential,1300 S 120th St,Lincoln,NE,68520,2000000,2,1.0,RURAL MARKET AREA ONE - ACREAGE,1348,3091018,1900,16,1484,,Active,,,https://www.redfin.com/NE/Lincoln/1300-S-120th-St-68520/home/196452676,GPRMLS,22517936,N,Y,40.800434,-96.5541439
MLS Listing,,Single Family Residential,2909 S 26th St,Lincoln,NE,68502,425000,2,2.0,Country Club,1732,4596,1932,16,245,,Active,August-2-2025 02:30 PM,August-2-2025 03:30 PM,https://www.redfin.com/NE/Lincoln/2909-S-26th-St-68502/home/135005635,GPRMLS,22518456,N,Y,40.7831534,-96.6839321
MLS Listing,,Townhouse,1828 Normandy Ln,Lincoln,NE,68512,335000,3,3.0,TH- NORMANDY SQ / LANCELOT,2093,4400,1978,16,160,6,Active,,,https://www.redfin.com/NE/Lincoln/1828-Normandy-Ln-68512/home/134991334,GPRMLS,22515927,N,Y,40.7562882,-96.6936999
MLS Listing,,Single Family Residential,2513 N 63rd St,Lincoln,NE,68507,230000,4,3.0,Bethany - Low,2076,6970,1900,16,111,,Active,August-3-2025 01:00 PM,August-3-2025 02:30 PM,https://www.redfin.com/NE/Lincoln/2513-N-63rd-St-68507/home/134662868,GPRMLS,22517566,N,Y,40.8378867,-96.6348306
MLS Listing,,Single Family Residential,5844 S 91st St,Lincoln,NE,68526,659000,7,3.5,Vintage Heights 2nd Addition,4437,9470,1999,16,149,10,Active,,,https://www.redfin.com/NE/Lincoln/5844-S-91st-St-68526/home/134778535,GPRMLS,22519779,N,Y,40.7536709,-96.596156
MLS Listing,,Townhouse,8532 Flintlock Cir,Lincoln,NE,68526,290000,2,2.0,TH- ALLEGRINI,1200,4680,2009,16,242,135,Active,,,https://www.redfin.com/NE/Lincoln/8532-Flintlock-Cir-68526/home/134688958,GPRMLS,22519765,N,Y,40.7280913,-96.6043855
MLS Listing,,Single Family Residential,604 N 106th St,Lincoln,NE,68527,562756,5,3.5,Dominion at Steven's Creek,2598,9905,2025,16,217,8,Active,,,https://www.redfin.com/NE/Lincoln/604-N-106th-St-68527/home/182303937,GPRMLS,22519762,N,Y,40.8188975,-96.5749533
MLS Listing,,Single Family Residential,535 N 106th St,Lincoln,NE,68527,583674,5,3.0,Dominion at Steven's Creek,2976,8470,2025,16,196,8,Active,,,https://www.redfin.com/NE/Lincoln/535-N-106th-St-68527/home/182303771,GPRMLS,22519763,N,Y,40.81853,-96.5754289
MLS Listing,,Single Family Residential,1345 S 12 St,Lincoln,NE,68502,135000,2,2.0,Woodwards Subdivision,1386,2178,1912,16,97,,Active,,,https://www.redfin.com/NE/Lincoln/1345-S-12th-St-68502/home/135273155,GPRMLS,22519760,N,Y,40.7994124,-96.7044224
MLS Listing,,Condo/Co-op,3001 S 51st St #429,Lincoln,NE,68506,115000,1,1.0,Van Dorn Villa,792,,1986,16,145,440,Active,,,https://www.redfin.com/NE/Lincoln/3001-S-51st-Street-Ct-68506/unit-429/home/135394350,GPRMLS,22519757,N,Y,40.782984,-96.651712
MLS Listing,,Single Family Residential,1725 Euclid Ave,Lincoln,NE,68502,200000,3,2.0,ELDREDGES ADDITION,1116,6098,1915,16,179,,Active,,,https://www.redfin.com/NE/Lincoln/1725-Euclid-Ave-68502/home/135010309,GPRMLS,22519753,N,Y,40.7938042,-96.6959437
MLS Listing,,Single Family Residential,1601 Vale Cir,Lincoln,NE,68521,255000,3,4.0,Landon's / Groveland,1574,6970,1977,16,162,,Active,,,https://www.redfin.com/NE/Lincoln/1601-Vale-Cir-68521/home/134410909,GPRMLS,22519750,N,Y,40.8542716,-96.6977209
MLS Listing,,Single Family Residential,9816 S 42nd St,Lincoln,NE,68516,644950,5,3.0,GRANDALE 4TH ADDITION,2840,11972,2025,16,227,,Active,,,https://www.redfin.com/NE/Lincoln/9816-S-42nd-St-68516/home/182594375,GPRMLS,22519734,N,Y,40.7138416,-96.6611625
MLS Listing,,Vacant Land,4349 Coral Bell Ct,Lincoln,NE,68516,110000,,,GRANDALE 4TH ADDITION,,,,16,,,Active,,,https://www.redfin.com/NE/Lincoln/4349-Coral-Bell-Ct-68516/home/182594347,GPRMLS,22519727,N,Y,40.7123782,-96.6588462
MLS Listing,,Vacant Land,9824 S 42nd St,Lincoln,NE,68516,110000,,,GRANDALE 4TH ADDITION,,,,16,,,Active,,,https://www.redfin.com/NE/Lincoln/9824-S-42nd-St-68516/home/182594374,GPRMLS,22519729,N,Y,40.7136129,-96.6611626
MLS Listing,,Vacant Land,4309 Coral Bell Ct,Lincoln,NE,68516,100000,,,GRANDALE 4TH ADDITION,,,,16,,,Active,,,https://www.redfin.com/NE/Lincoln/4309-Coral-Bell-Ct-68516/home/182594342,GPRMLS,22519725,N,Y,40.7133599,-96.6595408
MLS Listing,,Single Family Residential,5102 Judson St,Lincoln,NE,68504,174900,2,1.0,Dawes,804,6391,1920,16,218,,Active,,,https://www.redfin.com/NE/Lincoln/5102-Judson-St-68504/home/135188113,GPRMLS,22519724,N,Y,40.8456858,-96.6495653
MLS Listing,,Vacant Land,4343 Coral Bell Ct,Lincoln,NE,68516,110000,,,GRANDALE 4TH ADDITION,,,,16,,,Active,,,https://www.redfin.com/NE/Lincoln/4343-Coral-Bell-Ct-68516/home/182594346,GPRMLS,22519723,N,Y,40.7125974,-96.6588523
MLS Listing,,Single Family Residential,3021 N St,Lincoln,NE,68510,179400,4,1.0,PLAINVIEW ADDITION,1069,7405,1900,16,168,,Active,,,https://www.redfin.com/NE/Lincoln/3021-N-St-68510/home/135176399,GPRMLS,22519720,N,Y,40.8120794,-96.6772133
MLS Listing,,Townhouse,6147 Laroche Rd,Lincoln,NE,68516,315000,3,3.5,TH-Allegrini,2274,2614,2008,16,139,75,Active,,,https://www.redfin.com/NE/Lincoln/6147-Laroche-Rd-68526/home/134916426,GPRMLS,22519703,N,Y,40.7498102,-96.6014926
MLS Listing,,Single Family Residential,1950 Jefferson Ave,Lincoln,NE,68502,249000,3,2.0,Antelope Park/Near South,1634,4750,1926,16,152,,Active,August-3-2025 03:00 PM,August-3-2025 05:00 PM,https://www.redfin.com/NE/Lincoln/1950-Jefferson-Ave-68502/home/135314670,GPRMLS,22519698,N,Y,40.7929631,-96.6785517
MLS Listing,,Single Family Residential,4324 Woodside Village Dr,Lincoln,NE,68528,355295,3,2.5,Hub Hall Heights / Woodside Village,1417,5904,2025,16,251,10,Active,,,https://www.redfin.com/NE/Lincoln/4324-Woodside-Village-Dr-68528/home/192611406,GPRMLS,22519691,N,Y,40.82979,-96.781697
MLS Listing,,Single Family Residential,9249 Foxen Cir,Lincoln,NE,68526,535000,4,3.5,Vintage Heights,3631,11647,2001,16,147,6,Active,August-2-2025 12:00 PM,August-2-2025 01:30 PM,https://www.redfin.com/NE/Lincoln/9249-Foxen-Cir-68526/home/135232527,GPRMLS,22519664,N,Y,40.7496301,-96.5946175
MLS Listing,,Townhouse,2771 Sheila Ln,Lincoln,NE,68516,425000,3,3.0,Wilderness Hills,2160,4763,2024,16,197,150,Active,August-3-2025 01:00 PM,August-3-2025 02:30 PM,https://www.redfin.com/NE/Lincoln/2771-Sheila-Ln-68516/home/176366650,GPRMLS,22519646,N,Y,40.7131668,-96.6807143
MLS Listing,,Single Family Residential,7501 Otoe Pl,Lincoln,NE,68506,440000,4,3.5,Fox Hollow Addition,2898,13939,1977,17,152,,Active,August-3-2025 02:30 PM,August-3-2025 03:30 PM,https://www.redfin.com/NE/Lincoln/7501-Otoe-Pl-68506/home/135102710,GPRMLS,22519565,N,Y,40.7825793,-96.6176193
MLS Listing,,Single Family Residential,7630 SW 17th St,Lincoln,NE,68523,1249900,7,5.0,CARDWELL RESERVE ADDITION,5688,14375,2008,17,220,250,Active,,,https://www.redfin.com/NE/Lincoln/7630-SW-17th-St-68523/home/135456975,GPRMLS,22519285,N,Y,40.7340943,-96.7466685
MLS Listing,,Condo/Co-op,3001 S 51st Street Ct #455,Lincoln,NE,68506,200000,2,2.0,VAN DORN VILLA CONDO,1019,44,1986,17,196,440,Active,,,https://www.redfin.com/NE/Lincoln/3001-S-51st-Street-Ct-68506/unit-455/home/134842945,GPRMLS,22519623,N,Y,40.782984,-96.651712
MLS Listing,,Vacant Land,1240 S 93rd St,Lincoln,NE,68520,179950,,,HILLCREST CC 1ST ADDITION,,,,17,,40,Active,,,https://www.redfin.com/NE/Lincoln/1240-S-93rd-St-68520/home/173281412,GPRMLS,22519614,N,Y,40.8005419,-96.5931021
MLS Listing,,Vacant Land,1230 S 93rd St,Lincoln,NE,68520,179950,,,HILLCREST CC 1ST ADDITION,,,,17,,40,Active,,,https://www.redfin.com/NE/Lincoln/1230-S-93rd-St-68520/home/173281411,GPRMLS,22519613,N,Y,40.8008198,-96.5930779
MLS Listing,,Single Family Residential,2941 Jackson Dr,Lincoln,NE,68502,574900,5,3.5,Rathbone,3200,6250,1932,17,180,,Active,August-3-2025 02:30 PM,August-3-2025 03:30 PM,https://www.redfin.com/NE/Lincoln/2941-Jackson-Dr-68502/home/134417897,GPRMLS,22519610,N,Y,40.7820336,-96.679037
MLS Listing,,Single Family Residential,7520 Maxine Dr,Lincoln,NE,68516,589950,4,3.0,The Woodlands,3136,8728,2025,17,188,4,Active,August-2-2025 12:00 PM,August-2-2025 01:00 PM,https://www.redfin.com/NE/Lincoln/7520-Maxine-Dr-68516/home/182594154,GPRMLS,22519603,N,Y,40.7223266,-96.6153076
MLS Listing,,Single Family Residential,9621 S 30th St,Lincoln,NE,68516,625000,4,3.0,Wilderness Hills,3097,9148,2017,17,202,8,Active,,,https://www.redfin.com/NE/Lincoln/9621-S-30th-St-68516/home/136063760,GPRMLS,22519598,N,Y,40.7156658,-96.6768494
MLS Listing,,Townhouse,330 Half Moon Dr,Lincoln,NE,68527,314900,3,2.5,Waterford Estates Townhome,1792,2614,2020,17,176,150,Active,,,https://www.redfin.com/NE/Lincoln/330-Half-Moon-Dr-68527/home/173207867,GPRMLS,22519588,N,Y,40.815466,-96.57998
MLS Listing,,Townhouse,2420 Sievers Pl,Lincoln,NE,68512,579000,3,2.5,Sievers Landing,3044,12197,2022,17,190,160,Active,,,https://www.redfin.com/NE/Lincoln/2420-Sievers-PL-68512/home/191097589,GPRMLS,22519581,N,Y,40.7545667,-96.6958939
MLS Listing,,Single Family Residential,5915 Cross Creek Rd,Lincoln,NE,68516,509900,4,3.5,"EDENTON SOUTH 3RD ADDITION, BLOCK 1, Lot 3",3436,10454,1998,17,148,17,Active,,,https://www.redfin.com/NE/Lincoln/5915-Cross-Creek-Rd-68516/home/135199785,GPRMLS,22519577,N,Y,40.7532174,-96.6192456
MLS Listing,,Single Family Residential,4235 F St,Lincoln,NE,68510,245000,3,2.0,Martin Heights,1123,5663,1952,17,218,,Active,August-3-2025 02:30 PM,August-3-2025 03:30 PM,https://www.redfin.com/NE/Lincoln/4235-F-St-68510/home/134766103,GPRMLS,22519579,N,Y,40.8041874,-96.6600431
MLS Listing,,Townhouse,4900 Old Creek Rd,Lincoln,NE,68516,345000,2,3.0,TH-Aspen,2030,7706,1996,17,170,125,Active,,,https://www.redfin.com/NE/Lincoln/4900-Old-Creek-Rd-68516/home/134504936,GPRMLS,22519575,N,Y,40.740525,-96.6513885
MLS Listing,,Single Family Residential,2313 S 11th St,Lincoln,NE,68502,198900,3,1.0,Original Plat - Low,1154,9148,1900,17,172,,Active,,,https://www.redfin.com/NE/Lincoln/2313-S-11th-St-68502/home/134297491,GPRMLS,22519572,N,Y,40.7895653,-96.7059063
MLS Listing,,Single Family Residential,10325 S 77th St,Lincoln,NE,68526,530000,4,3.0,Grandview,2645,8276,2025,17,200,8,Active,,,https://www.redfin.com/NE/Lincoln/10325-S-77th-St-68516/home/196418428,GPRMLS,22519556,N,Y,40.7087766,-96.6164211
MLS Listing,,Single Family Residential,10210 Shore Front Dr,Lincoln,NE,68527,1302832,4,3.5,Waterford Estates - Lakeside,3830,11761,2025,17,340,61,Active,,,https://www.redfin.com/NE/Lincoln/10210-Shore-Front-Dr-68527/home/169777099,GPRMLS,22519546,N,Y,40.8179086,-96.5806486
MLS Listing,,Single Family Residential,1015 N 107th St,Lincoln,NE,68527,514950,5,3.0,Dominion Stevens Creek,2830,10019,2024,17,182,8,Active,August-3-2025 03:00 PM,August-3-2025 04:00 PM,https://www.redfin.com/NE/Lincoln/1015-N-107th-St-68527/home/172509560,GPRMLS,22519541,N,Y,40.8227319,-96.5742899
MLS Listing,,Single Family Residential,440 Sycamore Dr,Lincoln,NE,68510,350000,4,2.5,Wedgewood,1704,9057,1964,17,205,,Active,,,https://www.redfin.com/NE/Lincoln/440-Sycamore-Dr-68510/home/134822163,GPRMLS,22519534,N,Y,40.8088886,-96.6133387
MLS Listing,,Single Family Residential,6433 Thunderbird Cir,Lincoln,NE,68512,339000,3,2.0,Thunderbird Estate Addition,1398,7841,1989,18,242,27,Active,,,https://www.redfin.com/NE/Lincoln/6433-Thunderbird-Cir-68512/home/135325259,GPRMLS,22518703,N,Y,40.7474137,-96.7026347
MLS Listing,,Single Family Residential,3410 Abbotsford Ln,Roca,NE,68430,438000,3,2.0,Eveleo Acres,1348,7405,2025,18,325,,Active,,,https://www.redfin.com/NE/Roca/3410-Abbotsford-Ln-68430/home/185427660,GPRMLS,22519516,N,Y,40.71061,-96.6710109
MLS Listing,,Single Family Residential,3310 Greta Dr,Roca,NE,68430,482500,4,2.5,EVELEO ACRES,1836,7841,2025,18,263,,Active,,,https://www.redfin.com/NE/Roca/3310-Greta-Dr-68430/home/185427368,GPRMLS,22519515,N,Y,40.7093,-96.671932
MLS Listing,,Single Family Residential,2312 Summertime Ct,Lincoln,NE,68512,1275000,2,2.0,THE KNOLLS ADDITION,2400,13594,2025,18,531,125,Active,,,https://www.redfin.com/NE/Lincoln/2312-Summertime-CT-68512/home/196409672,GPRMLS,22519514,N,Y,40.7545667,-96.6958939
MLS Listing,,Single Family Residential,3026 Prairie Rd,Lincoln,NE,68506,289900,3,2.0,Eden Park,2220,9148,1953,18,131,,Active,,,https://www.redfin.com/NE/Lincoln/3026-Prairie-Rd-68506/home/135082976,GPRMLS,22519512,N,Y,40.7818606,-96.6571854
MLS Listing,,Single Family Residential,1925 E St,Lincoln,NE,68510,374900,5,2.5,Capitol Addition,2489,7100,1886,18,151,,Active,August-3-2025 01:00 PM,August-3-2025 02:00 PM,https://www.redfin.com/NE/Lincoln/1925-E-St-68510/home/134652682,GPRMLS,22519502,N,Y,40.8033672,-96.6931262
MLS Listing,,Single Family Residential,5601 Greenwood St,Lincoln,NE,68507,260000,3,2.0,South Havelock,1525,6970,1952,18,170,,Active,,,https://www.redfin.com/NE/Lincoln/5601-Greenwood-St-68507/home/134660282,GPRMLS,22519493,N,Y,40.8433642,-96.6438316
MLS Listing,,Single Family Residential,5922 SW 9th St,Lincoln,NE,68523,425775,3,2.5,Southwest Village Heights,1610,8294,2025,18,264,33,Active,,,https://www.redfin.com/NE/Lincoln/5922-SW-9th-St-68523/home/187787953,GPRMLS,22519490,N,Y,40.7531869,-96.7348469
MLS Listing,,Single Family Residential,2306 S 72nd St,Lincoln,NE,68506,449900,4,3.5,Shamrock Court,2670,5016,1976,18,169,80,Active,,,https://www.redfin.com/NE/Lincoln/2306-S-72nd-St-68506/home/134631155,GPRMLS,22519491,N,Y,40.7877077,-96.6223506
MLS Listing,,Single Family Residential,3035 Wendover Ave,Lincoln,NE,68502,409900,4,3.0,Rathbone Village,2790,8785,1922,18,147,,Active,,,https://www.redfin.com/NE/Lincoln/3035-Wendover-Ave-68502/home/134473484,GPRMLS,22519485,N,Y,40.7887505,-96.6777579
MLS Listing,,Single Family Residential,4137 W Thatcher Ln,Lincoln,NE,68528,350000,4,3.0,ASHLEY HEIGHTS 5TH ADDITION,1990,7405,2005,18,176,10,Active,,,https://www.redfin.com/NE/Lincoln/4137-W-Thatcher-Ln-68528/home/134794059,GPRMLS,22519483,N,Y,40.8349377,-96.7791243
MLS Listing,,Single Family Residential,3315 Reverence Ln,Lincoln,NE,68430,549900,4,3.0,Iron Ridge,2735,7841,2025,18,201,,Active,,,https://www.redfin.com/NE/Roca/3315-Reverence-Ln-68430/home/185427371,GPRMLS,22519479,N,Y,40.710958,-96.671938
MLS Listing,,Single Family Residential,1611 Sumner St,Lincoln,NE,68502,279900,3,2.0,BURRS (C C) SUBDIVISION,2326,7405,1900,18,120,,Active,,,https://www.redfin.com/NE/Lincoln/1611-Sumner-St-68502/home/134385004,GPRMLS,22519470,N,Y,40.7959876,-96.6979499
MLS Listing,,Single Family Residential,3318 Touzalin Ave,Lincoln,NE,68507,214900,3,2.0,South Havelock,1123,7501,1950,18,191,,Active,,,https://www.redfin.com/NE/Lincoln/3318-Touzalin-Ave-68507/home/135094465,GPRMLS,22519448,N,Y,40.8459565,-96.6396537
MLS Listing,,Single Family Residential,1421 W Lander Dr,Lincoln,NE,68521,465000,4,3.0,HIGHLAND VIEW ADDITION,2504,7841,2014,18,186,,Active,,,https://www.redfin.com/NE/Lincoln/1421-W-Lander-Dr-68521/home/135258896,GPRMLS,22519438,N,Y,40.8792479,-96.7419459
MLS Listing,,Single Family Residential,4800 A St,Lincoln,NE,68510,285000,4,2.5,Bryan Fairview,2475,8712,1947,18,115,,Active,,,https://www.redfin.com/NE/Lincoln/4800-A-St-68510/home/135437098,GPRMLS,22519432,N,Y,40.7991554,-96.6534348
MLS Listing,,Townhouse,3901 S 79th St,Lincoln,NE,68506,459900,3,3.0,Willow Springs,2696,9733,2003,18,171,130,Active,,,https://www.redfin.com/NE/Lincoln/3901-S-79th-St-68506/home/135171448,GPRMLS,22519428,N,Y,40.773085,-96.612607
MLS Listing,,Townhouse,9225 Marbella Dr,Lincoln,NE,68520,646500,4,3.0,TH - Hillcrest CC,3116,5143,2024,18,207,155,Active,,,https://www.redfin.com/NE/Lincoln/9225-Marbella-Dr-68520/home/182596138,GPRMLS,22519419,N,Y,40.7967785,-96.5944205
MLS Listing,,Townhouse,9217 Marbella Dr,Lincoln,NE,68520,646500,4,3.0,TH - Hillcrest CC,3116,5143,2024,18,207,155,Active,,,https://www.redfin.com/NE/Lincoln/9217-Marbella-Dr-68520/home/182596137,GPRMLS,22519420,N,Y,40.7967309,-96.5945734
MLS Listing,,Condo/Co-op,3001 S 51st Street Ct #215,Lincoln,NE,68506,134900,2,1.0,Van Dorn Villa,935,10890,1986,19,144,440,Active,,,https://www.redfin.com/NE/Lincoln/3001-S-51st-Street-Ct-68506/unit-215/home/135393636,GPRMLS,22519402,N,Y,40.782984,-96.651712
MLS Listing,,Single Family Residential,5933 Minter Ln,Lincoln,NE,68516,580000,5,4.0,Village Gardens,3060,4082,2017,20,190,125,Active,August-3-2025 01:00 PM,August-3-2025 02:00 PM,https://www.redfin.com/NE/Lincoln/5933-Minter-Ln-68516/home/135255872,GPRMLS,22515989,N,Y,40.7374096,-96.6397748
MLS Listing,,Single Family Residential,235 W Belmont St,Lincoln,NE,68521,289000,4,3.0,West Cornhusker,2100,9600,1996,20,138,,Active,,,https://www.redfin.com/NE/Lincoln/235-W-Belmont-Ave-68521/home/135446043,GPRMLS,22519394,N,Y,40.8391494,-96.7238857
MLS Listing,,Townhouse,4519 S 57th St,Lincoln,NE,68516,449900,4,3.0,College View,2441,5309,2024,20,184,,Active,,,https://www.redfin.com/NE/Lincoln/4519-S-57th-St-68516/home/195493946,GPRMLS,22519390,N,Y,40.7674855,-96.6433052
MLS Listing,,Single Family Residential,8903 S 31 St,Lincoln,NE,68516,570000,6,3.0,Wilderness Hills,3204,16117,2019,20,178,8,Active,August-2-2025 02:00 PM,August-2-2025 03:00 PM,https://www.redfin.com/NE/Lincoln/8903-S-31st-St-68516/home/136090011,GPRMLS,22519386,N,Y,40.7228818,-96.676716
MLS Listing,,Single Family Residential,9435 Breashears St,Lincoln,NE,68516,509000,3,2.5,THE WOODLANDS AT YANKEE HILL,1587,7700,2025,20,321,4,Active,,,https://www.redfin.com/NE/Lincoln/9435-Breashears-St-68516/home/187792413,GPRMLS,22519383,N,Y,40.7168858,-96.6113809
MLS Listing,,Townhouse,5424 Canterbury Ln #5424,Lincoln,NE,68512,209950,2,2.0,"DICK CHAPIN CANTERBURY LANE ASSOCIATION HOMEOWNERS ASSOC,",2005,871,1973,20,105,350,Active,August-3-2025 02:30 PM,August-3-2025 03:30 PM,https://www.redfin.com/NE/Lincoln/5424-Canterbury-Ln-68512/unit-5424/home/135374253,GPRMLS,22519382,N,Y,40.7588765,-96.6841242
MLS Listing,,Single Family Residential,6409 Westminster Ct,Lincoln,NE,68510,448000,4,3.5,Taylor Greens,4236,7814,1990,20,106,165,Active,August-3-2025 01:00 PM,August-3-2025 02:30 PM,https://www.redfin.com/NE/Lincoln/6409-Westminster-Ct-68510/home/135098924,GPRMLS,22519377,N,Y,40.8063049,-96.6329403
MLS Listing,,Mobile/Manufactured Home,1324 W Harbour Blvd,Lincoln,NE,68522,55000,2,2.0,MH-HarbourWest,896,9148,2021,21,61,725,Active,,,https://www.redfin.com/NE/Lincoln/1324-W-Harbour-Blvd-68522/home/193618665,GPRMLS,22519350,N,Y,40.7943389,-96.7416111
MLS Listing,,Single Family Residential,6902 Ballard Ave,Lincoln,NE,68507,234900,3,1.5,Havelock - Low,1552,6970,1912,21,151,,Active,,,https://www.redfin.com/NE/Lincoln/6902-Ballard-Ave-68507/home/134277618,GPRMLS,22519348,N,Y,40.8561572,-96.6263206
MLS Listing,,Single Family Residential,1959 South St,Lincoln,NE,68502,299500,5,1.5,Near South - Low,2699,7308,1925,21,111,,Active,,,https://www.redfin.com/NE/Lincoln/1959-South-St-68502/home/134776611,GPRMLS,22519343,N,Y,40.7914764,-96.6929381
MLS Listing,,Single Family Residential,5537 Calvert St,Lincoln,NE,68506,224921,3,1.0,Collage View,1200,7980,1954,21,187,,Active,August-3-2025 02:00 PM,August-3-2025 04:00 PM,https://www.redfin.com/NE/Lincoln/5537-Calvert-St-68506/home/135122211,GPRMLS,22519342,N,Y,40.7767987,-96.6447763
MLS Listing,,Single Family Residential,2663 Park Ave,Lincoln,NE,68502,284900,3,2.5,Lincoln,1660,6350,1934,21,172,,Active,,,https://www.redfin.com/NE/Lincoln/2663-Park-Ave-68502/home/135108285,GPRMLS,22519334,N,Y,40.7887401,-96.6827036
MLS Listing,,Single Family Residential,7601 Gulls Way,Lincoln,NE,68514,537000,4,3.0,Northbank Preserve,2584,9911,2025,21,208,8,Active,,,https://www.redfin.com/NE/Lincoln/7601-Gulls-WAY-68514/home/193540850,GPRMLS,22519330,N,Y,40.9644088,-96.6370893
MLS Listing,,Single Family Residential,4701 S 58th St,Lincoln,NE,68516,279900,3,2.5,Colonial Hills,1921,10454,1977,21,146,,Active,August-3-2025 01:00 PM,August-3-2025 02:30 PM,https://www.redfin.com/NE/Lincoln/4701-S-58th-St-68516/home/134331523,GPRMLS,22519327,N,Y,40.7659002,-96.6422288
MLS Listing,,Multi-Family (2-4 Unit),2720 E St,Lincoln,NE,68510,200000,1,1.0,Near South - CVDU,1972,6236,1920,21,101,,Active,,,https://www.redfin.com/NE/Lincoln/2720-E-St-68510/home/135439414,GPRMLS,22519324,N,Y,40.8041069,-96.6816762
MLS Listing,,Vacant Land,9110 S 32nd St,Lincoln,NE,68516,140000,,,Wilderness Hills,,9148,,21,,8,Active,,,https://www.redfin.com/NE/Lincoln/9110-S-32nd-St-68516/home/136090337,GPRMLS,22519319,N,Y,40.7207647,-96.6749945
MLS Listing,,Single Family Residential,2205 S 24th St,Lincoln,NE,68502,599999,5,3.5,YATES & THOMPSONS SUB L2 SE 36-10-6,2829,6969,1923,21,212,,Active,,,https://www.redfin.com/NE/Lincoln/2205-S-24th-St-68502/home/134977931,GPRMLS,22519309,N,Y,40.790626,-96.6875192
MLS Listing,,Single Family Residential,2011 S 77th St,Lincoln,NE,68506,325000,4,2.5,Trendwood,1638,10765,1973,21,198,,Active,August-3-2025 01:00 PM,August-3-2025 03:00 PM,https://www.redfin.com/NE/Lincoln/2011-S-77th-St-68506/home/134779106,GPRMLS,22519299,N,Y,40.7906586,-96.6151951
MLS Listing,,Single Family Residential,1809 SW Derek Ave,Lincoln,NE,68522,359000,4,3.0,Timber Valley,2632,7077,2013,21,136,8,Active,August-3-2025 03:15 PM,August-3-2025 04:45 PM,https://www.redfin.com/NE/Lincoln/1809-SW-Derek-Ave-68522/home/134839626,GPRMLS,22517318,N,Y,40.795345,-96.763419
MLS Listing,,Multi-Family (2-4 Unit),2020-2022 S 30th St,Lincoln,NE,68502,289000,4,2.0,Golden Rule Addition,2118,13892,1953,21,136,,Active,,,https://www.redfin.com/NE/Lincoln/2020-S-30th-St-68502/home/134537226,GPRMLS,22519264,N,Y,40.7920123,-96.6774021
MLS Listing,,Single Family Residential,7211 N 50th St,Lincoln,NE,68514,560000,4,3.0,Northbank Preserve,2670,11211,2023,21,210,8,Active,,,https://www.redfin.com/NE/Lincoln/7211-N-50th-St-68514/home/136092187,GPRMLS,22519256,N,Y,40.882933,-96.651893
MLS Listing,,Condo/Co-op,2425 Folkways Blvd #213,Lincoln,NE,68521,139900,2,2.0,9NWNGG - North Gate Garden Estates Condominium,978,,1995,21,143,360,Active,,,https://www.redfin.com/NE/Lincoln/2425-Folkways-Blvd-68521/unit-213/home/135017847,GPRMLS,22519254,N,Y,40.864859,-96.6863512
