SALE TYPE,SOLD DATE,PROPERTY TYPE,ADDRESS,CITY,STATE OR PROVINCE,ZIP OR POSTAL CODE,PRICE,BEDS,BATHS,LOCATION,SQUARE FEET,LOT SIZE,YEAR BUILT,DAYS ON MARKET,$/SQUARE FEET,HOA/MONTH,STATUS,NEXT OPEN HOUSE START TIME,NEXT OPEN HOUSE END TIME,URL (SEE https://www.redfin.com/buy-a-home/comparative-market-analysis FOR INFO ON PRICING),SOURCE,MLS#,FAVORITE,INTERESTED,LATITUDE,LONGITUDE
"In accordance with local MLS rules, some MLS listings are not included in the download"
MLS Listing,,Single Family Residential,12707 Chriswood Dr,Cypress,TX,77429,435000,4,2.5,Lakewood Forest,2824,9600,1982,1,154,61,Active,August-9-2025 02:00 PM,August-9-2025 04:00 PM,https://www.redfin.com/TX/Cypress/12707-Chriswood-Dr-77429/home/30403915,HARMLS,6047584,N,Y,30.0000363,-95.6130202
MLS Listing,,Single Family Residential,1107 Rosemeadow Dr,Houston,TX,77094,595000,4,2.5,Green Trails Park,3097,7801,1991,1,192,115,Active,,,https://www.redfin.com/TX/Houston/1107-Rosemeadow-Dr-77094/home/30621429,HARMLS,17002458,N,Y,29.7727229,-95.7143343
MLS Listing,,Vacant Land,5810 Phillips St,Houston,TX,77091,95000,,,Mansfield Oaks U/R,,8847,,2,,,Active,,,https://www.redfin.com/TX/Houston/5810-Phillips-St-77091/home/30141618,HARMLS,8362161,N,Y,29.850183,-95.437206
MLS Listing,,Single Family Residential,2903 Maple Knoll Dr,Houston,TX,77339,275000,3,2.5,Elm Grove Village,1808,11020,1983,3,152,37,Active,,,https://www.redfin.com/TX/Kingwood/2903-Maple-Knoll-Dr-77339/home/30468064,HARMLS,70040446,N,Y,30.0768906,-95.2016992
MLS Listing,,Single Family Residential,1353 Studer St,Houston,TX,77007,459999,3,2.5,Memorial Park Village Two,2192,1777,2007,5,210,120,Active,,,https://www.redfin.com/TX/Houston/1353-Studer-St-77007/home/29429448,HARMLS,86893622,N,Y,29.7739122,-95.4160357
MLS Listing,,Single Family Residential,5602 W Bellfort St,Houston,TX,77035,429000,3,2.0,Westbury,2399,11826,1959,6,179,25,Active,,,https://www.redfin.com/TX/Houston/5602-W-Bellfort-Ave-77035/home/30125345,HARMLS,802304,N,Y,29.6576109,-95.4842048
MLS Listing,,Single Family Residential,2634 Couch St,Houston,TX,77008,470000,3,2.5,Enclave/Shady Acres,2566,2112,2007,6,183,165,Active,,,https://www.redfin.com/TX/Houston/2634-Couch-St-77008/home/29586352,HARMLS,37572017,N,Y,29.8107257,-95.4251506
MLS Listing,,Condo/Co-op,2428 Bering Dr #2428,Houston,TX,77057,280000,2,2.5,Bering Drive T/H Condo,1444,74834,1981,6,194,380,Active,,,https://www.redfin.com/TX/Houston/2428-Bering-Dr-77057/unit-2428/home/30536131,HARMLS,2606865,N,Y,29.741223,-95.480393
MLS Listing,,Single Family Residential,13410 Terrace Wood Ct,Houston,TX,77070,439000,4,3.5,Highland Timbers,2993,9313,2002,6,147,90,Active,,,https://www.redfin.com/TX/Houston/13410-Terrace-Wood-Ct-77070/home/30714596,HARMLS,74119050,N,Y,29.9714873,-95.5488931
MLS Listing,,Vacant Land,5201 Martin Luther King Blvd,Houston,TX,77021,684888,,,n/a,,23748,,6,,,Active,,,https://www.redfin.com/TX/Houston/5201-Martin-Luther-King-Blvd-77021/home/188875082,HARMLS,97553327,N,Y,29.703432,-95.334046
MLS Listing,,Condo/Co-op,8705 Bryam St #604,Houston,TX,77061,215000,2,2.0,Hobby Airport Villas,1501,187933,2019,7,143,350,Active,,,https://www.redfin.com/TX/Houston/8705-Bryam-77061/unit-604/home/173565450,HARMLS,35489091,N,Y,29.6636292,-95.2621638
MLS Listing,,Single Family Residential,2507 11th St,Galena Park,TX,77547,200000,3,2.0,Galena Manor,1043,6041,1951,7,192,,Active,,,https://www.redfin.com/TX/Galena-Park/2507-11th-St-77547/home/30043235,HARMLS,84286254,N,Y,29.7406531,-95.2525089
MLS Listing,,Single Family Residential,8602 Pottinger Dr,Houston,TX,77083,275000,4,2.5,Olympia Sec 01,2056,8624,1982,9,134,33,Active,,,https://www.redfin.com/TX/Houston/8602-Pottinger-Dr-77083/home/30513748,HARMLS,41974590,N,Y,29.685474,-95.620435
MLS Listing,,Single Family Residential,7147 Hemlock St,Houston,TX,77087,150000,3,2.0,Pecan Park,1228,5501,1942,10,122,,Active,,,https://www.redfin.com/TX/Houston/7147-Hemlock-St-77087/home/29878782,HARMLS,94150928,N,Y,29.711846,-95.2905477
MLS Listing,,Single Family Residential,12902 Wempe Way,Houston,TX,77047,329000,3,2.0,City Gate,1740,5100,2023,10,189,113,Active,,,https://www.redfin.com/TX/Houston/12902-Wempe-Way-77047/home/182928572,HARMLS,51956716,N,Y,29.6188776,-95.3773623
MLS Listing,,Single Family Residential,2626 Druid St,Houston,TX,77091,240000,4,2.0,Yorkdale,1518,7501,1962,13,158,,Active,,,https://www.redfin.com/TX/Houston/2626-Druid-St-77091/home/30156642,HARMLS,24232714,N,Y,29.857659,-95.451109
MLS Listing,,Single Family Residential,4911 Lattimore Creek Dr,Houston,TX,77084,340000,3,2.5,Berkshire Place Sec 5,2780,5858,2014,13,122,60,Active,,,https://www.redfin.com/TX/Houston/4911-Lattimore-Creek-Dr-77084/home/110185077,HARMLS,87817264,N,Y,29.8472738,-95.6505128
MLS Listing,,Single Family Residential,3606 Hempstead Villa Dr,Houston,TX,77008,335000,3,2.5,Villas/Hempstead Amd,1747,1799,2007,14,192,175,Active,,,https://www.redfin.com/TX/Houston/3606-Hempstead-Villa-Dr-77008/home/29566501,HARMLS,94629884,N,Y,29.7899662,-95.4436176
MLS Listing,,Single Family Residential,11826 Oakcroft Dr,Houston,TX,77070,415000,5,3.5,Lakewood Forest Sec 09,2873,9600,1980,14,144,58,Active,,,https://www.redfin.com/TX/Houston/11826-Oakcroft-Dr-77070/home/30370172,HARMLS,26692998,N,Y,29.9870393,-95.6002194
MLS Listing,,Condo/Co-op,7950 N Stadium Dr #138,Houston,TX,77030,113500,1,1.0,Briar Green Condo Ph 02,729,173663,1980,14,156,349,Active,,,https://www.redfin.com/TX/Houston/7950-N-Stadium-Dr-77030/unit-138/home/30458240,HARMLS,24711372,N,Y,29.6943665,-95.4090335
MLS Listing,,Vacant Land,10 Shorelake Dr,Kingwood,TX,77339,485000,,,Kingwood Lakes Village,,17589,,15,,52,Active,,,https://www.redfin.com/TX/Kingwood/10-Shorelake-Dr-77339/home/30324370,HARMLS,56476186,N,Y,30.0439739,-95.2113699
MLS Listing,,Single Family Residential,12134 Winter Brook Dr,Houston,TX,77066,250000,3,2.5,Kleinbrook,2231,8102,1992,15,112,33,Active,,,https://www.redfin.com/TX/Houston/12134-Winter-Brook-Dr-77066/home/30565189,HARMLS,32665006,N,Y,29.9551626,-95.4883088
MLS Listing,,Condo/Co-op,7700 Creekbend Dr #6,Houston,TX,77071,145000,3,2.5,Meadowalk T/H Condo,1540,448023,1974,17,94,317,Active,,,https://www.redfin.com/TX/Houston/7700-Creekbend-Dr-77071/unit-6/home/30332212,HARMLS,75668946,N,Y,29.6661041,-95.5153332
MLS Listing,,Single Family Residential,2125 Branard St,Houston,TX,77098,750000,2,1.0,Westlawn Terrace,1423,6250,1935,17,527,,Active,,,https://www.redfin.com/TX/Houston/2125-Branard-St-77098/home/29910475,HARMLS,67733469,N,Y,29.7365891,-95.4119704
MLS Listing,,Single Family Residential,20307 Wild Berry Dr,Katy,TX,77449,355000,4,2.5,Westfield Terra Sec 03,2935,6098,2001,18,121,37,Active,,,https://www.redfin.com/TX/Katy/20307-Wild-Berry-Dr-77449/home/30706519,HARMLS,51140313,N,Y,29.8225503,-95.7245394
MLS Listing,,Vacant Land,8310 Swiftwater Ln,Houston,TX,77075,110000,,,Houston Skyscraper Shadows,,9679,,20,,,Active,,,https://www.redfin.com/TX/Houston/8310-Swiftwater-Ln-77075/home/30047523,HARMLS,59794686,N,Y,29.61957,-95.27018
MLS Listing,,Single Family Residential,7615 Brae Acres Ct,Houston,TX,77074,417000,3,2.5,Mockingbird,2686,3497,2000,20,155,125,Active,,,https://www.redfin.com/TX/Houston/7615-Brae-Acres-Ct-77074/home/30549971,HARMLS,43399915,N,Y,29.6825609,-95.5211292
MLS Listing,,Single Family Residential,6019 Majestic Pines Dr,Houston,TX,77345,874999,5,5.0,Royal Shores Sec 03,5168,11046,2011,20,169,90,Active,,,https://www.redfin.com/TX/Kingwood/6019-Majestic-Pines-Dr-77345/home/43482152,HARMLS,20077373,N,Y,30.0385163,-95.1376138
MLS Listing,,Multi-Family (2-4 Unit),21155 Gosling Rd #30,Spring,TX,77388,790000,3,8.0,-,6604,2925,2019,21,120,1600,Active,,,https://www.redfin.com/TX/Spring/21155-Gosling-Rd-77389/unit-30/home/196330254,HARMLS,92465573,N,Y,30.0687086,-95.505534
MLS Listing,,Condo/Co-op,3402 Garrott St #1,Houston,TX,77006,190000,1,1.0,Garrott T/H Condo,646,13266,1968,22,294,334,Active,,,https://www.redfin.com/TX/Houston/3402-Garrott-St-77006/unit-1/home/30445031,HARMLS,18827908,N,Y,29.742197,-95.3856467
MLS Listing,,Condo/Co-op,6442 Olympia Dr #85,Houston,TX,77057,174900,2,1.5,Briarwest T/H Condo,1088,570931,1973,23,161,447,Active,,,https://www.redfin.com/TX/Houston/6442-Olympia-Dr-77057/unit-85/home/30294030,HARMLS,53824774,N,Y,29.7439549,-95.4989222
MLS Listing,,Single Family Residential,7306 Creek Crest Dr,Houston,TX,77095,335000,4,2.0,Hearthstone,2285,9099,1978,23,147,44,Active,,,https://www.redfin.com/TX/Houston/7306-Creek-Crest-Dr-77095/home/30351813,HARMLS,69166198,N,Y,29.8840738,-95.6293988
MLS Listing,,Single Family Residential,6115 Downwood Forest Dr,Houston,TX,77088,275000,3,2.0,Inwood North,1953,6825,1980,24,141,25,Active,,,https://www.redfin.com/TX/Houston/6115-Downwood-Forest-Dr-77088/home/30431180,HARMLS,2500638,N,Y,29.8965099,-95.4825532
MLS Listing,,Condo/Co-op,1120 Texas St Unit 7D,Houston,TX,77002,285000,1,1.0,Keystone Lofts Condo,1329,,1995,24,214,961,Active,,,https://www.redfin.com/TX/Houston/1120-Texas-St-77002/unit-7D/home/30709065,HARMLS,26310769,N,Y,29.758813,-95.3611462
MLS Listing,,Single Family Residential,1402 Curtin St,Houston,TX,77018,688888,3,2.0,Oak Forest Add Sec 07,1419,7801,1949,29,485,,Active,,,https://www.redfin.com/TX/Houston/1402-Curtin-St-77018/home/29993025,HARMLS,26787084,N,Y,29.83121,-95.4351088
MLS Listing,,Single Family Residential,417 Rancho Bauer Dr,Houston,TX,77079,1195000,5,3.5,Memorial Drive Acres,3035,33001,1976,29,394,38,Active,,,https://www.redfin.com/TX/Houston/417-Rancho-Bauer-Dr-77079/home/30074492,HARMLS,52038761,N,Y,29.7621139,-95.594003
MLS Listing,,Vacant Land,2609 Bevis St,Houston,TX,77008,847000,,,Shady Acres Sec 02,,6878,,31,,,Active,,,https://www.redfin.com/TX/Houston/2609-Bevis-St-77008/home/29841030,HARMLS,97700161,N,Y,29.8107268,-95.4228048
MLS Listing,,Single Family Residential,5001 Libbey Ln,Houston,TX,77092,429900,4,2.5,Oak Forest,2062,7418,1953,34,208,,Active,,,https://www.redfin.com/TX/Houston/5001-Libbey-Ln-77092/home/30067357,HARMLS,63978678,N,Y,29.83061,-95.464491
MLS Listing,,Vacant Land,7631 Hirsch Rd,Houston,TX,77016,87000,,,Cranford Place,,8228,,34,,,Active,,,https://www.redfin.com/TX/Houston/7631-Hirsch-Rd-77016/home/29983463,HARMLS,5200735,N,Y,29.829057,-95.329232
MLS Listing,,Single Family Residential,717 Morris St,Houston,TX,77009,449827,3,3.5,Modern/Morris,2091,1868,2018,34,215,,Active,,,https://www.redfin.com/TX/Houston/717-Morris-St-77009/home/167844782,HARMLS,17340136,N,Y,29.7825882,-95.3630566
MLS Listing,,Single Family Residential,6123 Majestic Pines Dr,Kingwood,TX,77345,897000,5,5.0,Royal Shores,5151,11573,2011,34,174,90,Active,,,https://www.redfin.com/TX/Kingwood/6123-Majestic-Pines-Dr-77345/home/45410903,HARMLS,81658602,N,Y,30.0365198,-95.1377882
MLS Listing,,Single Family Residential,3407 Rockyridge Dr,Houston,TX,77063,335000,3,2.0,Tanglewilde,1710,8049,1962,35,196,,Active,,,https://www.redfin.com/TX/Houston/3407-Rockyridge-Dr-77063/home/30168623,HARMLS,33088651,N,Y,29.726893,-95.5321811
MLS Listing,,Single Family Residential,7607 Rolling Rock St,Houston,TX,77040,499000,4,2.5,Woodwind Lakes,2921,8298,1995,35,171,84,Active,,,https://www.redfin.com/TX/Houston/7607-Rolling-Rock-St-77040/home/30649234,HARMLS,27919082,N,Y,29.8841724,-95.5321401
MLS Listing,,Townhouse,710 Louise St,Houston,TX,77009,485000,3,3.5,Northwood Street Park,2255,1849,2021,35,215,,Active,August-3-2025 02:00 PM,August-3-2025 04:00 PM,https://www.redfin.com/TX/Houston/710-Louise-St-77009/home/173672230,HARMLS,32394695,N,Y,29.8056139,-95.3784528
MLS Listing,,Single Family Residential,9911 Valley Club Dr,Houston,TX,77078,225000,4,2.0,Verde Forest,1197,7479,1980,37,188,8,Active,,,https://www.redfin.com/TX/Houston/9911-Valley-Club-Dr-77078/home/30251956,HARMLS,71315186,N,Y,29.8485594,-95.2407791
MLS Listing,,Single Family Residential,1983 Sugar Pine Cir,Houston,TX,77090,250000,3,2.5,Sugar Pine Estates Amd,2059,3567,2001,37,121,116,Active,,,https://www.redfin.com/TX/Houston/1983-Sugar-Pine-Cir-77090/home/30650666,HARMLS,7867830,N,Y,30.0063911,-95.4566493
MLS Listing,,Single Family Residential,3808 Sherman St Unit B,Houston,TX,77003,420000,3,3.5,Marbella Lndg,1934,1777,2019,41,217,150,Active,,,https://www.redfin.com/TX/Houston/3808-Sherman-St-77003/unit-B/home/112821046,HARMLS,63453424,N,Y,29.7483108,-95.3362271
MLS Listing,,Condo/Co-op,5711 Sugar Hill Dr #69,Houston,TX,77057,199000,2,1.0,Sugar Hill Condo,968,185534,1977,41,206,493,Active,,,https://www.redfin.com/TX/Houston/5711-Sugar-Hill-Dr-77057/unit-69/home/30399624,HARMLS,76758071,N,Y,29.7565993,-95.4794973
MLS Listing,,Single Family Residential,4727 Arvilla Ln,Houston,TX,77021,250000,4,2.0,Riverside Terrace,1770,6939,1950,42,141,,Active,,,https://www.redfin.com/TX/Houston/4727-Arvilla-Ln-77021/home/29892700,HARMLS,7438532,N,Y,29.7046249,-95.3428082
MLS Listing,,Single Family Residential,4103 Bugle Rd,Houston,TX,77072,249000,3,2.0,Brays Village,1523,7801,1977,42,163,25,Active,,,https://www.redfin.com/TX/Houston/4103-Bugle-Rd-77072/home/30356662,HARMLS,41729917,N,Y,29.7158332,-95.5794122
MLS Listing,,Single Family Residential,4313 Rogers St,Houston,TX,77022,280000,3,1.0,Whitney Place,1080,10001,1936,43,259,,Active,,,https://www.redfin.com/TX/Houston/4313-Rogers-St-77022/home/29885326,HARMLS,73182240,N,Y,29.8276415,-95.386098
MLS Listing,,Condo/Co-op,2711 Briarhurst Dr #18,Houston,TX,77057,235000,2,2.0,The Briarhurst,1932,46990,1964,45,122,963,Active,,,https://www.redfin.com/TX/Houston/2711-Briarhurst-Dr-77057/unit-18/home/30364663,HARMLS,31977170,N,Y,29.737265,-95.4923261
MLS Listing,,Condo/Co-op,8705 Bryam #2003,Houston,TX,77061,215000,2,2.0,Hobby Airport Villas Bldg 20,1501,187933,2021,50,143,350,Active,,,https://www.redfin.com/TX/Houston/8705-Bryam-77061/unit-2003/home/173660624,HARMLS,59399090,N,Y,29.6636292,-95.2621638
MLS Listing,,Single Family Residential,1919 Tallulah Ln,Houston,TX,77077,335000,3,2.0,Ashford South,1801,7801,1969,51,186,65,Active,,,https://www.redfin.com/TX/Houston/1919-Tallulah-Ln-77077/home/30212307,HARMLS,2758763,N,Y,29.7452445,-95.6024619
MLS Listing,,Single Family Residential,3107 Snug Harbour Ct,Katy,TX,77449,320000,3,2.5,Lakes Bridgewater,2296,8450,1999,51,139,44,Active,,,https://www.redfin.com/TX/Katy/3107-Snug-Harbour-Ct-77449/home/30699876,HARMLS,2412655,N,Y,29.8196404,-95.7504524
MLS Listing,,Condo/Co-op,18519 Egret Bay Blvd #1517,Houston,TX,77058,120000,2,2.0,Egret Bay Condo,864,134380,1981,52,139,300,Active,,,https://www.redfin.com/TX/Houston/18519-Egret-Bay-Blvd-77058/unit-1517/home/30520703,HARMLS,2524546,N,Y,29.540858,-95.0988825
MLS Listing,,Single Family Residential,8442 Lettie St,Houston,TX,77075,249000,3,2.0,Gulf Meadows,1511,8250,1971,52,165,,Active,,,https://www.redfin.com/TX/Houston/8442-Lettie-St-77075/home/30238934,HARMLS,41370357,N,Y,29.6044365,-95.2673214
MLS Listing,,Single Family Residential,10007 Sagedowne Ln,Houston,TX,77089,340000,4,2.5,Sagemeadow,2076,7361,1975,55,164,15,Active,,,https://www.redfin.com/TX/Houston/10007-Sagedowne-Ln-77089/home/30315248,HARMLS,52676445,N,Y,29.5820273,-95.2324404
MLS Listing,,Single Family Residential,5607 Flamingo Dr,Houston,TX,77033,235000,3,2.0,Edgewood Terrace Sec 01,1272,8698,1952,57,185,,Active,,,https://www.redfin.com/TX/Houston/5607-Flamingo-Dr-77033/home/30105406,HARMLS,18042277,N,Y,29.6609305,-95.3393167
MLS Listing,,Single Family Residential,4633 Larkspur St,Houston,TX,77051,285000,3,2.0,Flower City,1722,5048,2023,57,166,,Active,,,https://www.redfin.com/TX/Houston/4633-Larkspur-St-77051/home/29988806,HARMLS,64665798,N,Y,29.6615189,-95.3572365
MLS Listing,,Townhouse,1333 W 21st St Unit B,Houston,TX,77008,415000,3,3.5,Cmc Properties,2277,1624,2003,58,182,75,Active,,,https://www.redfin.com/TX/Houston/1333-W-21st-St-77008/unit-B/home/29258448,HARMLS,85130736,N,Y,29.8050559,-95.423812
MLS Listing,,Single Family Residential,20102 Pinehaven Ln,Spring,TX,77379,349000,4,2.0,Pinelakes Pinaster Pointe,2114,10280,1999,62,165,76,Active,,,https://www.redfin.com/TX/Spring/20102-Pinehaven-Ln-77379/home/30687052,HARMLS,80474478,N,Y,30.0615784,-95.4997734
MLS Listing,,Single Family Residential,229 Knox St,Houston,TX,77007,515000,3,3.5,Rice Military,2149,1685,2009,63,240,,Active,,,https://www.redfin.com/TX/Houston/229-Knox-St-77007/home/29623900,HARMLS,53251149,N,Y,29.7638029,-95.4211125
MLS Listing,,Single Family Residential,1433 Alexander St,Houston,TX,77008,729900,3,2.5,Houston Heights,2427,2526,2020,63,301,,Active,August-3-2025 02:00 PM,August-3-2025 04:00 PM,https://www.redfin.com/TX/Houston/1433-Alexander-St-77008/home/45413718,HARMLS,78549626,N,Y,29.7972544,-95.4086712
MLS Listing,,Single Family Residential,12822 Winding Manor Dr,Houston,TX,77044,379000,4,3.5,Summerwood,2975,8398,2004,69,127,79,Active,,,https://www.redfin.com/TX/Houston/12822-Winding-Manor-Dr-77044/home/29232770,HARMLS,16257232,N,Y,29.9272573,-95.1933084
MLS Listing,,Single Family Residential,2915 Robertson St,Houston,TX,77009,329000,3,2.0,North Oaks,1290,5998,1955,69,255,,Active,,,https://www.redfin.com/TX/Houston/2915-Robertson-St-77009/home/29918528,HARMLS,65605689,N,Y,29.7887462,-95.3572647
MLS Listing,,Single Family Residential,14121 N Lake Branch Ln,Houston,TX,77044,548000,4,3.5,Waters Edge Sec 17,3209,13873,2019,70,171,33,Active,,,https://www.redfin.com/TX/Houston/14121-N-Lake-Branch-Ln-77044/home/66048637,HARMLS,89833564,N,Y,29.9709997,-95.1551601
MLS Listing,,Vacant Land,4206 Sharon St,Houston,TX,77020,138000,,,Acres Add,,4477,,71,,,Active,,,https://www.redfin.com/TX/Houston/4206-Sharon-St-77020/home/185372530,HARMLS,22519485,N,Y,29.771549,-95.327696
MLS Listing,,Single Family Residential,3619 Bear Lake Dr,Houston,TX,77345,268000,3,2.0,Greentree Village Sec 01 Amd,1914,8398,1981,72,140,40,Active,,,https://www.redfin.com/TX/Kingwood/3619-Bear-Lake-Dr-77345/home/30397480,HARMLS,34038519,N,Y,30.0675138,-95.1844532
MLS Listing,,Single Family Residential,4302 Meyerwood Dr,Houston,TX,77096,1399950,6,6.0,Willow Meadows,4793,9600,2017,77,292,33,Active,,,https://www.redfin.com/TX/Houston/4302-Meyerwood-Dr-77096/home/30137814,HARMLS,25406037,N,Y,29.6812689,-95.4493868
MLS Listing,,Single Family Residential,3112 Flower Market Ln,Houston,TX,77080,349000,3,2.5,Pinecrest Sec 4,1804,2182,2020,78,193,88,Active,,,https://www.redfin.com/TX/Houston/3112-Flower-Market-Ln-77080/home/173666823,HARMLS,7068511,N,Y,29.8283938,-95.5339949
MLS Listing,,Single Family Residential,3815 Shadow Knoll Ct,Houston,TX,77082,465000,5,3.5,Shadowlake Sec 09,3254,11848,1998,78,143,108,Active,,,https://www.redfin.com/TX/Houston/3815-Shadow-Knoll-Ct-77082/home/30681421,HARMLS,71573405,N,Y,29.7161895,-95.6023192
MLS Listing,,Single Family Residential,9619 Whittington Park Ln,Houston,TX,77095,405000,5,5.0,Canyon Lks/Stonegate Sec 08,3476,7082,2007,79,117,120,Active,,,https://www.redfin.com/TX/Houston/9619-Whittington-Park-Ln-77095/home/29316566,HARMLS,84381166,N,Y,29.9155953,-95.6722961
MLS Listing,,Townhouse,2650 Westgate St,Houston,TX,77098,874000,3,3.5,West Court,2932,2822,1997,80,298,,Active,,,https://www.redfin.com/TX/Houston/2650-Westgate-St-77098/home/29841316,HARMLS,71618121,N,Y,29.740764,-95.4149489
MLS Listing,,Single Family Residential,12805 Westpark Dr,Houston,TX,77082,255000,3,2.0,Westpark Village Sec 01,1594,5349,1978,83,160,38,Active,,,https://www.redfin.com/TX/Houston/12805-Westpark-Dr-77082/home/30392161,HARMLS,70287138,N,Y,29.7229955,-95.6118893
MLS Listing,,Single Family Residential,9762 Tappenbeck Dr,Houston,TX,77055,719000,3,2.0,Long Point Woods Sec 03,2545,21945,1954,83,283,2,Active,,,https://www.redfin.com/TX/Houston/9762-Tappenbeck-Dr-77055/home/30066265,HARMLS,17843620,N,Y,29.7941054,-95.5331649
MLS Listing,,Single Family Residential,863 W 43rd St,Houston,TX,77018,467000,3,2.0,Garden Oaks Sec 03,1500,11268,1940,83,311,,Active,,,https://www.redfin.com/TX/Houston/863-W-43rd-St-77018/home/29944496,HARMLS,86392258,N,Y,29.8274077,-95.4195853
MLS Listing,,Single Family Residential,2706 Redwing Grove Way,Houston,TX,77038,305000,3,2.5,Willow Spgs Sec 6,2539,4717,2013,83,120,39,Active,,,https://www.redfin.com/TX/Houston/2706-Redwing-Grove-Way-77038/home/52666451,HARMLS,34245329,N,Y,29.9040528,-95.4589113
MLS Listing,,Single Family Residential,6303 Pebble Beach Dr,Houston,TX,77069,650000,4,3.5,Champions South,3861,16487,1971,90,168,92,Active,,,https://www.redfin.com/TX/Houston/6303-Pebble-Beach-Dr-77069/home/30202927,HARMLS,4630809,N,Y,29.977961,-95.526326
MLS Listing,,Single Family Residential,1027 Saint Charles St,Houston,TX,77003,528000,4,4.5,-,2800,1441,2013,90,189,167,Active,,,https://www.redfin.com/TX/Houston/1027-Saint-Charles-St-77003/home/52205151,HARMLS,62875932,N,Y,29.748667,-95.3522466
MLS Listing,,Townhouse,6115 Hamman St,Houston,TX,77007,599999,3,3.0,Hamman Hall,3156,2500,2007,90,190,,Active,,,https://www.redfin.com/TX/Houston/6115-Hamman-St-77007/home/29904114,HARMLS,55599530,N,Y,29.7758561,-95.423926
MLS Listing,,Single Family Residential,21727 Winsome Rose Ct,Cypress,TX,77433,335000,3,2.0,Fairfield Village South Sec 2,2280,6721,2005,90,147,100,Active,,,https://www.redfin.com/TX/Cypress/21727-Winsome-Rose-Ct-77433/home/29311336,HARMLS,51040631,N,Y,30.0008375,-95.7596062
MLS Listing,,Single Family Residential,6103 Gallant Forest Dr,Houston,TX,77088,295000,3,2.0,Inwood North,1755,9426,1978,91,168,33,Active,,,https://www.redfin.com/TX/Houston/6103-Gallant-Forest-Dr-77088/home/30363827,HARMLS,17589599,N,Y,29.8891978,-95.4816884
MLS Listing,,Single Family Residential,1811 Salt Valley Dr,Katy,TX,77493,310000,4,2.5,Lakecrest,2050,6050,2005,92,151,46,Active,,,https://www.redfin.com/TX/Katy/1811-Salt-Valley-Dr-77493/home/29279892,HARMLS,93859303,N,Y,29.8001529,-95.7889443
MLS Listing,,Single Family Residential,13602 Copeland Oaks Blvd,Cypress,TX,77429,780000,5,5.5,Lakewood Oaks Estates 01 Amd,5759,12401,1994,95,135,83,Active,,,https://www.redfin.com/TX/Cypress/13602-Copeland-Oaks-Blvd-77429/home/30626740,HARMLS,75818882,N,Y,30.0046519,-95.6289807
MLS Listing,,Single Family Residential,1011 Beaver Bend Rd,Houston,TX,77088,255000,4,2.0,Hidden Valley,1660,10667,1963,97,154,,Active,,,https://www.redfin.com/TX/Houston/1011-Beaver-Bend-Rd-77088/home/30151605,HARMLS,73947273,N,Y,29.8949875,-95.4181956
MLS Listing,,Single Family Residential,19302 Peach Valley Cir,Houston,TX,77084,268000,3,2.0,Westlake Sec 01,1558,11325,1975,99,172,40,Active,,,https://www.redfin.com/TX/Houston/19302-Peach-Valley-Cir-77084/home/30293644,HARMLS,48773949,N,Y,29.7968102,-95.7101288
MLS Listing,,Single Family Residential,14102 Haynes Dr,Houston,TX,77069,498000,4,3.5,Champions Park North,3556,9278,1989,100,140,81,Active,,,https://www.redfin.com/TX/Houston/14102-Haynes-Dr-77069/home/30612471,HARMLS,11889012,N,Y,29.9828145,-95.5390008
MLS Listing,,Condo/Co-op,2211 S Kirkwood Rd #11,Houston,TX,77077,125000,1,1.5,Lakeside Green Condo,939,166669,1982,104,133,525,Active,,,https://www.redfin.com/TX/Houston/2211-S-Kirkwood-Rd-77077/unit-11/home/30544235,HARMLS,59322756,N,Y,29.7424946,-95.5882817
MLS Listing,,Condo/Co-op,18800 Egret Bay Blvd #207,Houston,TX,77058,147000,2,2.0,Tranquility Lake Condo,976,611765,1983,105,151,383,Active,,,https://www.redfin.com/TX/Houston/18800-Egret-Bay-Blvd-77058/unit-207/home/30561524,HARMLS,56682846,N,Y,29.5362126,-95.0983282
MLS Listing,,Single Family Residential,3622 N Braeswood Blvd,Houston,TX,77025,888999,4,4.0,Braes Heights Sec 13,3572,14344,1959,105,249,,Active,,,https://www.redfin.com/TX/Houston/3622-N-Braeswood-Blvd-77025/home/30088780,HARMLS,70859183,N,Y,29.6929819,-95.432474
MLS Listing,,Condo/Co-op,1602 Elgin St #12,Houston,TX,77004,249000,2,1.5,Park Lofts,1402,15034,2004,117,178,395,Active,,,https://www.redfin.com/TX/Houston/1602-Elgin-St-77004/unit-12/home/29312127,HARMLS,10111405,N,Y,29.7380505,-95.3718421
MLS Listing,,Single Family Residential,8318 Fuqua Gardens Dr,Houston,TX,77075,284999,3,2.5,Fuqua Gardens,2137,3519,2001,119,133,,Active,,,https://www.redfin.com/TX/Houston/8318-Fuqua-Gardens-Dr-77075/home/30723547,HARMLS,36763556,N,Y,29.6106727,-95.2712424
MLS Listing,,Single Family Residential,2302 Greenglade Ln,Spring,TX,77386,360000,3,2.0,Spring Forest,1928,23958,1978,142,187,,Active,,,https://www.redfin.com/TX/Spring/2302-Greenglade-Ln-77386/home/33190520,HARMLS,96043602,N,Y,30.1212922,-95.408775
MLS Listing,,Single Family Residential,8018 Highmeadow Dr,Houston,TX,77063,725000,5,3.0,Briarmeadow,3085,10367,1965,148,235,63,Active,,,https://www.redfin.com/TX/Houston/8018-Highmeadow-Dr-77063/home/30133115,HARMLS,63612978,N,Y,29.7347904,-95.5098618
MLS Listing,,Single Family Residential,506 Knox St,Houston,TX,77007,579000,3,3.5,Park Villas at Knox,2424,1542,2012,153,239,,Active,,,https://www.redfin.com/TX/Houston/506-Knox-St-77007/home/43492083,HARMLS,96046619,N,Y,29.7668544,-95.4207311
MLS Listing,,Townhouse,2314 Dorrington St Unit C,Houston,TX,77030,555000,3,3.5,Dorrington Homes,2686,1862,2002,155,207,60,Active,,,https://www.redfin.com/TX/Houston/2314-Dorrington-St-77030/unit-C/home/29180880,HARMLS,41736101,N,Y,29.7056137,-95.4133698
MLS Listing,,Vacant Land,113 Morris St,Houston,TX,77009,245000,,,MORRIS VISTA,,2600,,175,,,Active,,,https://www.redfin.com/TX/Houston/113-Morris-St-77009/home/29664494,HARMLS,18576049,N,Y,29.7807564,-95.3673193
MLS Listing,,Single Family Residential,8546 Western Dr,Houston,TX,77055,410000,3,1.0,Ridgecrest,1350,8398,1960,188,304,,Active,,,https://www.redfin.com/TX/Houston/8546-Western-Dr-77055/home/30031756,HARMLS,55345334,N,Y,29.8049942,-95.499308
MLS Listing,,Single Family Residential,15614 Hatfield Hollow Dr,Tomball,TX,77377,294444,3,2.5,Lakewood Village Sec 01,2066,7148,1991,190,143,25,Active,,,https://www.redfin.com/TX/Tomball/15614-Hatfield-Hollow-Dr-77377/home/30468681,HARMLS,85488723,N,Y,30.0022427,-95.5846415
MLS Listing,,Single Family Residential,10906 Chimney Rock Rd,Houston,TX,77096,264900,3,2.0,Westbury,1326,10010,1956,206,200,32,Active,,,https://www.redfin.com/TX/Houston/10906-Chimney-Rock-Rd-77096/home/30097999,HARMLS,75370036,N,Y,29.6619343,-95.4770829
MLS Listing,,Condo/Co-op,2300 Old Spanish Trl #2136,Houston,TX,77054,189000,1,1.0,Riverwalk Condo Ph 02,907,132181,1983,1,208,458,Active,,,https://www.redfin.com/TX/Houston/2300-Old-Spanish-Trl-77054/unit-2136/home/30574191,HARMLS,24616240,N,Y,29.6976674,-95.3889409
MLS Listing,,Single Family Residential,12615 Taylorwood Ln St,Houston,TX,77070,335000,3,2.0,LINNFIELD,,,2005,1,,,Active,,,https://www.redfin.com/TX/Houston/12615-Taylorwood-Ln-77070/home/29308349,HARMLS,56454389,N,Y,29.9561807,-95.5617877
MLS Listing,,Single Family Residential,10506 Cobalt Falls Dr,Houston,TX,77095,457900,4,2.5,Stone Gate,3198,7801,2005,1,143,103,Active,,,https://www.redfin.com/TX/Houston/10506-Cobalt-Falls-Dr-77095/home/29182406,HARMLS,82769496,N,Y,29.9256196,-95.6606465
MLS Listing,,Vacant Land,000 Rebel Rd,Houston,TX,77016,238000,,,Scenic Woods,,103995,,1,,,Active,,,https://www.redfin.com/TX/Houston/Rebel-Rd-77016/home/30084765,HARMLS,67849775,N,Y,29.864336,-95.291
MLS Listing,,Vacant Land,4609 Laura Koppe Rd,Houston,TX,77016,399900,,,Buckingham Place Sec 01,,71874,,1,,,Active,,,https://www.redfin.com/TX/Houston/4609-Laura-Koppe-Rd-77016/home/196758021,HARMLS,87977340,N,Y,29.8408492,-95.322373
MLS Listing,,Multi-Family (2-4 Unit),6013 Wedgefield St,Houston,TX,77028,410000,3,2.0,WEDGEFIELD COURT,2300,4050,2023,1,178,,Active,,,https://www.redfin.com/TX/Houston/6013-Wedgefield-St-77028/home/191848290,HARMLS,26793087,N,Y,29.8178999,-95.2743414
MLS Listing,,Vacant Land,TBD Padok Rd,Houston,TX,77044,389000,,,Lincoln Park Farms,,42762,,1,,,Active,,,https://www.redfin.com/TX/Houston/TBD-Padok-Rd-77044/home/196757992,HARMLS,26173481,N,Y,29.885423,-95.146382
MLS Listing,,Single Family Residential,6001 Norhill Blvd,Houston,TX,77009,2100000,4,4.5,Stude Sec 01,4800,5000,1928,1,438,,Active,,,https://www.redfin.com/TX/Houston/6001-Norhill-Blvd-77009/home/29755347,HARMLS,50029733,N,Y,29.8069505,-95.386381
MLS Listing,,Single Family Residential,16303 Hollow Rock Dr,Houston,TX,77070,280000,3,2.0,Charterwood,1762,8062,1979,1,159,32,Active,,,https://www.redfin.com/TX/Houston/16303-Hollow-Rock-Dr-77070/home/30399342,HARMLS,31395962,N,Y,30.0065389,-95.5683482
MLS Listing,,Single Family Residential,4331 High Point Ln,Houston,TX,77053,234900,3,2.0,Dumbarton Village R/P,1263,6076,1969,1,186,,Active,,,https://www.redfin.com/TX/Houston/4331-High-Point-Ln-77053/home/30155969,HARMLS,45267442,N,Y,29.6073321,-95.4442337
MLS Listing,,Single Family Residential,24818 Russet Bluff Trl,Houston,TX,77336,292000,4,2.5,Woodland Lakes Sec 3,2183,5323,2021,1,134,33,Active,,,https://www.redfin.com/TX/Huffman/24818-Russet-Bluff-Trl-77336/home/176865523,HARMLS,78026911,N,Y,30.0307335,-95.1028999
MLS Listing,,Single Family Residential,9203 Sasson Blvd,Houston,TX,77044,345000,5,2.5,Tidwell Lakes Sec 2,2733,6464,2016,1,126,21,Active,,,https://www.redfin.com/TX/Houston/9203-Sasson-Blvd-77044/home/144610114,HARMLS,76431697,N,Y,29.8571201,-95.1922782
MLS Listing,,Single Family Residential,15307 Meandering Post Trl,Houston,TX,77044,350000,5,3.5,Sheldon Rdg Sec 8,2469,8637,2017,1,142,30,Active,,,https://www.redfin.com/TX/Houston/15307-Meandering-Post-Trl-77044/home/148114395,HARMLS,89625417,N,Y,29.882254,-95.1440414
MLS Listing,,Single Family Residential,519 Threlkeld St,Houston,TX,77007,749000,3,2.0,Threlkeld Point,2217,4756,2003,1,338,,Active,,,https://www.redfin.com/TX/Houston/519-Threlkeld-St-77007/home/29270345,HARMLS,55003971,N,Y,29.7799556,-95.3882234
MLS Listing,,Condo/Co-op,1100 Lakin St,Houston,TX,77007,525000,3,3.5,Washington Heights North,2632,,2009,1,199,183,Active,,,https://www.redfin.com/TX/Houston/1100-Lakin-St-77007/home/29531908,HARMLS,97686439,N,Y,29.7701899,-95.3941836
MLS Listing,,Townhouse,6222 Skyline Dr #27,Houston,TX,77057,286990,3,2.5,Skyline Court Rep 01,1730,1763,2006,1,166,296,Active,,,https://www.redfin.com/TX/Houston/6222-Skyline-Dr-77057/unit-27/home/29367608,HARMLS,78585761,N,Y,29.7291037,-95.4910923
MLS Listing,,Single Family Residential,2312 W Main St,Houston,TX,77098,2400000,3,4.5,George Rich,,2421,2025,1,,,Active,,,https://www.redfin.com/TX/Houston/2312-W-Main-St-77098/home/194202602,HARMLS,93563869,N,Y,29.7364823,-95.4157834
MLS Listing,,Single Family Residential,319 Arvana St,Houston,TX,77034,249000,3,1.0,Freeway Manor Sec 07,1108,6599,1956,1,225,,Active,,,https://www.redfin.com/TX/Houston/319-Arvana-St-77034/home/30098820,HARMLS,48996015,N,Y,29.6439942,-95.2208311
MLS Listing,,Condo/Co-op,9200 Westheimer Rd #1302,Houston,TX,77063,154000,1,1.5,Piney Point Place Condo,858,,2003,1,179,405,Active,,,https://www.redfin.com/TX/Houston/9200-Westheimer-Rd-77063/unit-1302/home/29319326,HARMLS,32082019,N,Y,29.7385131,-95.526025
MLS Listing,,Single Family Residential,8119 Oat Meadow Trl,Houston,TX,77049,420000,5,3.5,Edgewood Village Sec 2,2690,4726,2014,1,156,29,Active,,,https://www.redfin.com/TX/Houston/8119-Oat-Meadow-Trl-77049/home/112811769,HARMLS,15451052,N,Y,29.8422655,-95.1698252
MLS Listing,,Single Family Residential,14839 Ashford Springs Ln,Humble,TX,77396,345000,3,2.5,Fall Crk Sec 14,2293,7784,2006,1,150,92,Active,August-3-2025 01:00 PM,August-3-2025 03:00 PM,https://www.redfin.com/TX/Humble/14839-Ashford-Springs-Ln-77396/home/29306472,HARMLS,28071852,N,Y,29.9308577,-95.2545131
MLS Listing,,Single Family Residential,2114 Lazybrook Dr,Houston,TX,77008,775000,4,3.0,Lazybrook,1838,7501,1956,1,422,,Active,August-2-2025 12:00 PM,August-2-2025 02:00 PM,https://www.redfin.com/TX/Houston/2114-Lazybrook-Dr-77008/home/30092666,HARMLS,87720562,N,Y,29.8037139,-95.4376885
MLS Listing,,Single Family Residential,12322 Kitty Ln,Houston,TX,77015,199999,3,1.5,Woodland Acres Annex Sec 07,1420,6599,1957,1,141,,Active,,,https://www.redfin.com/TX/Houston/12322-Kitty-Ln-77015/home/30100917,HARMLS,72492986,N,Y,29.7534862,-95.2165341
MLS Listing,,Single Family Residential,4934 S Cancun Dr,Houston,TX,77045,184900,4,2.5,Sunset Bend Sec 1 Rep 1,1726,2522,2007,1,107,73,Active,,,https://www.redfin.com/TX/Houston/4934-S-Cancun-Dr-77045/home/29503213,HARMLS,84284200,N,Y,29.6298386,-95.4551021
MLS Listing,,Townhouse,1048 W 15th 1/2 St,Houston,TX,77008,475000,3,3.5,Shady Acres Ext 3 Pt Rep,1993,1484,2018,1,238,125,Active,August-3-2025 02:00 PM,August-3-2025 04:00 PM,https://www.redfin.com/TX/Houston/1048-W-15th-1-2-St-77008/home/147678581,HARMLS,90737341,N,Y,29.7983698,-95.4176181
MLS Listing,,Single Family Residential,2310 W Main St,Houston,TX,77098,2400000,3,4.5,George Rich,,2421,2025,1,,,Active,,,https://www.redfin.com/TX/Houston/2310-W-Main-St-77098/home/30002052,HARMLS,60545883,N,Y,29.7364351,-95.4157127
MLS Listing,,Single Family Residential,9926 Kirkdale Dr,Houston,TX,77089,245000,3,2.0,Kirkwood Sec 04,1702,7122,1971,1,144,,Active,,,https://www.redfin.com/TX/Houston/9926-Kirkdale-Dr-77089/home/30240332,HARMLS,47945615,N,Y,29.6045711,-95.2307255
MLS Listing,,Single Family Residential,11434 Davenwood Dr,Houston,TX,77089,170000,3,2.0,Wood Meadows,1407,8049,1972,1,121,10,Active,,,https://www.redfin.com/TX/Houston/11434-Davenwood-Dr-77089/home/30391195,HARMLS,15165885,N,Y,29.5908886,-95.2036303
MLS Listing,,Single Family Residential,3322 N Braeswood Blvd,Houston,TX,77025,1625000,4,4.5,Emerald Forest,4796,23361,1956,1,339,41,Active,,,https://www.redfin.com/TX/Houston/3322-N-Braeswood-Blvd-77025/home/30051590,HARMLS,69648173,N,Y,29.6943236,-95.4296137
MLS Listing,,Single Family Residential,1714 Tornado,Houston,TX,77091,289990,4,2.5,Marbella,1858,2818,2009,1,156,71,Active,,,https://www.redfin.com/TX/Houston/1714-Tornado-77091/home/29612295,HARMLS,88318888,N,Y,29.8449159,-95.4397121
MLS Listing,,Single Family Residential,6139 Ridgeway Dr,Houston,TX,77033,185000,4,1.5,Edgewood Sec 09,1335,6481,1955,1,139,,Active,,,https://www.redfin.com/TX/Houston/6139-Ridgeway-Dr-77033/home/30083773,HARMLS,50685878,N,Y,29.668536,-95.3218711
MLS Listing,,Single Family Residential,5506B Wheatley St,Houston,TX,77091,349900,3,2.5,COMMONS AT ELLA FOREST,1650,1894,2025,1,212,100,Active,,,https://www.redfin.com/TX/Houston/5506B-Wheatley-St-77091/home/196344446,HARMLS,11295397,N,Y,29.845896,-95.428188
MLS Listing,,Single Family Residential,14511 Painted Sands Trl,Houston,TX,77049,309990,4,2.5,Edgewood Village,3183,5039,2017,1,97,29,Active,,,https://www.redfin.com/TX/Houston/14511-Painted-Sands-Trl-77049/home/147746101,HARMLS,8754679,N,Y,29.844289,-95.171971
MLS Listing,,Single Family Residential,5615 Perkins St Unit A,Houston,TX,77020,340000,3,3.5,Davis Lndg,1915,2785,2024,1,178,,Active,,,https://www.redfin.com/TX/Houston/5615-Perkins-St-77020/unit-A/home/182938741,HARMLS,23638866,N,Y,29.7795114,-95.3142043
MLS Listing,,Single Family Residential,2223 Saxon Dr,Houston,TX,77018,1599999,5,4.5,Oak Forest Sec 13,4430,7440,2015,1,361,,Active,,,https://www.redfin.com/TX/Houston/2223-Saxon-Dr-77018/home/29994308,HARMLS,23034380,N,Y,29.8273031,-95.4523453
MLS Listing,,Single Family Residential,4024 Blossom St,Houston,TX,77007,799700,3,3.5,BLOSSOMING HILLSIDE,2577,1441,2025,1,310,,Active,August-2-2025 01:00 PM,August-2-2025 04:00 PM,https://www.redfin.com/TX/Houston/4024-Blossom-St-77007/home/196757145,HARMLS,50585095,N,Y,29.7677608,-95.4014053
MLS Listing,,Condo/Co-op,1100 Uptown Park Blvd #23,Houston,TX,77056,1400000,2,2.5,Montebello Condo,2800,,2003,1,500,2884,Active,,,https://www.redfin.com/TX/Houston/1100-Uptown-Park-Blvd-77056/unit-23/home/29191555,HARMLS,48181154,N,Y,29.7564075,-95.458383
MLS Listing,,Single Family Residential,9578 W Airport Blvd,Houston,TX,77031,275000,3,2.0,Glenshire Sec 09,1769,9138,1977,1,155,,Active,,,https://www.redfin.com/TX/Houston/9578-W-Airport-Blvd-77031/home/30345406,HARMLS,43314066,N,Y,29.6416663,-95.5480319
MLS Listing,,Single Family Residential,4007 Mossy Banks Ln,Houston,TX,77068,299900,3,2.0,Cypress Creek Landing,1891,5793,2021,1,159,54,Active,,,https://www.redfin.com/TX/Houston/4007-Mossy-Banks-Ln-77068/home/177275371,HARMLS,43874639,N,Y,29.9999982,-95.4973257
MLS Listing,,Single Family Residential,7210 Shavelson St,Houston,TX,77055,835000,3,2.0,Afton Village Sec 01,2208,8398,1966,1,378,,Active,,,https://www.redfin.com/TX/Houston/7210-Shavelson-St-77055/home/30090244,HARMLS,61724897,N,Y,29.7866649,-95.4749198
MLS Listing,,Single Family Residential,18314 Harvest Star Ct,Houston,TX,77084,390000,4,2.5,Barkers Trail,3220,6623,2014,1,121,34,Active,,,https://www.redfin.com/TX/Houston/18314-Harvest-Star-Ct-77084/home/112812456,HARMLS,54244134,N,Y,29.8152979,-95.6888808
MLS Listing,,Single Family Residential,4314 Lake Cypress Cir,Houston,TX,77068,340000,4,2.5,Cypress Crk Xing Sec 1,3210,7392,2015,1,106,74,Active,,,https://www.redfin.com/TX/Houston/4314-Lake-Cypress-Cir-77068/home/112795651,HARMLS,87342223,N,Y,29.9925433,-95.4981336
MLS Listing,,Single Family Residential,6412 Winter Elm St,Houston,TX,77048,302900,4,2.0,Park Vista at El Tesoro,1506,4200,2025,1,201,,Active,,,https://www.redfin.com/TX/Houston/6412-Elm-St-77023/home/196065380,HARMLS,52971823,N,Y,29.635942,-95.315334
MLS Listing,,Condo/Co-op,2277 S Kirkwood Rd #911,Houston,TX,77077,139900,1,1.0,Oaks On Kirkwood Condo,909,215924,1983,1,154,358,Active,,,https://www.redfin.com/TX/Houston/2277-S-Kirkwood-Rd-77077/unit-911/home/30548188,HARMLS,96426129,N,Y,29.7414354,-95.5876372
MLS Listing,,Single Family Residential,1540 W Tidwell Rd,Houston,TX,77091,299900,3,2.5,Commons at West Tidwell,1441,1843,2025,1,208,115,Active,,,https://www.redfin.com/TX/Houston/1540-W-Tidwell-Rd-77091/home/182928935,HARMLS,73857544,N,Y,29.8472719,-95.4351354
MLS Listing,,Condo/Co-op,16120 Stuebner Airline Rd #601,Spring,TX,77379,139000,2,1.5,Wimbledon Pines Condo,1280,98107,1980,1,109,288,Active,,,https://www.redfin.com/TX/Spring/16120-Stuebner-Airline-Rd-77379/unit-601/home/30470383,HARMLS,45067308,N,Y,30.0131406,-95.5156528
MLS Listing,,Single Family Residential,12122 E Marsham Cir,Houston,TX,77066,210000,3,2.0,Northcliffe Manor Sec 02 Prcl,1233,6455,1981,1,170,25,Active,,,https://www.redfin.com/TX/Houston/12122-E-Marsham-Cir-77066/home/30487397,HARMLS,55459932,N,Y,29.9608859,-95.4818794
MLS Listing,,Single Family Residential,12007 Green Bluff Ct,Houston,TX,77044,246000,4,2.5,Greensbrook Sec 05,1948,7318,2009,1,126,,Active,August-2-2025 04:00 PM,August-2-2025 06:00 PM,https://www.redfin.com/TX/Houston/12007-Green-Bluff-Ct-77044/home/34038489,HARMLS,71649942,N,Y,29.8944656,-95.2133945
MLS Listing,,Single Family Residential,303 O Marcella St,Houston,TX,77091,419900,3,3.5,YALE TERRACE,1757,2331,2025,1,239,110,Active,,,https://www.redfin.com/TX/Houston/303-Marcella-St-77091/home/193850995,HARMLS,66884641,N,Y,29.845332,-95.4037368
MLS Listing,,Single Family Residential,19138 Larkspur Hills Dr,Cypress,TX,77433,274900,5,2.5,Remington Grove Sec 01,2350,6359,2004,1,117,38,Active,,,https://www.redfin.com/TX/Cypress/19138-Larkspur-Hills-Dr-77433/home/29293430,HARMLS,91166004,N,Y,29.8823486,-95.702263
MLS Listing,,Single Family Residential,6418 England,Houston,TX,77021,299000,3,2.5,England street homes,1583,4200,2005,1,189,,Active,,,https://www.redfin.com/TX/Houston/6418-England-St-77021/home/29368004,HARMLS,8523566,N,Y,29.695017,-95.3558363
MLS Listing,,Single Family Residential,3421 Simmons St,Houston,TX,77004,600000,9,9.0,George Kulhman,2038,3676,2025,1,294,,Active,,,https://www.redfin.com/TX/Houston/3421-Simmons-St-77004/home/29708167,HARMLS,76808242,N,Y,29.7276231,-95.352762
MLS Listing,,Condo/Co-op,9350 Country Creek Dr #18,Houston,TX,77036,71900,1,1.0,Westwood Gardens,710,128701,1979,1,101,260,Active,,,https://www.redfin.com/TX/Houston/9350-Country-Creek-Dr-77036/unit-18/home/30490647,HARMLS,32153108,N,Y,29.6785428,-95.5497451
MLS Listing,,Single Family Residential,835E Elkhart St,Houston,TX,77091,349900,3,3.5,ELKHART LANDING,1641,1666,2025,1,213,110,Active,,,https://www.redfin.com/TX/Houston/835-Elkhart-St-77091/home/188364161,HARMLS,29746010,N,Y,29.8524092,-95.4200949
MLS Listing,,Single Family Residential,1739 Mary St,Houston,TX,77026,369900,3,3.5,Villas At Mary,1755,1513,2025,1,211,110,Active,,,https://www.redfin.com/TX/Houston/1739-Mary-St-77026/home/188354858,HARMLS,15421109,N,Y,29.777133,-95.346857
MLS Listing,,Single Family Residential,22719 Arbor Stream Dr,Katy,TX,77450,820000,4,3.5,Cinco Ranch Cinco Forest,4246,12445,2000,1,193,96,Active,,,https://www.redfin.com/TX/Katy/22719-Arbor-Stream-Dr-77450/home/33090078,HARMLS,23770098,N,Y,29.7262256,-95.766307
MLS Listing,,Single Family Residential,807 Pinesap Dr,Houston,TX,77079,599000,4,2.5,Thornwood Sec 01,2895,8511,1968,1,207,108,Active,,,https://www.redfin.com/TX/Houston/807-Pinesap-Dr-77079/home/30214180,HARMLS,55422698,N,Y,29.7764581,-95.6091597
MLS Listing,,Vacant Land,118 Rittenhouse St,Houston,TX,77076,998000,,,Rose Manor,,26136,,1,,,Active,,,https://www.redfin.com/TX/Houston/118-Rittenhouse-St-77076/home/147138010,HARMLS,13998910,N,Y,29.8639557,-95.3799482
MLS Listing,,Single Family Residential,2125D Hoskins Dr,Houston,TX,77080,399900,3,3.5,NEUEN MANOR 28TH PAR R/P,1755,,2025,1,228,110,Active,,,https://www.redfin.com/TX/Houston/2125-Hoskins-Dr-77080/home/30012253,HARMLS,10065316,N,Y,29.8112254,-95.5232032
MLS Listing,,Single Family Residential,4762 Martin Hill St,Houston,TX,77018,425000,3,3.0,Martin Park,1953,,2025,1,218,195,Active,,,https://www.redfin.com/TX/Houston/4762-Martin-St-77018/home/196756142,HARMLS,35207918,N,Y,29.834637,-95.40616
MLS Listing,,Condo/Co-op,5542 Holly St #209,Houston,TX,77081,179900,3,2.0,Holly Villa Condo,1122,,1960,1,160,440,Active,,,https://www.redfin.com/TX/Houston/5542-Holly-St-77081/unit-209/home/30399058,HARMLS,23836770,N,Y,29.6924655,-95.4881199
MLS Listing,,Single Family Residential,2824 Lockett St,Houston,TX,77021,1750000,4,4.5,Central City,4386,9300,2014,1,399,,Active,August-2-2025 11:00 AM,August-2-2025 01:00 PM,https://www.redfin.com/TX/Houston/2824-Lockett-St-77021/home/29960346,HARMLS,26771745,N,Y,29.7019832,-95.3842144
MLS Listing,,Single Family Residential,1715 Mickle Creek Dr,Houston,TX,77049,299500,4,2.5,Sonoma Ranch Sec 02,2428,4948,2004,1,123,33,Active,August-2-2025 12:00 PM,August-2-2025 03:00 PM,https://www.redfin.com/TX/Houston/1715-Mickle-Creek-Dr-77049/home/29235292,HARMLS,92392799,N,Y,29.8071183,-95.1402546
MLS Listing,,Single Family Residential,11019 Cayman Mist Dr,Houston,TX,77075,375000,3,2.5,Bridgegate Sec 03,2577,6272,2001,1,146,,Active,,,https://www.redfin.com/TX/Houston/11019-Cayman-Mist-Dr-77075/home/30720714,HARMLS,60188358,N,Y,29.6049416,-95.2522641
MLS Listing,,Single Family Residential,5439 Darling St,Houston,TX,77007,599900,3,3.5,MELSYS,2512,1999,2025,1,239,,Active,,,https://www.redfin.com/TX/Houston/5439-Darling-St-77007/home/182929246,HARMLS,71388934,N,Y,29.7796284,-95.4197909
MLS Listing,,Townhouse,13461 Garden Grv #761,Houston,TX,77082,179000,3,2.0,Westwind T/H Sec 05 U/R,1275,1082,1983,1,140,350,Active,,,https://www.redfin.com/TX/Houston/13461-Garden-Grv-77082/unit-761/home/196755847,HARMLS,31361610,N,Y,29.726665,-95.6287292
MLS Listing,,Vacant Land,7838 Carolwood Dr,Houston,TX,77028,125000,,,Baker Place Sec 02,,7039,,1,,,Active,,,https://www.redfin.com/TX/Houston/7838-Carolwood-Dr-77028/home/30064410,HARMLS,83946853,N,Y,29.8359661,-95.2848321
MLS Listing,,Townhouse,8412 Cannon St,Houston,TX,77051,245000,4,3.0,Sunnyside Place,1996,5828,1935,1,123,,Active,,,https://www.redfin.com/TX/Houston/8412-Cannon-St-77051/home/29812537,HARMLS,56933364,N,Y,29.6699596,-95.3772903
MLS Listing,,Townhouse,1304 Castle Ct Unit A,Houston,TX,77006,759000,3,3.5,Castle Court Terrace Amd,2939,1422,2018,1,258,153,Active,,,https://www.redfin.com/TX/Houston/1304-Castle-Ct-77006/unit-A/home/112818027,HARMLS,26144182,N,Y,29.732887,-95.3949641
MLS Listing,,Single Family Residential,1937 Johanna Dr,Houston,TX,77055,387900,3,3.5,Amelia Oaks,1807,1734,2024,1,215,75,Active,August-2-2025 12:00 PM,August-2-2025 04:00 PM,https://www.redfin.com/TX/Houston/1937-Johanna-Dr-77055/home/194839396,HARMLS,12974387,N,Y,29.8065504,-95.4832584
MLS Listing,,Single Family Residential,3402 Deeds Rd,Houston,TX,77084,365000,4,2.5,Barkers Ridge Sec 02 R/P,2666,8293,1993,1,137,45,Active,,,https://www.redfin.com/TX/Houston/3402-Deeds-Rd-77084/home/30580422,HARMLS,48920789,N,Y,29.8174652,-95.6909801
MLS Listing,,Single Family Residential,1931 Johanna Dr,Houston,TX,77055,382900,3,3.5,Amelia Oaks,1755,1972,2024,1,218,75,Active,August-2-2025 12:00 PM,August-2-2025 04:00 PM,https://www.redfin.com/TX/Houston/1931-Johanna-Dr-77055/home/192527653,HARMLS,22584182,N,Y,29.8065357,-95.483259
MLS Listing,,Single Family Residential,3122 Brookdale Dr,Houston,TX,77339,295000,4,2.0,Elm Grove Village,2041,8520,1979,1,145,38,Active,,,https://www.redfin.com/TX/Kingwood/3122-Brookdale-Dr-77339/home/30358166,HARMLS,98284578,N,Y,30.0720956,-95.1932552
MLS Listing,,Vacant Land,4102 Kinkaid St,North Houston,TX,77093,320000,,,Epsom Downs Place,,63162,,1,,,Active,,,https://www.redfin.com/TX/Houston/4102-Kinkaid-St-77093/home/29984497,HARMLS,44230791,N,Y,29.8518408,-95.3256505
MLS Listing,,Townhouse,5218 Crawford St,Houston,TX,77004,799000,3,4.5,Crawford Mews,3204,1829,2015,1,249,270,Active,,,https://www.redfin.com/TX/Houston/5218-Crawford-St-77004/home/66051297,HARMLS,58128646,N,Y,29.7249444,-95.3829507
MLS Listing,,Single Family Residential,9319 Belle Park Dr,Houston,TX,77099,238600,3,2.0,Kirkwood Country Sec 01 Rep,1652,5501,1982,1,144,42,Active,,,https://www.redfin.com/TX/Houston/9319-Belle-Park-Dr-77099/home/30416744,HARMLS,77803714,N,Y,29.6770031,-95.5820636
MLS Listing,,Single Family Residential,1929 Johanna Dr,Houston,TX,77055,387900,3,3.5,Amelia Oaks,1807,1972,2024,1,215,75,Active,August-2-2025 12:00 PM,August-2-2025 04:00 PM,https://www.redfin.com/TX/Houston/1929-Johanna-Dr-77055/home/192527417,HARMLS,57685739,N,Y,29.8001455,-95.48304
MLS Listing,,Vacant Land,0 Glass St,Houston,TX,77016,149000,,,Trinity Gardens,,17998,,1,,,Active,,,https://www.redfin.com/TX/Houston/Glass-St-77016/home/29941050,HARMLS,90676696,N,Y,29.826399,-95.325222
MLS Listing,,Single Family Residential,11919 Bald Mountain Cir,Houston,TX,77067,269999,3,2.0,Camden Park Sec 02,1953,6403,1981,1,138,45,Active,,,https://www.redfin.com/TX/Houston/11919-Bald-Mountain-Cir-77067/home/30479873,HARMLS,4482184,N,Y,29.9605487,-95.4673974
MLS Listing,,Single Family Residential,1909 Johanna Dr,Houston,TX,77055,382900,3,3.5,Amelia Oaks,1755,1823,2024,1,218,75,Active,August-2-2025 12:00 PM,August-2-2025 04:00 PM,https://www.redfin.com/TX/Houston/1909-Johanna-Dr-77055/home/192527353,HARMLS,79229705,N,Y,29.8056987,-95.4832478
MLS Listing,,Single Family Residential,16407 Jadestone Terrace Ln,Houston,TX,77044,379000,3,2.0,Summerwood,2898,7609,2007,1,131,82,Active,,,https://www.redfin.com/TX/Houston/16407-Jadestone-Terrace-Ln-77044/home/29541530,HARMLS,58403707,N,Y,29.9203322,-95.1903413
MLS Listing,,Single Family Residential,215 Bayland Ave,Houston,TX,77009,2850000,4,3.5,Woodland Heights,5883,8001,1903,1,484,,Active,,,https://www.redfin.com/TX/Houston/215-Bayland-Ave-77009/home/29765649,HARMLS,96232640,N,Y,29.7870186,-95.3739034
MLS Listing,,Vacant Land,11107 Olympia Dr,Houston,TX,77042,70000,,,Lakeside Estates Sec 2,,2539,,1,,,Active,,,https://www.redfin.com/TX/Houston/11107-Olympia-Dr-77077/home/196753526,HARMLS,92700214,N,Y,29.7425557,-95.5725039
MLS Listing,,Single Family Residential,10114 Fairfax St,Houston,TX,77029,100000,3,1.0,Industrial,1124,5000,1960,1,89,,Active,,,https://www.redfin.com/TX/Houston/10114-Fairfax-St-77029/home/29835727,HARMLS,30973994,N,Y,29.7605081,-95.2512033
MLS Listing,,Single Family Residential,3415 Stonewall St,Houston,TX,77020,379900,3,2.5,VECINO HOMES AT STONEWALL,1969,2324,2025,1,193,,Active,,,https://www.redfin.com/TX/Houston/3415-Stonewall-St-77020/home/196753430,HARMLS,34707590,N,Y,29.77344,-95.3351703
MLS Listing,,Vacant Land,11109 Olympia Dr,Houston,TX,77042,70000,,,Lakeside Estates Sec 2,,2539,,1,,,Active,,,https://www.redfin.com/TX/Houston/11109-Olympia-Dr-77042/home/112823804,HARMLS,47679062,N,Y,29.742656,-95.5725862
MLS Listing,,Single Family Residential,9618 Mystic Crossing Ct,Houston,TX,77065,275000,3,2.5,Crossroads Park Sec 01 Amd,2274,7474,1992,1,121,58,Active,,,https://www.redfin.com/TX/Houston/9618-Mystic-Crossing-Ct-77065/home/30629224,HARMLS,94226009,N,Y,29.9148472,-95.6048753
MLS Listing,,Condo/Co-op,6017 Memorial Dr #505,Houston,TX,77007,1875000,2,2.5,Sophie/Bayou Bend Condo,2421,,2020,1,774,1755,Active,,,https://www.redfin.com/TX/Houston/6017-Memorial-Dr-77007/unit-505/home/176854073,HARMLS,46456728,N,Y,29.7617242,-95.4236057
MLS Listing,,Single Family Residential,7107 Harmony Cv,Houston,TX,77036,335000,4,3.0,Windwater Village At Regency,2328,1860,2000,1,144,341,Active,August-2-2025 01:00 PM,August-2-2025 04:00 PM,https://www.redfin.com/TX/Houston/7107-Harmony-Cv-77036/home/30699829,HARMLS,88056228,N,Y,29.7140385,-95.5072768
MLS Listing,,Single Family Residential,7330 Hurtgen Forest Rd,Houston,TX,77033,184900,3,2.0,South Park,1154,5327,1950,1,160,,Active,,,https://www.redfin.com/TX/Houston/7330-Hurtgen-Forest-Rd-77033/home/30014168,HARMLS,96620766,N,Y,29.6788988,-95.3459285
MLS Listing,,Vacant Land,11121 Olympia Dr,Houston,TX,77042,80000,,,Lakeside Estates Sec 2,,2539,,1,,,Active,,,https://www.redfin.com/TX/Houston/11121-Olympia-Dr-77077/home/196752737,HARMLS,12777661,N,Y,29.7424399,-95.5728847
MLS Listing,,Single Family Residential,11618 Lakeside Place Dr,Houston,TX,77077,649999,4,2.5,Lakeside Place,2881,11046,1977,1,226,83,Active,August-1-2025 04:00 PM,August-1-2025 07:00 PM,https://www.redfin.com/TX/Houston/11618-Lakeside-Place-Dr-77077/home/30294182,HARMLS,51216135,N,Y,29.7543083,-95.582591
MLS Listing,,Vacant Land,TBD Fm-1960 E,Humble,TX,77346,200000,,,Atascocita Town Center Sec 01,,39247,,1,,,Active,,,https://www.redfin.com/TX/Huffman/TBD-Road-E-Unknown/home/175297607,HARMLS,78535391,N,Y,29.998047,-95.171764
MLS Listing,,Vacant Land,11119 Olympia Dr,Houston,TX,77042,80000,,,Lakeside Estates Sec 2,,2539,,1,,,Active,,,https://www.redfin.com/TX/Houston/11119-Olympia-Dr-77077/home/196752666,HARMLS,10760603,N,Y,29.7424217,-95.5725321
MLS Listing,,Single Family Residential,5302 Lavender St,Houston,TX,77026,159900,3,1.0,Kashmere Gardens Park,1176,11399,1950,1,136,,Active,,,https://www.redfin.com/TX/Houston/5302-Lavender-St-77026/home/29938549,HARMLS,34748610,N,Y,29.808413,-95.3204254
MLS Listing,,Single Family Residential,1719 Crockett St,Houston,TX,77007,699000,3,2.0,Baker Nsbb,1392,5898,1930,1,502,,Active,August-3-2025 02:00 PM,August-3-2025 04:00 PM,https://www.redfin.com/TX/Houston/1719-Crockett-St-77007/home/29649540,HARMLS,80616727,N,Y,29.7735387,-95.3756865
MLS Listing,,Single Family Residential,5902 Balbo St,Houston,TX,77091,359328,3,2.5,Highland Heights Anx Sec 4,1818,1971,2025,1,198,73,Active,,,https://www.redfin.com/TX/Houston/5902-Balbo-St-77091/home/196752639,HARMLS,92385338,N,Y,29.8514402,-95.4546036
MLS Listing,,Vacant Land,2206 Wilcrest Dr,Houston,TX,77042,80000,,,Lakeside Estates Sec 2,,2539,,1,,,Active,,,https://www.redfin.com/TX/Houston/2206-Wilcrest-Dr-77042/home/196752637,HARMLS,14245367,N,Y,29.7426706,-95.572565
MLS Listing,,Single Family Residential,1438 Nashua St,Houston,TX,77008,690000,3,2.5,Houston Heights,2469,2500,2025,1,279,,Active,,,https://www.redfin.com/TX/Houston/1438-Nashua-St-77008/home/29771532,HARMLS,72487047,N,Y,29.79743,-95.412284
MLS Listing,,Vacant Land,2204 Wilcrest Dr,Houston,TX,77042,80000,,,Lakeside Estates Sec 2,,2539,,1,,,Active,,,https://www.redfin.com/TX/Houston/2204-Wilcrest-Dr-77042/home/196752626,HARMLS,93669389,N,Y,29.7426744,-95.572565
MLS Listing,,Townhouse,741 Bringhurst,Houston,TX,77020,399900,2,2.5,Cage Street Landing,1691,,2025,1,236,182,Active,,,https://www.redfin.com/TX/Houston/741-Bringhurst-St-77020/home/112822443,HARMLS,27777059,N,Y,29.768576,-95.334023
MLS Listing,,Single Family Residential,6030 Ballina Canyon Ln,Houston,TX,77041,615000,4,3.5,Lakes/Eldridge North Sec 9,3539,8751,2002,1,174,119,Active,August-3-2025 02:00 PM,August-3-2025 04:00 PM,https://www.redfin.com/TX/Houston/6030-Ballina-Canyon-Ln-77041/home/29164158,HARMLS,11107280,N,Y,29.8594179,-95.5972481
MLS Listing,,Single Family Residential,15806 Corsair Rd,Houston,TX,77053,189000,3,2.0,Ridgegate Sub Sec 1,1819,11147,1977,1,104,12,Active,,,https://www.redfin.com/TX/Houston/15806-Corsair-Rd-77053/home/33014563,HARMLS,76960214,N,Y,29.5987822,-95.4775622
MLS Listing,,Townhouse,2246 Bancroft St,Houston,TX,77027,600000,3,3.5,BANCROFT SQUARE,2422,1575,2002,1,248,300,Active,August-2-2025 02:00 PM,August-2-2025 04:00 PM,https://www.redfin.com/TX/Houston/2246-Bancroft-St-77027/home/30724947,HARMLS,64224550,N,Y,29.7442332,-95.4520522
MLS Listing,,Single Family Residential,7814 Beckley St,Houston,TX,77088,320000,3,2.5,Highland Add,1871,3001,2025,1,171,,Active,,,https://www.redfin.com/TX/Houston/7814-Beckley-St-77088/home/196752321,HARMLS,63448602,N,Y,29.8717775,-95.4401354
MLS Listing,,Single Family Residential,5215 Kingsbury St,Houston,TX,77021,225000,3,2.0,Macgregor Palms Sec 01,1332,6494,2015,1,169,,Active,,,https://www.redfin.com/TX/Houston/5215-Kingsbury-St-77021/home/30035425,HARMLS,78275607,N,Y,29.6949144,-95.3370284
MLS Listing,,Single Family Residential,7711 Avenue L,Houston,TX,77012,249000,3,2.0,Magnolia Park Sec 02,1208,3720,1930,1,206,,Active,,,https://www.redfin.com/TX/Houston/7711-Avenue-L-77012/home/29720743,HARMLS,4554618,N,Y,29.7387941,-95.2845463
MLS Listing,,Single Family Residential,9139 La Pau Ln,Houston,TX,77051,415000,3,2.5,Piccolina,2045,3000,,1,203,100,Active,August-1-2025 12:00 PM,August-1-2025 05:00 PM,https://www.redfin.com/TX/Houston/9139-La-Pau-Ln-77051/home/196752047,HARMLS,84603901,N,Y,29.6585321,-95.3945393
MLS Listing,,Single Family Residential,14103 Owens Rd,Houston,TX,77095,414000,4,2.0,Hearthstone Sec 06,2799,10245,1990,1,148,47,Active,,,https://www.redfin.com/TX/Houston/14103-Owens-Rd-77095/home/30591418,HARMLS,27465907,N,Y,29.892029,-95.6209978
MLS Listing,,Single Family Residential,6811 Feather Creek Dr,Houston,TX,77086,199900,3,2.0,Northwest Park Sec 04,1205,6930,1976,1,166,,Active,,,https://www.redfin.com/TX/Houston/6811-Feather-Creek-Dr-77086/home/30347927,HARMLS,96946901,N,Y,29.931186,-95.4877034
MLS Listing,,Single Family Residential,1826 Woodcrest Dr,Houston,TX,77018,655000,3,2.0,Oak Forest Sec 10,1657,7200,1950,1,395,,Active,,,https://www.redfin.com/TX/Houston/1826-Woodcrest-Dr-77018/home/29993696,HARMLS,34635076,N,Y,29.8228862,-95.4459504
MLS Listing,,Single Family Residential,5519 Casa Calvet Dr,Katy,TX,77449,295000,4,3.0,Plantation Lakes Sec 18,2381,5501,2014,1,124,41,Active,,,https://www.redfin.com/TX/Katy/5519-Casa-Calvet-Dr-77449/home/110186343,HARMLS,28145832,N,Y,29.8512768,-95.711412
MLS Listing,,Single Family Residential,9411 Sutter Park Ln,Houston,TX,77086,250000,3,2.0,Willowood,1373,6298,1979,1,182,30,Active,August-3-2025 01:00 PM,August-3-2025 03:00 PM,https://www.redfin.com/TX/Houston/9411-Sutter-Park-Ln-77086/home/30394375,HARMLS,34547499,N,Y,29.9166601,-95.4989938
MLS Listing,,Single Family Residential,2519 Foxville Dr,Houston,TX,77067,295000,4,2.5,Heritage Village Sec 2,2822,10114,2000,1,105,40,Active,,,https://www.redfin.com/TX/Houston/2519-Foxville-Dr-77067/home/30719735,HARMLS,80700273,N,Y,29.9610667,-95.460403
MLS Listing,,Single Family Residential,2205 Diagonal Ln,Houston,TX,77051,375000,3,2.5,Piccolina,1637,3285,,1,229,100,Active,August-1-2025 12:00 PM,August-1-2025 05:00 PM,https://www.redfin.com/TX/Houston/2205-Diagonal-Ln-77051/home/195071554,HARMLS,46972510,N,Y,29.6581985,-95.3970569
MLS Listing,,Single Family Residential,1919 Rosewood St,Houston,TX,77004,575000,3,2.5,View/Rosewood,2530,2953,2018,1,227,,Active,,,https://www.redfin.com/TX/Houston/1919-Rosewood-St-77004/home/112818667,HARMLS,40260480,N,Y,29.7287388,-95.3750354
MLS Listing,,Single Family Residential,19943 Black Pearl Ct,Houston,TX,77073,249900,3,2.0,Imperial Green Sec 01,1541,5501,2004,1,162,50,Active,,,https://www.redfin.com/TX/Houston/19943-Black-Pearl-Ct-77073/home/29294372,HARMLS,75826264,N,Y,29.9815633,-95.4035361
MLS Listing,,Vacant Land,4616 Ward St,Houston,TX,77021,79900,,,Paris Ward Homes,,2748,,1,,,Active,,,https://www.redfin.com/TX/Houston/4616-Ward-St-77021/home/186277152,HARMLS,97773123,N,Y,29.6886472,-95.3515757
MLS Listing,,Single Family Residential,5931 Beall St Unit C,Houston,TX,77091,359999,3,2.5,SERENITY GROVE AT BEALL,1861,2400,2024,1,193,,Active,,,https://www.redfin.com/TX/Houston/5931-Beall-St-77091/unit-C/home/194153695,HARMLS,70937822,N,Y,29.851827,-95.418161
MLS Listing,,Single Family Residential,910 Imperial Ln,Houston,TX,77336,370000,3,2.5,Hidden Echo U/R,2212,27678,1968,1,167,,Active,,,https://www.redfin.com/TX/Huffman/910-Imperial-Ln-77336/home/30172857,HARMLS,83091355,N,Y,30.0535805,-95.1159498
MLS Listing,,Multi-Family (2-4 Unit),5931 Beall St Unit A-B,Houston,TX,77091,719888,3,2.0,SERENITY GROVE AT BEALL,3722,,2024,1,193,,Active,,,https://www.redfin.com/TX/Houston/5931-Beall-St-77091/unit-A-B/home/196285984,HARMLS,36035481,N,Y,29.851827,-95.418161
MLS Listing,,Multi-Family (2-4 Unit),5931 Beall St Unit A-D,Houston,TX,77091,1429000,3,2.0,SERENITY GROVE AT BEALL,7444,,2024,1,192,,Active,,,https://www.redfin.com/TX/Houston/5931-Beall-St-77091/unit-A-D/home/196353259,HARMLS,52795141,N,Y,29.851827,-95.418161
MLS Listing,,Single Family Residential,1102 Helms Rd,Houston,TX,77088,239900,3,2.0,Hidden Valley Sec 04,1357,7148,1968,1,177,,Active,,,https://www.redfin.com/TX/Houston/1102-Helms-Rd-77088/home/30180921,HARMLS,11299452,N,Y,29.8969612,-95.4198655
MLS Listing,,Condo/Co-op,651 Bering Dr #1705,Houston,TX,77057,349000,2,2.0,Woodway Place II,1528,,1983,1,228,1200,Active,,,https://www.redfin.com/TX/Houston/651-Bering-Dr-77057/unit-1705/home/30542391,HARMLS,24168508,N,Y,29.7625081,-95.478937
MLS Listing,,Single Family Residential,11011 Burningbush Ln,Houston,TX,77016,150000,3,1.5,Northwood Manor Sec 08,1092,8838,1974,1,137,,Active,,,https://www.redfin.com/TX/Houston/11011-Burningbush-Ln-77016/home/30305330,HARMLS,57760258,N,Y,29.8756902,-95.2850566
MLS Listing,,Single Family Residential,16014 Verdi Way Ct,Houston,TX,77044,725000,5,4.5,Lakeshore,5162,14547,2012,1,140,77,Active,,,https://www.redfin.com/TX/Houston/16014-Verdi-Way-Ct-77044/home/52559325,HARMLS,86257877,N,Y,29.9586859,-95.1668291
MLS Listing,,Single Family Residential,5931 Beall St Unit D,Houston,TX,77091,359999,3,2.5,SERENITY GROVE AT BEALL,1861,2400,2024,1,193,,Active,,,https://www.redfin.com/TX/Houston/5931-Beall-St-77091/unit-D/home/193203729,HARMLS,59218441,N,Y,29.851827,-95.418161
MLS Listing,,Single Family Residential,14102 Briarhills Pkwy,Houston,TX,77077,435000,4,2.5,Briarhills Sec 01,2912,5776,1975,1,149,83,Active,August-2-2025 01:00 PM,August-2-2025 03:00 PM,https://www.redfin.com/TX/Houston/14102-Briarhills-Pkwy-77077/home/30326833,HARMLS,90957090,N,Y,29.7696801,-95.6351364
MLS Listing,,Vacant Land,0 Crofton St,Houston,TX,77016,173200,,,Barclay Place Sec 03,,21649,,1,,,Active,,,https://www.redfin.com/TX/Houston/Crofton-St-77016/home/29977131,HARMLS,67910896,N,Y,29.847991,-95.299109
MLS Listing,,Single Family Residential,12015 Barazzieh Ct,Richmond,TX,77406,420000,3,2.0,Lakes Of Bella Terra West Sec 3,2126,6743,2019,1,198,83,Active,August-3-2025 02:00 PM,August-3-2025 04:00 PM,https://www.redfin.com/TX/Richmond/12015-Barazzieh-Ct-77406/home/169848881,HARMLS,79007745,N,Y,29.6969628,-95.8012694
MLS Listing,,Single Family Residential,9443 Fannin St,Houston,TX,77045,395000,3,3.5,Fannin Station,2208,1424,2014,1,179,278,Active,August-3-2025 03:00 PM,August-3-2025 05:00 PM,https://www.redfin.com/TX/Houston/9443-Fannin-St-77045/home/62344542,HARMLS,42045498,N,Y,29.6658155,-95.4021124
MLS Listing,,Single Family Residential,2209 Stevens St,Houston,TX,77026,449900,3,2.5,Stevens Landing,1891,3484,2024,1,238,,Active,August-2-2025 02:00 PM,August-2-2025 04:00 PM,https://www.redfin.com/TX/Houston/2209-Stevens-St-77026/home/191468428,HARMLS,55569774,N,Y,29.7820535,-95.3441949
MLS Listing,,Single Family Residential,14502 Sandalfoot St,Houston,TX,77095,385000,4,2.5,Hearthstone Sec 07,3013,6189,1987,1,128,48,Active,,,https://www.redfin.com/TX/Houston/14502-Sandalfoot-St-77095/home/30586010,HARMLS,53331096,N,Y,29.8940316,-95.6262248
MLS Listing,,Single Family Residential,12223 Briar Forest Dr,Houston,TX,77077,265000,3,2.0,Country Village Sec 01 R/P,2205,8415,1975,1,120,83,Active,,,https://www.redfin.com/TX/Houston/12223-Briar-Forest-Dr-77077/home/30301545,HARMLS,34232417,N,Y,29.7523366,-95.5953937
MLS Listing,,Single Family Residential,1314 Richelieu Ln,Houston,TX,77018,1925000,4,5.5,Oak Forest Sec 03,5039,7318,2025,1,382,,Active,August-3-2025 01:00 PM,August-3-2025 03:00 PM,https://www.redfin.com/TX/Houston/1314-Richelieu-Ln-77018/home/29992125,HARMLS,90773006,N,Y,29.8355715,-95.4334255
MLS Listing,,Single Family Residential,2207 Stevens St,Houston,TX,77026,449900,3,3.5,Stevens Landing,1891,3484,2024,1,238,,Active,August-3-2025 02:00 PM,August-3-2025 04:00 PM,https://www.redfin.com/TX/Houston/2207-Stevens-St-77026/home/29745445,HARMLS,76410280,N,Y,29.7820128,-95.3442048
MLS Listing,,Single Family Residential,5014 Yellowstone Blvd,Houston,TX,77021,213000,3,2.0,Macgregor Terrace,1190,6381,1955,1,179,,Active,,,https://www.redfin.com/TX/Houston/5014-Yellowstone-Blvd-77021/home/30035866,HARMLS,33137170,N,Y,29.6883331,-95.3447108
MLS Listing,,Single Family Residential,2407 Mountain Lake Dr,Kingwood,TX,77345,499900,4,3.5,Kings Point Village,3153,10798,1988,1,159,68,Active,,,https://www.redfin.com/TX/Kingwood/2407-Mountain-Lake-Dr-77345/home/30607963,HARMLS,5025858,N,Y,30.0549511,-95.1581743
MLS Listing,,Single Family Residential,6307 Francis Marion Dr,Houston,TX,77091,330000,4,3.0,Sheraton Oaks,2256,8006,1970,1,146,25,Active,,,https://www.redfin.com/TX/Houston/6307-Francis-Marion-Dr-77091/home/30196467,HARMLS,88484733,N,Y,29.8585678,-95.4669222
MLS Listing,,Single Family Residential,1547 Hewitt Dr,Houston,TX,77018,799900,3,2.5,Oak Forest Sec Add 09,2157,8751,1954,1,371,,Active,August-2-2025 12:00 PM,August-2-2025 03:00 PM,https://www.redfin.com/TX/Houston/1547-Hewitt-Dr-77018/home/29993221,HARMLS,12120004,N,Y,29.8321134,-95.4401123
MLS Listing,,Single Family Residential,5010 Hastingwood Dr,Houston,TX,77084,470000,4,3.5,Deerfield Village Sec 05,2874,8999,1988,1,164,81,Active,,,https://www.redfin.com/TX/Houston/5010-Hastingwood-Dr-77084/home/30538197,HARMLS,82783322,N,Y,29.8446633,-95.6823632
MLS Listing,,Townhouse,15600 Barkers Landing Rd #20,Houston,TX,77079,509900,3,2.5,Barker Place T/H,3228,5112,1981,1,158,333,Active,August-2-2025 01:00 PM,August-2-2025 03:00 PM,https://www.redfin.com/TX/Houston/15600-Barkers-Landing-Rd-77079/unit-20/home/30418213,HARMLS,80508199,N,Y,29.7792188,-95.6311723
MLS Listing,,Condo/Co-op,8101 Amelia Rd #507,Houston,TX,77055,134900,2,1.5,Spenwick Village T/H Condo 01,1269,90772,1977,1,106,334,Active,August-9-2025 01:00 PM,August-9-2025 03:00 PM,https://www.redfin.com/TX/Houston/8101-Amelia-Rd-77055/unit-507/home/30385331,HARMLS,56388730,N,Y,29.8054922,-95.4900016
MLS Listing,,Single Family Residential,8306 Hot Springs Dr,Houston,TX,77095,340000,4,2.5,Copperfield Middlegate Village,2336,8729,1984,1,146,58,Active,,,https://www.redfin.com/TX/Houston/8306-Hot-Springs-Dr-77095/home/30530574,HARMLS,19971508,N,Y,29.8999655,-95.6476231
MLS Listing,,Single Family Residential,19130 Timber Trace Dr,Humble,TX,77346,299999,3,2.0,Atascocita South,1833,6281,1992,1,164,41,Active,,,https://www.redfin.com/TX/Humble/19130-Timber-Trace-Dr-77346/home/30598016,HARMLS,67611142,N,Y,29.9949356,-95.1707622
MLS Listing,,Single Family Residential,3009 Jensen Springs Ln,Houston,TX,77026,319900,3,2.5,Jensen Landing,1583,1850,2025,1,202,117,Active,August-2-2025 12:00 PM,August-2-2025 04:00 PM,https://www.redfin.com/TX/Houston/3009-Jensen-Springs-Ln-77026/home/182921474,HARMLS,71037621,N,Y,29.789904,-95.34315
MLS Listing,,Single Family Residential,6214 Clayridge Dr,Houston,TX,77053,222000,3,2.0,Ridgegate Sub Sec 3,1412,6407,1982,1,157,20,Active,,,https://www.redfin.com/TX/Houston/6214-Clayridge-Dr-77053/home/33014547,HARMLS,74974121,N,Y,29.5954946,-95.4774141
MLS Listing,,Single Family Residential,11129 Olympia Dr,Houston,TX,77042,415000,4,3.5,Lakeside Estates Sec 2 Pt Re,2904,2901,2015,1,143,150,Active,,,https://www.redfin.com/TX/Houston/11129-Olympia-Dr-77042/home/112823459,HARMLS,66477683,N,Y,29.7425743,-95.5730008
MLS Listing,,Vacant Land,4113 Elysian St,Houston,TX,77009,195000,,,Ryon,,5000,,1,,,Active,,,https://www.redfin.com/TX/Houston/4113-Elysian-St-77009/home/29740725,HARMLS,14528902,N,Y,29.7980337,-95.35156
MLS Listing,,Single Family Residential,6822 Escondido Dr,Houston,TX,77083,292000,3,2.0,Mission Bend Sec 01,1694,7562,1978,1,172,32,Active,,,https://www.redfin.com/TX/Houston/6822-Escondido-Dr-77083/home/30353028,HARMLS,8092241,N,Y,29.7035076,-95.6668105
MLS Listing,,Single Family Residential,14611 S Hearthstone Green Dr,Houston,TX,77095,385000,3,2.5,HEARTHSTONE,2708,5079,1984,1,142,45,Active,,,https://www.redfin.com/TX/Houston/14611-S-Hearthstone-Green-Dr-77095/home/30418067,HARMLS,51341880,N,Y,29.8828392,-95.6267176
MLS Listing,,Single Family Residential,1609 Park St,Houston,TX,77019,1049900,4,3.5,PARK STREET VISTA,3009,2500,2025,1,349,,Active,August-3-2025 12:00 PM,August-3-2025 02:00 PM,https://www.redfin.com/TX/Houston/1609-Park-St-77019/home/196116054,HARMLS,98839661,N,Y,29.7513423,-95.4028197
MLS Listing,,Single Family Residential,2918 Stoney Wood Dr,Houston,TX,77082,250000,3,2.5,Parkhollow Place,2295,13368,1982,1,109,50,Active,,,https://www.redfin.com/TX/Houston/2918-Stoney-Wood-Dr-77082/home/30461709,HARMLS,72635986,N,Y,29.7286557,-95.6179304
MLS Listing,,Single Family Residential,5506 Russett Dr,Houston,TX,77056,4500000,6,8.0,Tanglewood,10228,44169,2008,1,440,138,Active,,,https://www.redfin.com/TX/Houston/5506-Russett-Dr-77056/home/30069255,HARMLS,54430649,N,Y,29.7634135,-95.477276
MLS Listing,,Single Family Residential,1241 W 24th St Unit C,Houston,TX,77008,499990,3,3.5,Villas Santa Lucia,2112,1807,2008,1,237,,Active,,,https://www.redfin.com/TX/Houston/1241-W-24th-St-77008/unit-C/home/29552343,HARMLS,87521727,N,Y,29.807881,-95.4219587
MLS Listing,,Condo/Co-op,8427 Hearth Dr,Houston,TX,77054,90000,2,2.0,Hearthwood Condo Sec 01,1274,644316,1979,1,71,450,Active,,,https://www.redfin.com/TX/Houston/8427-Hearth-Dr-77054/home/30445010,HARMLS,16104722,N,Y,29.6804038,-95.4181987
MLS Listing,,Single Family Residential,8103 Autumn Willow Dr,Tomball,TX,77375,229900,3,2.0,Willow Forest Sec 01 R/P,1700,9600,1976,1,135,46,Active,August-2-2025 01:00 PM,August-2-2025 03:00 PM,https://www.redfin.com/TX/Tomball/8103-Autumn-Willow-Dr-77375/home/30308253,HARMLS,90657922,N,Y,30.0981012,-95.545518
MLS Listing,,Single Family Residential,5411 Graystone Ln,Houston,TX,77069,575000,4,3.0,Huntwick Forest Sec 07,3309,9600,1973,1,174,14,Active,,,https://www.redfin.com/TX/Houston/5411-Graystone-Ln-77069/home/30277523,HARMLS,81102966,N,Y,29.9850955,-95.5151648
MLS Listing,,Single Family Residential,3002 Jensen Springs Ln,Houston,TX,77026,324900,3,2.5,Jensen Landing,1506,1840,2025,1,216,117,Active,August-2-2025 12:00 PM,August-2-2025 04:00 PM,https://www.redfin.com/TX/Houston/3002-Jensen-Springs-Ln-77026/home/182921463,HARMLS,54713644,N,Y,29.7897528,-95.3428354
MLS Listing,,Single Family Residential,9603 Carousel Ln,Houston,TX,77080,1189000,5,4.5,Campbell Woods,4089,7701,2026,1,291,2,Active,,,https://www.redfin.com/TX/Houston/9603-Carousel-Ln-77080/home/30106041,HARMLS,78064291,N,Y,29.8136785,-95.5292293
MLS Listing,,Townhouse,2503 Marilee Ln #3,Houston,TX,77057,91500,1,1.0,Marble Arch Condo,788,279373,1965,1,116,525,Active,,,https://www.redfin.com/TX/Houston/2503-Marilee-Ln-77057/unit-3/home/30392351,HARMLS,57613575,N,Y,29.7404327,-95.497892
MLS Listing,,Condo/Co-op,3350 Mccue Rd #2301,Houston,TX,77056,299000,2,2.0,Bristol Condo,1415,,1983,1,211,1556,Active,,,https://www.redfin.com/TX/Houston/3350-McCue-Rd-77056/unit-2301/home/30574494,HARMLS,91081168,N,Y,29.7295433,-95.4649825
MLS Listing,,Single Family Residential,10534 Moorcreek Dr,Houston,TX,77070,430000,4,3.5,Northchester Sec 03,2966,22172,1981,1,145,21,Active,,,https://www.redfin.com/TX/Houston/10534-Moorcreek-Dr-77070/home/30264196,HARMLS,31639835,N,Y,29.9807062,-95.5800889
MLS Listing,,Single Family Residential,2708 Glen Haven Blvd,Houston,TX,77025,895000,3,2.0,Cambridge Green Sec 01,2475,7866,1979,1,362,245,Active,,,https://www.redfin.com/TX/Houston/2708-Glen-Haven-Blvd-77025/home/30394685,HARMLS,56868533,N,Y,29.7023291,-95.4204033
MLS Listing,,Single Family Residential,9313 Livernois Rd,Houston,TX,77080,674000,4,3.0,Spring Branch Oaks,3000,14383,1949,1,225,,Active,August-1-2025 05:00 PM,August-1-2025 07:00 PM,https://www.redfin.com/TX/Houston/9313-Livernois-Rd-77080/home/30048711,HARMLS,96109734,N,Y,29.8047174,-95.5178519
MLS Listing,,Single Family Residential,13511 Lyndonville Dr,Houston,TX,77041,304900,3,2.0,Concord Bridge Sec 01,1520,5998,1982,1,201,42,Active,,,https://www.redfin.com/TX/Houston/13511-Lyndonville-Dr-77041/home/30502240,HARMLS,14819787,N,Y,29.8615942,-95.6135373
MLS Listing,,Single Family Residential,7615 Nevaeh Crest Path,Houston,TX,77016,255000,3,2.0,Towne Park Dev,1444,5048,2020,1,177,17,Active,,,https://www.redfin.com/TX/Houston/7615-Nevaeh-Crest-Path-77016/home/173667795,HARMLS,18941641,N,Y,29.8690321,-95.290956
MLS Listing,,Townhouse,2023 Gentryside Dr #508,Houston,TX,77077,175000,2,2.5,Reflections On Lake Condo,1488,165109,1985,1,118,547,Active,,,https://www.redfin.com/TX/Houston/2023-Gentryside-Dr-77077/unit-508/home/30597165,HARMLS,6246779,N,Y,29.7441366,-95.6181562
MLS Listing,,Single Family Residential,7918 Winehill Ln,Houston,TX,77040,285000,4,3.0,Courtyard Homes 03 Sec 02 Prcl,1792,5959,1993,1,159,27,Active,August-3-2025 02:00 PM,August-3-2025 04:00 PM,https://www.redfin.com/TX/Houston/7918-Winehill-Ln-77040/home/30552567,HARMLS,65462528,N,Y,29.8929448,-95.5189505
MLS Listing,,Single Family Residential,12511 Ridgelow Ln,Houston,TX,77070,209900,3,1.0,Tallow Wood,995,7474,1981,1,211,33,Active,,,https://www.redfin.com/TX/Houston/12511-Ridgelow-Ln-77070/home/30431777,HARMLS,23466590,N,Y,29.953884,-95.5667119
MLS Listing,,Single Family Residential,18107 Fairhope Oak St,Houston,TX,77084,320000,4,2.5,Barkers Xing Sec 01,3000,4726,2009,1,107,32,Active,August-3-2025 02:00 PM,August-3-2025 04:00 PM,https://www.redfin.com/TX/Houston/18107-Fairhope-Oak-St-77084/home/34188678,HARMLS,62768072,N,Y,29.8131395,-95.6803721
MLS Listing,,Single Family Residential,10111 Horseshoe Bend Dr,Houston,TX,77064,265000,3,2.0,Winchester Country Sec 06,1848,7701,1982,1,143,28,Active,,,https://www.redfin.com/TX/Houston/10111-Horseshoe-Bend-Dr-77064/home/30531966,HARMLS,83224303,N,Y,29.9157205,-95.5689392
MLS Listing,,Single Family Residential,12438 Palmfree St,Houston,TX,77034,259900,6,2.0,Gulf Palms Sec 02,2050,7801,1958,1,127,,Active,,,https://www.redfin.com/TX/Houston/12438-Palmfree-St-77034/home/30090556,HARMLS,81426571,N,Y,29.625325,-95.2026117
MLS Listing,,Condo/Co-op,12633 Memorial Dr #186,Houston,TX,77024,155000,2,2.0,Pines Condo,1152,675177,1969,1,135,475,Active,,,https://www.redfin.com/TX/Houston/12633-Memorial-Dr-77024/unit-186/home/30395249,HARMLS,60743382,N,Y,29.7657871,-95.5569737
MLS Listing,,Multi-Family (2-4 Unit),1637 Castle Ct,Houston,TX,77006,749950,2,2.0,Castle Court,2332,6000,1939,1,322,,Active,August-2-2025 02:00 PM,August-2-2025 04:00 PM,https://www.redfin.com/TX/Houston/1637-Castle-Ct-77006/home/29771899,HARMLS,87029328,N,Y,29.7317491,-95.4012155
MLS Listing,,Single Family Residential,1022 Kemberton Dr,Houston,TX,77062,319999,3,2.5,Oakbrook West Sec 04,2042,9631,1978,1,157,6,Active,August-3-2025 02:00 PM,August-3-2025 04:00 PM,https://www.redfin.com/TX/Houston/1022-Kemberton-Dr-77062/home/30347468,HARMLS,87340745,N,Y,29.5754778,-95.1376596
MLS Listing,,Single Family Residential,3570 Blue Mockingbird St,Katy,TX,77494,347490,3,2.5,Villarosa Tamarron,1820,,2025,1,191,108,Active,,,https://www.redfin.com/TX/Katy/23400-Kingsland-Blvd-77494/home/190570948,HARMLS,86683173,N,Y,29.7740315,-95.7805599
MLS Listing,,Single Family Residential,1115 Sunny Dr,Houston,TX,77037,230000,4,2.0,Melrose Park Sec 03,1339,6534,1969,1,172,,Active,,,https://www.redfin.com/TX/Houston/1115-Sunny-Dr-77037/home/30212002,HARMLS,86428672,N,Y,29.8813236,-95.3747416
MLS Listing,,Single Family Residential,18707 Polo Meadow Dr,Humble,TX,77346,334900,5,4.0,Walden On Lake Houston,2908,7980,2003,1,115,35,Active,,,https://www.redfin.com/TX/Humble/18707-Polo-Meadow-Dr-77346/home/30603842,HARMLS,25342726,N,Y,29.9869087,-95.1612497
MLS Listing,,Single Family Residential,11522 Legend Manor Dr,Houston,TX,77082,899000,4,3.5,Royal Oaks Country Club,3641,9317,2004,1,247,275,Active,,,https://www.redfin.com/TX/Houston/11522-Legend-Manor-Dr-77082/home/29173962,HARMLS,46288020,N,Y,29.7206096,-95.5821427
MLS Listing,,Vacant Land,5621 Harrisburg Blvd,Houston,TX,77011,799000,,,Fullerton Place,,8184,,1,,,Active,,,https://www.redfin.com/TX/Houston/5621-Harrisburg-Blvd-77011/home/196742730,HARMLS,4343674,N,Y,29.7410826,-95.3187818
MLS Listing,,Condo/Co-op,101 Westcott St #2001,Houston,TX,77007,5700000,4,5.5,BAYOU BEND TOWERS CONDO 10,7156,,1981,1,797,7150,Active,,,https://www.redfin.com/TX/Houston/101-Westcott-St-77007/unit-2001/home/30523517,HARMLS,27778960,N,Y,29.7599115,-95.4209982
MLS Listing,,Multi-Family (2-4 Unit),1511 Scharpe St,Houston,TX,77023,499000,1,,Broadmoor Add,1585,6250,1935,1,315,,Active,,,https://www.redfin.com/TX/Houston/1511-Scharpe-St-77023/home/29828406,HARMLS,65077253,N,Y,29.7257711,-95.3295846
MLS Listing,,Single Family Residential,17603 Prospect Meadows Dr,Houston,TX,77095,315000,4,2.5,Canyon Lakes Village,2225,5972,2004,1,142,103,Active,,,https://www.redfin.com/TX/Houston/17603-Prospect-Meadows-Dr-77095/home/29234957,HARMLS,75427500,N,Y,29.9250236,-95.6845337
MLS Listing,,Townhouse,4031 Bellefontaine St #130,Houston,TX,77025,415000,2,2.5,Maison Fontaine,1458,,2013,1,285,450,Active,,,https://www.redfin.com/TX/Houston/4031-Bellefontaine-St-77025/unit-130/home/50260149,HARMLS,58761621,N,Y,29.702995,-95.441734
MLS Listing,,Single Family Residential,10523 Sageburrow Dr,Houston,TX,77089,225000,3,2.0,Kirkwood South Sec 03 R/P,2121,7701,1976,1,106,16,Active,,,https://www.redfin.com/TX/Houston/10523-Sageburrow-Dr-77089/home/30313553,HARMLS,26638782,N,Y,29.5950302,-95.2358688
MLS Listing,,Single Family Residential,5207 Amber Sunrise Dr,Houston,TX,77018,424700,3,2.5,Pinemont Oaks Extn,1806,2064,2024,1,235,125,Active,August-2-2025 02:00 PM,August-2-2025 05:00 PM,https://www.redfin.com/TX/Houston/5207-Amber-Sunrise-Dr-77018/home/188348402,HARMLS,96910536,N,Y,29.841357,-95.414111
MLS Listing,,Single Family Residential,5217 Amber Sunrise Dr,Houston,TX,77018,424700,3,2.5,Pinemont Oaks Extn,1806,2064,2024,1,235,125,Active,August-2-2025 02:00 PM,August-2-2025 05:00 PM,https://www.redfin.com/TX/Houston/5217-Amber-Sunrise-Dr-77018/home/188348407,HARMLS,94391597,N,Y,29.841693,-95.414121
MLS Listing,,Townhouse,5208 Amber Sunrise Dr,Houston,TX,77018,424700,3,2.5,Pinemont Oaks Extn,1806,2064,2024,1,235,125,Active,August-2-2025 02:00 PM,August-2-2025 05:00 PM,https://www.redfin.com/TX/Houston/5208-Amber-Sunrise-Dr-77018/home/188348422,HARMLS,8656268,N,Y,29.841431,-95.413754
MLS Listing,,Single Family Residential,2923 Laurel Mill Way,Houston,TX,77080,424900,4,2.5,Villas @ Spring Shadows,2315,2670,2019,1,184,125,Active,August-9-2025 11:00 AM,August-9-2025 01:00 PM,https://www.redfin.com/TX/Houston/2923-Laurel-Mill-Way-77080/home/167828210,HARMLS,49916924,N,Y,29.8256305,-95.546246
MLS Listing,,Single Family Residential,806 Glowing Dawn Dr,Houston,TX,77018,419700,3,2.5,Pinemont OAKS EXTN,1932,2108,2024,1,217,125,Active,August-2-2025 02:00 PM,August-2-2025 05:00 PM,https://www.redfin.com/TX/Houston/806-Glowing-Dawn-Dr-77018/home/188348417,HARMLS,64914438,N,Y,29.84211,-95.413861
MLS Listing,,Single Family Residential,804 Glowing Dawn Dr,Houston,TX,77018,419700,3,2.5,PINEMONT OAKS EXTN,1932,2012,2024,1,217,125,Active,August-2-2025 02:00 PM,August-2-2025 05:00 PM,https://www.redfin.com/TX/Houston/804-Glowing-Dawn-Dr-77018/home/188348418,HARMLS,35791352,N,Y,29.842112,-95.413772
MLS Listing,,Townhouse,661 Hartman St,Houston,TX,77007,449000,3,2.5,Park/Hartman,2310,1419,2001,1,194,205,Active,,,https://www.redfin.com/TX/Houston/661-Hartman-St-77007/home/29163131,HARMLS,34862914,N,Y,29.7677259,-95.3994852
MLS Listing,,Single Family Residential,7613 Parker Rd,Houston,TX,77016,179900,3,2.0,Scenic Woods,1688,8354,1967,1,107,,Active,,,https://www.redfin.com/TX/Houston/7613-Parker-Rd-77016/home/30084243,HARMLS,40127320,N,Y,29.8609806,-95.291456
MLS Listing,,Single Family Residential,8711 Preston Field Ln,Houston,TX,77095,420000,4,2.5,Copper Lakes Sec 12,3158,7291,2006,1,133,96,Active,,,https://www.redfin.com/TX/Houston/8711-Preston-Field-Ln-77095/home/29265623,HARMLS,40961165,N,Y,29.9074964,-95.6747414
MLS Listing,,Single Family Residential,25263 Birchwood Springs Ave,Porter,TX,77365,519900,4,3.5,Woodridge Forest 04,3800,11682,2016,1,137,70,Active,August-2-2025 12:00 PM,August-2-2025 03:00 PM,https://www.redfin.com/TX/Porter/25263-Birchwood-Springs-Ave-77365/home/110051198,HARMLS,74904000,N,Y,30.0780342,-95.2138226
MLS Listing,,Single Family Residential,6422 Wister Ln,Houston,TX,77008,595000,3,2.0,Timbergrove Manor,1285,8450,1960,1,463,,Active,August-3-2025 01:00 PM,August-3-2025 03:00 PM,https://www.redfin.com/TX/Houston/6422-Wister-Ln-77008/home/30073533,HARMLS,85937049,N,Y,29.7918109,-95.4284507
MLS Listing,,Single Family Residential,8107 Richland Dr,Houston,TX,77028,395000,5,2.5,Clairmont Place,3642,6242,2023,1,108,,Active,,,https://www.redfin.com/TX/Houston/8107-Richland-Dr-77028/home/30021254,HARMLS,61642856,N,Y,29.8382101,-95.2797194
MLS Listing,,Single Family Residential,14350 Persimmon Woods Dr,Houston,TX,77068,309000,3,2.5,Cypress Crk Xing Sec 3,2615,5614,2016,1,118,70,Active,,,https://www.redfin.com/TX/Houston/14350-Persimmon-Woods-Dr-77068/home/112503822,HARMLS,22285486,N,Y,29.9970838,-95.4946797
MLS Listing,,Townhouse,1414 Rosewood St,Houston,TX,77004,449000,2,2.5,Museum District / Rosewood Lofts,2340,1438,2004,1,192,,Active,,,https://www.redfin.com/TX/Houston/1414-Rosewood-St-77004/home/29316213,HARMLS,62278811,N,Y,29.7308827,-95.3795817
MLS Listing,,Single Family Residential,11519 South Dr,Houston,TX,77099,240000,3,2.0,Parkglen West Sec 02,1350,7130,1971,1,178,23,Active,,,https://www.redfin.com/TX/Houston/11519-South-Dr-77099/home/30255684,HARMLS,10777305,N,Y,29.6692972,-95.5795079
MLS Listing,,Single Family Residential,6701 Avenue E,Houston,TX,77011,310000,4,2.0,Central Park,1810,5000,1930,1,171,,Active,,,https://www.redfin.com/TX/Houston/6701-Avenue-E-77011/home/29768213,HARMLS,55684142,N,Y,29.7403819,-95.306922
MLS Listing,,Single Family Residential,5727 Roehampton Ct,Houston,TX,77084,280000,4,2.5,Westminster Village,2272,5288,2003,1,123,3,Active,,,https://www.redfin.com/TX/Houston/5727-Roehampton-Ct-77084/home/29198361,HARMLS,60074647,N,Y,29.8605593,-95.6673854
MLS Listing,,Townhouse,2806 Windy Thicket Ln,Houston,TX,77082,265000,3,2.5,Enclave/D Briargreen Twnhms,1900,2500,2012,1,139,334,Active,August-2-2025 11:30 AM,August-2-2025 01:30 PM,https://www.redfin.com/TX/Houston/2806-Windy-Thicket-Ln-77082/home/52552413,HARMLS,58850505,N,Y,29.7305285,-95.6407362
MLS Listing,,Single Family Residential,5558 Aspen St,Bellaire,TX,77401,1549000,5,6.5,Richmond Plaza,5014,9448,2002,1,309,,Active,,,https://www.redfin.com/TX/Bellaire/5558-Aspen-St-77401/home/30025592,HARMLS,30180652,N,Y,29.6979217,-95.4801166
MLS Listing,,Single Family Residential,16402 Sky Blue Ln,Houston,TX,77095,245000,3,2.0,Sommerall Sec 01,1237,7034,1984,1,198,42,Active,August-2-2025 01:00 PM,August-2-2025 03:00 PM,https://www.redfin.com/TX/Houston/16402-Sky-Blue-Ln-77095/home/30406513,HARMLS,70777326,N,Y,29.8813443,-95.6575239
MLS Listing,,Condo/Co-op,12023 Greenwood Forest Dr Unit B,Houston,TX,77066,150000,3,2.5,Capistrano Villas North T/H,1300,1911,1973,1,115,234,Active,,,https://www.redfin.com/TX/Houston/12023-Greenwood-Forest-Dr-77066/unit-B/home/100815601,HARMLS,92233214,N,Y,29.971851,-95.5000162
MLS Listing,,Single Family Residential,9419 Riverside Lodge Dr,Houston,TX,77083,195000,3,2.0,Keegans Wood Sec 01 R/P,1392,4599,1982,1,140,25,Active,,,https://www.redfin.com/TX/Houston/9419-Riverside-Lodge-Dr-77083/home/30510936,HARMLS,51151474,N,Y,29.677511,-95.6252393
MLS Listing,,Condo/Co-op,2233 Triway Ln #267,Houston,TX,77043,185000,3,2.5,Victorian Village Apts,1986,1986,1970,1,93,259,Active,,,https://www.redfin.com/TX/Houston/2233-Triway-Ln-77043/unit-267/home/30231543,HARMLS,77997819,N,Y,29.813469,-95.550942
MLS Listing,,Single Family Residential,3834 Gladeridge Dr,Houston,TX,77068,315950,4,2.5,Oak Creek Village Sec 02,2408,9317,1971,1,131,33,Active,,,https://www.redfin.com/TX/Houston/3834-Gladeridge-Dr-77068/home/30264441,HARMLS,68845602,N,Y,30.000825,-95.4940651
MLS Listing,,Single Family Residential,2716 Baldwin St,Houston,TX,77006,659000,3,3.5,Baldwin Street Lndg Amd P,2955,1428,2021,1,223,82,Active,,,https://www.redfin.com/TX/Houston/2716-Baldwin-St-77006/home/112818068,HARMLS,11254504,N,Y,29.7481823,-95.3811647
MLS Listing,,Single Family Residential,3716 N Becca Ln,Houston,TX,77092,419900,3,2.5,Woodbend Grove,2478,3240,2003,1,169,158,Active,,,https://www.redfin.com/TX/Houston/3716-N-Becca-Ln-77092/home/29168187,HARMLS,37910493,N,Y,29.8151156,-95.4464964
MLS Listing,,Single Family Residential,1515 Thornton Rd,Houston,TX,77018,1450000,5,3.5,Oak Forest Sec Add 09,4081,6385,2017,1,355,,Active,August-2-2025 11:00 AM,August-2-2025 02:00 PM,https://www.redfin.com/TX/Houston/1515-Thornton-Rd-77018/home/29993125,HARMLS,10825099,N,Y,29.8309307,-95.4372164
MLS Listing,,Townhouse,708 Hartman St,Houston,TX,77007,595000,3,3.5,Waugh Drive T/H,2396,1815,2001,1,248,224,Active,,,https://www.redfin.com/TX/Houston/708-Hartman-St-77007/home/29162724,HARMLS,7055903,N,Y,29.7679646,-95.398816
MLS Listing,,Multi-Family (2-4 Unit),4739 Reed Rd Unit A,Houston,TX,77033,530000,4,,Owl Club Gardens,2604,5000,2024,1,204,,Active,,,https://www.redfin.com/TX/Houston/4739-Reed-Rd-77033/unit-A/home/182933541,HARMLS,47264494,N,Y,29.6586994,-95.3534233
MLS Listing,,Single Family Residential,3827 Murworth Dr,Houston,TX,77025,1299999,4,4.5,Woodside Sec 01,3604,8398,2025,1,361,,Active,August-3-2025 01:00 PM,August-3-2025 03:00 PM,https://www.redfin.com/TX/Houston/3827-Murworth-Dr-77025/home/30058273,HARMLS,61043758,N,Y,29.6856766,-95.4387598
MLS Listing,,Single Family Residential,1913 Rosewood St,Houston,TX,77004,510000,3,2.5,Zander Rosewood,2472,2953,2013,1,206,,Active,,,https://www.redfin.com/TX/Houston/1913-Rosewood-St-77004/home/66051052,HARMLS,46559864,N,Y,29.7288738,-95.3752425
MLS Listing,,Single Family Residential,1107 Adele St,Houston,TX,77009,660000,3,2.5,Kayden Court,2457,2500,2019,1,269,,Active,August-3-2025 02:00 PM,August-3-2025 04:00 PM,https://www.redfin.com/TX/Houston/1107-Adele-St-77009/home/144615720,HARMLS,36118513,N,Y,29.8058298,-95.3864725
MLS Listing,,Townhouse,2404 Fairview St Unit C,Houston,TX,77006,484000,3,3.5,Morgan Fair,2715,1439,2004,1,178,121,Active,August-2-2025 12:00 PM,August-2-2025 02:00 PM,https://www.redfin.com/TX/Houston/2404-Fairview-St-77006/unit-C/home/29327470,HARMLS,26744838,N,Y,29.7479047,-95.3868432
MLS Listing,,Condo/Co-op,13020 Greenway Chase Ct #3020,Houston,TX,77072,179000,2,1.5,Wildflower Green T/H Sec 01,1299,1398,1978,1,138,245,Active,,,https://www.redfin.com/TX/Houston/13020-Greenway-Chase-Ct-77072/unit-3020/home/30402571,HARMLS,70036049,N,Y,29.7011734,-95.609765
MLS Listing,,Single Family Residential,2115 Whittier Dr,Houston,TX,77032,230000,4,2.5,Greenbriar Colony T/H,1573,3519,2002,1,146,21,Active,August-2-2025 01:30 PM,August-2-2025 04:30 PM,https://www.redfin.com/TX/Houston/2115-Whittier-Dr-77032/home/30501004,HARMLS,10402983,N,Y,29.9424505,-95.3597515
MLS Listing,,Single Family Residential,13303 Bridgepath Ct,Houston,TX,77041,280000,3,2.5,Concord Bridge Sec 03,1869,8250,1984,1,150,33,Active,,,https://www.redfin.com/TX/Houston/13303-Bridgepath-Ct-77041/home/30555094,HARMLS,92876518,N,Y,29.8569736,-95.610044
MLS Listing,,Single Family Residential,5323 Tyler Park Ln,Katy,TX,77494,625000,4,4.0,Cinco Ranch Southwest,3183,11268,2012,1,196,121,Active,August-2-2025 01:00 PM,August-2-2025 04:00 PM,https://www.redfin.com/TX/Katy/5323-Tyler-Park-Ln-77494/home/40169336,HARMLS,85422323,N,Y,29.714351,-95.809703
MLS Listing,,Single Family Residential,1615 Summer City Dr,Houston,TX,77047,355000,4,3.0,City Park South Sec 1,3096,4199,2016,1,115,106,Active,August-2-2025 01:00 PM,August-2-2025 03:00 PM,https://www.redfin.com/TX/Houston/1615-Summer-City-Dr-77047/home/112828842,HARMLS,23286788,N,Y,29.6205838,-95.3953471
MLS Listing,,Single Family Residential,12023 Surrey Ln,Houston,TX,77024,2850000,4,5.5,Surrey Lane Place,6680,18891,2001,1,427,,Active,August-3-2025 02:00 PM,August-3-2025 04:00 PM,https://www.redfin.com/TX/Houston/12023-Surrey-Ln-77024/home/30075948,HARMLS,82473204,N,Y,29.7653326,-95.5396867
MLS Listing,,Multi-Family (2-4 Unit),7504 Laura Koppe Rd Rd Unit C/D,Houston,TX,77028,385000,3,3.0,Rosewood Estates Pt Re,2473,3900,2025,1,156,,Active,August-2-2025 11:00 AM,August-2-2025 01:00 PM,https://www.redfin.com/TX/Houston/7504-Laura-Koppe-Rd-77028/unit-C-D/home/196126865,HARMLS,30506622,N,Y,29.8401045,-95.2933034
MLS Listing,,Single Family Residential,2303 Lochmere Way,Houston,TX,77345,509900,4,3.0,Riverchase Sec 04,3291,11325,1999,1,155,63,Active,,,https://www.redfin.com/TX/Kingwood/2303-Lochmere-Way-77345/home/30690141,HARMLS,67593618,N,Y,30.0712795,-95.1613312
MLS Listing,,Single Family Residential,10730 Acacia Forest Trl,Houston,TX,77089,340000,4,2.5,Clear Brook Landing Sec 01,2200,7244,2004,1,155,29,Active,,,https://www.redfin.com/TX/Houston/10730-Acacia-Forest-Trl-77089/home/29268200,HARMLS,46139359,N,Y,29.5810084,-95.2120082
MLS Listing,,Single Family Residential,8923 Rockhurst Dr,Houston,TX,77080,450000,3,2.0,Binglewood,1551,9300,1957,1,290,,Active,August-2-2025 12:00 PM,August-2-2025 02:00 PM,https://www.redfin.com/TX/Houston/8923-Rockhurst-Dr-77080/home/30112355,HARMLS,80250409,N,Y,29.8234161,-95.5135223
MLS Listing,,Townhouse,2414D Canal,Houston,TX,77003,525000,3,3.5,Commerce Row,2063,,2025,1,254,183,Active,,,https://www.redfin.com/TX/Houston/2414-Canal-St-77003/unit-D/home/167842232,HARMLS,74079605,N,Y,29.75681,-95.3460128
MLS Listing,,Single Family Residential,11403 Hambleton Way,Houston,TX,77065,349900,3,2.5,Steeplechase Sec 01,1894,9400,1982,1,185,57,Active,August-2-2025 12:00 PM,August-2-2025 02:00 PM,https://www.redfin.com/TX/Houston/11403-Hambleton-Way-77065/home/30504774,HARMLS,40790756,N,Y,29.9192945,-95.5903145
MLS Listing,,Single Family Residential,19822 Redroot Dr,Houston,TX,77084,229900,3,3.0,Westlake Place Sec 01,1636,6298,1981,1,141,44,Active,,,https://www.redfin.com/TX/Houston/19822-Redroot-Dr-77084/home/30488670,HARMLS,14841900,N,Y,29.8087161,-95.7172633
MLS Listing,,Single Family Residential,15835 S Alley Ct,Houston,TX,77082,185000,3,1.5,Traditions At Clayton Park,1276,3737,1998,1,145,45,Active,,,https://www.redfin.com/TX/Houston/15835-S-Alley-Ct-77082/home/30678714,HARMLS,93161192,N,Y,29.7116297,-95.6629016
MLS Listing,,Single Family Residential,11026 Montverde Ln,Houston,TX,77099,285000,4,2.0,Parkglen Sec 01 Alief,2041,8141,1968,1,140,10,Active,,,https://www.redfin.com/TX/Houston/11026-Montverde-Ln-77099/home/30223246,HARMLS,22688236,N,Y,29.6545536,-95.5752952
MLS Listing,,Single Family Residential,13216 Stoneleigh Terrace Dr,Houston,TX,77077,675000,4,4.5,Parkway Terrace Sec 1,3300,7034,2016,1,205,129,Active,August-1-2025 02:00 PM,August-1-2025 05:00 PM,https://www.redfin.com/TX/Houston/13216-Stoneleigh-Terrace-Dr-77077/home/110187774,HARMLS,75824204,N,Y,29.741696,-95.622237
MLS Listing,,Single Family Residential,2006 Chantilly Ln,Houston,TX,77018,1399000,4,4.0,Oak Forest,3770,7562,2025,1,371,,Active,August-3-2025 02:00 PM,August-3-2025 04:00 PM,https://www.redfin.com/TX/Houston/2006-Chantilly-Ln-77018/home/29994763,HARMLS,83164508,N,Y,29.8286303,-95.4481729
MLS Listing,,Single Family Residential,6931 Poncha Springs Ct,Houston,TX,77040,329800,5,2.5,Audubon,2935,5497,2009,1,112,38,Active,August-2-2025 12:30 PM,August-2-2025 04:00 PM,https://www.redfin.com/TX/Houston/6931-Poncha-Springs-Ct-77040/home/34212255,HARMLS,58588404,N,Y,29.870989,-95.5327961
MLS Listing,,Single Family Residential,19022 Sandia Pines Dr,Humble,TX,77346,300000,5,2.5,Atascocita South Sec 01,2291,6708,1983,1,131,39,Active,,,https://www.redfin.com/TX/Humble/19022-Sandia-Pines-Dr-77346/home/30411362,HARMLS,10358751,N,Y,29.9948862,-95.1639228
MLS Listing,,Single Family Residential,5902 Gardendale Dr Unit C,Houston,TX,77092,355000,3,2.5,Gardendale Heights,1610,1724,2021,1,220,,Active,August-3-2025 01:00 PM,August-3-2025 03:00 PM,https://www.redfin.com/TX/Houston/5902-Gardendale-Dr-77092/unit-C/home/196100125,HARMLS,28872222,N,Y,29.8176749,-95.4765233
MLS Listing,,Condo/Co-op,2700 Bellefontaine St Unit A30,Houston,TX,77025,94000,1,1.0,Barclay Condo Ph 01,864,79674,1964,1,109,692,Active,,,https://www.redfin.com/TX/Houston/2700-Bellefontaine-77025/unit-A30/home/195932776,HARMLS,12256523,N,Y,29.7032242,-95.4208069
MLS Listing,,Single Family Residential,5023 Ventura Ln,Houston,TX,77021,359900,3,2.0,Riverside Terrace Sec 22,1817,8041,1950,1,198,,Active,,,https://www.redfin.com/TX/Houston/5023-Ventura-Ln-77021/home/29892640,HARMLS,66396603,N,Y,29.7050497,-95.3363338
MLS Listing,,Single Family Residential,12306 Millvan Dr,Houston,TX,77070,320000,3,2.5,Marwood Village,2042,8450,2000,1,157,58,Active,August-2-2025 01:00 PM,August-2-2025 04:00 PM,https://www.redfin.com/TX/Houston/12306-Millvan-Dr-77070/home/30710435,HARMLS,2505771,N,Y,29.9525707,-95.5792103
MLS Listing,,Single Family Residential,10607 Longmont Dr,Houston,TX,77042,620000,5,4.0,Woodlake Forest,3182,9234,1967,1,195,90,Active,,,https://www.redfin.com/TX/Houston/10607-Longmont-Dr-77042/home/30185552,HARMLS,37577669,N,Y,29.7491639,-95.5636353
MLS Listing,,Single Family Residential,5713 Pampero Ln,Houston,TX,77092,409000,3,2.5,Rio,2316,3001,2017,1,177,92,Active,,,https://www.redfin.com/TX/Houston/5713-Pampero-Ln-77092/home/144619489,HARMLS,54815160,N,Y,29.8497698,-95.4919545
MLS Listing,,Condo/Co-op,909 Silber Rd #11,Houston,TX,77024,155000,2,2.0,Memorial Woods Condo,880,89372,1965,1,176,379,Active,,,https://www.redfin.com/TX/Houston/909-Silber-Rd-77024/unit-11/home/43496621,HARMLS,47493027,N,Y,29.7822075,-95.46825
MLS Listing,,Single Family Residential,7671 Bubbling Spring Ln,Houston,TX,77086,225000,3,2.0,Willowood Sec 04,1488,9273,1976,1,151,38,Active,,,https://www.redfin.com/TX/Houston/7671-Bubbling-Spring-Ln-77086/home/30321376,HARMLS,39870837,N,Y,29.9149908,-95.5080897
MLS Listing,,Single Family Residential,8847 Aberdeen Park Dr,Houston,TX,77095,340000,3,2.0,Aberdeen Green,1961,6795,2000,1,173,55,Active,August-3-2025 02:00 PM,August-3-2025 04:00 PM,https://www.redfin.com/TX/Houston/8847-Aberdeen-Park-Dr-77095/home/30685212,HARMLS,77137809,N,Y,29.9123496,-95.6548809
MLS Listing,,Single Family Residential,6718 Bliss Trl,Houston,TX,77084,125000,3,2.0,Stone Creek Sec 01,1608,6298,1983,1,78,38,Active,,,https://www.redfin.com/TX/Houston/6718-Bliss-Trl-77084/home/30436526,HARMLS,10187427,N,Y,29.8738739,-95.6650012
MLS Listing,,Single Family Residential,15706 Park Center Way,Houston,TX,77059,528900,4,3.5,Pine Brook Sec 01,3520,9578,1994,1,150,54,Active,August-3-2025 12:30 PM,August-3-2025 03:00 PM,https://www.redfin.com/TX/Houston/15706-Park-Center-Way-77059/home/30642469,HARMLS,63049662,N,Y,29.601761,-95.1218722
