SALE TYPE,SOLD DATE,PROPERTY TYPE,ADDRESS,CITY,STATE OR PROVINCE,ZIP OR POSTAL CODE,PRICE,BEDS,BATHS,LOCATION,SQUARE FEET,LOT SIZE,YEAR BUILT,DAYS ON MARKET,$/SQUARE FEET,HOA/MONTH,STATUS,NEXT OPEN HOUSE START TIME,NEXT OPEN HOUSE END TIME,URL (SEE https://www.redfin.com/buy-a-home/comparative-market-analysis FOR INFO ON PRICING),SOURCE,MLS#,FAVORITE,INTERESTED,LATITUDE,LONGITUDE
"In accordance with local MLS rules, some MLS listings are not included in the download"
MLS Listing,,Single Family Residential,565 Curlew Dr,Idaho Falls,ID,83401,575900,5,2.5,SIMPLICITY SUBDIVISION-BON,2962,7841,2025,1,194,85,Active,,,https://www.redfin.com/ID/Ammon/565-N-Curlew-Dr-83401/home/195941435,SRMLS,2178645,N,Y,43.500698,-111.976284
MLS Listing,,Single Family Residential,1278 Meadow Edge Ct,Idaho Falls,ID,83402,324900,3,2.5,Barnwood Estates,1531,1041,2025,1,212,90,Active,,,https://www.redfin.com/ID/Idaho-Falls/1278-Meadow-Edge-CT-Unknown/home/195650365,SRMLS,2178644,N,Y,43.4926602,-112.0407506
MLS Listing,,Single Family Residential,3058 Jackie Ct,Idaho Falls,ID,83402,349000,3,2.0,VILLAGE-BON,1512,6534,1999,1,231,,Active,,,https://www.redfin.com/ID/Idaho-Falls/3058-Jackie-Ct-83402/home/115745819,SRMLS,2178635,N,Y,43.5049262,-112.0918675
MLS Listing,,Vacant Land,TBD Foothill Rd,Idaho Falls,ID,83401,2194200,,,IDAHO FALLS,,5373039,,1,,,Active,,,https://www.redfin.com/ID/Unknown/TBD-Foothill-Rd-83401/home/184564131,SRMLS,2178628,N,Y,43.5626529,-111.90885589
MLS Listing,,Single Family Residential,5077 E Ball Cir,Iona,ID,83427,530000,4,2.0,FREEDOM FIELD ESTATES-BON,3216,21780,2021,1,165,10,Active,,,https://www.redfin.com/ID/Iona/5077-E-Ball-Ct-83427/home/181982987,SRMLS,2178619,N,Y,43.5358133,-111.9325175
MLS Listing,,Single Family Residential,1405 Ponderosa Dr,Idaho Falls,ID,83401,329000,4,2.0,Anderson-Jeppson,1261,9583,1952,1,261,,Active,,,https://www.redfin.com/ID/Idaho-Falls/1405-Ponderosa-Dr-83404/home/115499893,PCTMLS,580134,N,Y,43.4852203,-112.0123923
MLS Listing,,Single Family Residential,5115 Rock Hollow Ln,Idaho Falls,ID,83401,529000,6,3.0,FAIRWAY ESTATES-BON,3348,13504,2020,1,158,10,Active,August-2-2025 02:00 PM,August-2-2025 04:00 PM,https://www.redfin.com/ID/Idaho-Falls/5115-Rock-Hollow-Ln-83401/home/176245966,SRMLS,2178612,N,Y,43.5409771,-112.0335712
MLS Listing,,Single Family Residential,4225 Silverado Dr,Idaho Falls,ID,83404,549000,5,3.5,BRISTOL HEIGHTS-BON,3350,11282,2008,1,164,15,Active,,,https://www.redfin.com/ID/Idaho-Falls/4225-Silverado-Dr-83404/home/115502890,SRMLS,2178609,N,Y,43.4598718,-112.0400798
MLS Listing,,Single Family Residential,6775 S 46th E,Idaho Falls,ID,83406,1800000,7,4.0,POLO CLUB ESTATES-BON,5336,116305,2022,2,337,125,Active,,,https://www.redfin.com/ID/Idaho-Falls/6775-S-46th-E-83406/home/115355720,SRMLS,2178595,N,Y,43.4358053,-111.9402868
MLS Listing,,Single Family Residential,740 N Butterfly Dr,Idaho Falls,ID,83401,318000,3,1.0,CLOVERDALE ESTATES-BON,1063,10019,1977,2,299,,Active,,,https://www.redfin.com/ID/Idaho-Falls/740-Butterfly-Dr-83401/home/115579635,SRMLS,2178594,N,Y,43.5017863,-111.947162
MLS Listing,,Single Family Residential,2585 Ridgecrest Dr,Idaho Falls,ID,83404,525000,4,2.5,CEDAR RIDGE SUBDIVISION-BON,3600,10890,1997,2,146,,Active,,,https://www.redfin.com/ID/Idaho-Falls/2585-Ridgecrest-Dr-83404/home/115798612,SRMLS,2178592,N,Y,43.4746835,-112.0135453
MLS Listing,,Single Family Residential,1630 N Crimson Dr,Idaho Falls,ID,83401,425000,5,3.0,CRIMSON VALLEY-BON,2412,15246,2003,2,176,,Active,,,https://www.redfin.com/ID/Idaho-Falls/1630-Crimson-Dr-83401/home/115512851,SRMLS,2178589,N,Y,43.5101002,-111.9472006
MLS Listing,,Single Family Residential,5873 Macrae Dr,Idaho Falls,ID,83402,580000,6,3.0,PARK PLACE-BON,3210,10925,2024,2,181,8,Active,,,https://www.redfin.com/ID/Idaho-Falls/5873-Macrae-Dr-83402/home/196707479,SRMLS,2178588,N,Y,43.445032,-112.052563
MLS Listing,,Single Family Residential,324 Dale Dr,Idaho Falls,ID,83402,429900,6,3.0,JOSSIE HUGHES-BON,2684,10019,1972,2,160,,Active,,,https://www.redfin.com/ID/Idaho-Falls/324-Dale-Dr-83402/home/115748031,SRMLS,2178587,N,Y,43.4947011,-112.0715477
MLS Listing,,Single Family Residential,6395 Ender Ln,Idaho Falls,ID,83401,494990,6,3.0,TETON VIEW ESTATES-BON,2824,9453,2025,2,175,100,Active,,,https://www.redfin.com/ID/Idaho-Falls/6395-Ender-Ln-83401/home/196704021,SRMLS,2178586,N,Y,43.5525032,-112.0302507
MLS Listing,,Single Family Residential,4692 Satire Dr,Ammon,ID,83406,405000,3,2.0,North Village,2726,8999,2025,2,149,189,Active,,,https://www.redfin.com/ID/Ammon/4692-Satire-DR-Unknown/home/196700818,SRMLS,2178584,N,Y,43.4555214894074,-111.973756932573
MLS Listing,,Single Family Residential,4668 Satire Dr,Ammon,ID,83406,410000,3,2.0,North Village,2752,10202,2025,2,149,189,Active,,,https://www.redfin.com/ID/Ammon/4668-Satire-DR-Unknown/home/196700814,SRMLS,2178585,N,Y,43.455100136666,-111.97370261784
MLS Listing,,Single Family Residential,3779 Benelli Dr,Idaho Falls,ID,83401,395000,3,2.0,WOLF CREEK-BON,2666,11260,2025,2,148,175,Active,,,https://www.redfin.com/ID/Idaho-Falls/3779-Benelli-DR-Unknown/home/196698988,SRMLS,2178582,N,Y,43.538723841162,-111.958391376164
MLS Listing,,Single Family Residential,950 Jefferson Ave,Idaho Falls,ID,83402,315000,3,1.5,HIGHLAND PARK-BON,2200,7841,1962,2,143,,Active,August-2-2025 11:00 AM,August-2-2025 01:00 PM,https://www.redfin.com/ID/Idaho-Falls/950-Jefferson-Ave-83402/home/115795564,SRMLS,2178583,N,Y,43.504939,-112.0431791
MLS Listing,,Single Family Residential,6409 Ender Ln,Idaho Falls,ID,83401,489990,6,3.0,TETON VIEW ESTATES-BON,2824,9365,2025,2,174,100,Active,,,https://www.redfin.com/ID/Idaho-Falls/6409-Ender-Ln-83401/home/196698012,SRMLS,2178578,N,Y,43.5526286,-112.0302504
MLS Listing,,Single Family Residential,3755 Benelli Dr,Idaho Falls,ID,83401,395000,2,2.0,WOLF CREEK-BON,2775,12197,2025,2,142,175,Active,,,https://www.redfin.com/ID/Idaho-Falls/3755-Benelli-DR-Unknown/home/196698007,SRMLS,2178580,N,Y,43.5390181973486,-111.958629155134
MLS Listing,,Single Family Residential,6425 Ender Ln,Idaho Falls,ID,83401,484990,6,3.0,TETON VIEW ESTATES-BON,2824,9148,2025,2,172,100,Active,,,https://www.redfin.com/ID/Idaho-Falls/6425-Ender-Ln-83401/home/196696577,SRMLS,2178576,N,Y,43.5527716,-112.0302501
MLS Listing,,Single Family Residential,5248 Big River Rd,Iona,ID,83427,420000,3,2.0,Countryside Estates,2839,14519,2025,2,148,195,Active,,,https://www.redfin.com/ID/Iona/5248-Big-River-Rd-83401/home/196696576,SRMLS,2178575,N,Y,43.5425416542563,-111.934455684136
MLS Listing,,Single Family Residential,368 Joan Ave,Idaho Falls,ID,83401,329000,3,2.0,HATCH-BON,1464,63771840,1976,2,225,,Active,August-2-2025 11:00 AM,August-2-2025 01:00 PM,https://www.redfin.com/ID/Idaho-Falls/368-Joan-Ave-83401/home/115757881,SRMLS,2178573,N,Y,43.4990721,-111.9955589
MLS Listing,,Single Family Residential,3731 N Pitney Way,Idaho Falls,ID,83401,440000,3,3.0,Red Rock Estates-Bon,2776,11326,2016,2,159,10,Active,,,https://www.redfin.com/ID/Idaho-Falls/3731-N-Pitney-Way-83401/home/144128012,PCTMLS,580123,N,Y,43.5296345,-111.9563804
MLS Listing,,Single Family Residential,310 E 13th St,Idaho Falls,ID,83404,320000,5,2.0,CROWS ADDITION-BON,1780,6098,1935,2,180,,Active,,,https://www.redfin.com/ID/Idaho-Falls/310-E-13th-St-83404/home/115396925,SRMLS,2178251,N,Y,43.485994,-112.0282257
MLS Listing,,Single Family Residential,9566 N 25 E,Idaho Falls,ID,83401,409900,4,2.0,COTTONWOOD ACRES-BON,1808,45128,1971,2,227,,Active,August-2-2025 01:00 PM,August-2-2025 05:00 PM,https://www.redfin.com/ID/Idaho-Falls/9566-N-25th-E-83401/home/115481598,SRMLS,2178563,N,Y,43.5814361,-111.9835069
MLS Listing,,Single Family Residential,392 W 14th St,Idaho Falls,ID,83402,294000,3,2.0,SOUTH PARK ADDITION-BON,1672,3920,1938,2,176,,Active,,,https://www.redfin.com/ID/Idaho-Falls/392-W-14th-St-83402/home/115829923,SRMLS,2178561,N,Y,43.4855277,-112.0389076
MLS Listing,,Single Family Residential,208 G St,Idaho Falls,ID,83402,330000,4,3.0,ORIGINAL TOWNSITE,1928,7841,1915,2,171,,Active,,,https://www.redfin.com/ID/Idaho-Falls/208-G-St-83402/home/115687345,SRMLS,2178560,N,Y,43.4969178,-112.035477
MLS Listing,,Single Family Residential,3518 E Pearce Dr,Idaho Falls,ID,83401,390000,6,3.0,CORNERSTONE-BON,2268,7405,2004,3,172,,Active,,,https://www.redfin.com/ID/Idaho-Falls/3518-Pearce-Dr-83401/home/115821729,SRMLS,2178555,N,Y,43.5083962,-111.9637665
MLS Listing,,Single Family Residential,231 E 19th St,Idaho Falls,ID,83404,365000,5,2.0,BRODBECKS-BON,2070,6098,1948,3,176,,Active,August-2-2025 11:00 AM,August-2-2025 01:00 PM,https://www.redfin.com/ID/Idaho-Falls/231-E-19th-St-83404/home/115405907,SRMLS,2178552,N,Y,43.4809685,-112.0302466
MLS Listing,,Single Family Residential,2126 Meadow St,Idaho Falls,ID,83401,378000,5,2.0,MELBOURNE PARK-BON,2118,7841,1964,3,178,,Active,August-1-2025 03:00 PM,August-1-2025 05:00 PM,https://www.redfin.com/ID/Idaho-Falls/2126-Meadow-St-83401/home/115682510,SRMLS,2178286,N,Y,43.4934699,-111.9913743
MLS Listing,,Single Family Residential,3237 E Reynard Ln,Idaho Falls,ID,83401,350000,2,2.0,Kits Place,2602,5227,2025,3,135,,Active,,,https://www.redfin.com/ID/Idaho-Falls/3237-E-St-83401/home/195958916,SRMLS,2178544,N,Y,43.4926602,-112.0407506
MLS Listing,,Single Family Residential,220 Beacon Dr,Idaho Falls,ID,83402,270000,3,1.0,IDAHO FALLS,1044,6098,1950,3,259,,Active,,,https://www.redfin.com/ID/Idaho-Falls/220-Beacon-Dr-83402/home/115340130,SRMLS,2178541,N,Y,43.5080937,-112.0300323
MLS Listing,,Single Family Residential,1758 Peggys Ln,Idaho Falls,ID,83402,360000,5,2.0,JOHNS HEIGHTS-BON,1888,7841,1993,3,191,,Active,,,https://www.redfin.com/ID/Idaho-Falls/1758-Peggys-Ln-83402/home/115672940,SRMLS,2178539,N,Y,43.5099717,-112.0666645
MLS Listing,,Single Family Residential,4439 Leesburg Cir,Idaho Falls,ID,83404,435000,4,3.0,VICTORIAN VILLAGE-BON,2590,10890,1995,4,168,,Active,,,https://www.redfin.com/ID/Idaho-Falls/4439-Leesburg-Cir-83404/home/115764200,SRMLS,2178532,N,Y,43.4578968,-112.0374123
MLS Listing,,Single Family Residential,2053 Kearney St,Idaho Falls,ID,83401,300000,4,2.0,FALLS VALLEY-BON,1778,6534,1972,4,169,,Active,,,https://www.redfin.com/ID/Idaho-Falls/2053-Kearney-St-83401/home/115550018,SRMLS,2178531,N,Y,43.5038783,-111.9929317
MLS Listing,,Single Family Residential,6867 Chapelle Ave,Idaho Falls,ID,83402,482400,6,3.0,IVYWOOD-BON,2782,10019,2025,4,173,16,Active,,,https://www.redfin.com/ID/Idaho-Falls/6867-Chapelle-Ave-83402/home/194343926,SRMLS,2178523,N,Y,43.4358925,-112.0489793
MLS Listing,,Single Family Residential,3758 Slate Dr,Idaho Falls,ID,83401,439900,6,3.0,Red Rock Estates,2712,13068,2015,5,162,6,Active,,,https://www.redfin.com/ID/Idaho-Falls/3758-Slate-Dr-83401/home/115322986,SRMLS,2178404,N,Y,43.5281282,-111.958803
MLS Listing,,Single Family Residential,1452 S Woodruff Ave,Idaho Falls,ID,83404,235000,2,2.0,THREE FOUNTAINS-BON,1212,1786,1977,6,194,125,Active,,,https://www.redfin.com/ID/Idaho-Falls/1452-S-Woodruff-Ave-83404/home/183444464,SRMLS,2178506,N,Y,43.4847287,-112.0001061
MLS Listing,,Ranch,TBD S 35th W,Idaho Falls,ID,83402,885000,,,IDAHO FALLS,,2221560,1900,7,,,Active,,,https://www.redfin.com/ID/Idaho-Falls/TBD-S-35th-W-83402/home/184563950,SRMLS,2178490,N,Y,43.494299,-112.03833699
MLS Listing,,Single Family Residential,657 S 35th W,Idaho Falls,ID,83402,535000,3,2.0,IDAHO FALLS,2540,217800,1918,7,211,,Active,,,https://www.redfin.com/ID/Idaho-Falls/657-S-35th-W-83402/home/115722761,SRMLS,2178487,N,Y,43.4920887,-112.1021964
MLS Listing,,Single Family Residential,1376 Three Fountains Dr #78,Idaho Falls,ID,83404,235000,2,2.0,THREE FOUNTAINS-BON,1212,1742,1977,7,194,125,Active,,,https://www.redfin.com/ID/Idaho-Falls/1376-Three-Fountains-Dr-83404/unit-78/home/115418320,SRMLS,2178485,N,Y,43.4854266,-111.9982456
MLS Listing,,Single Family Residential,1163 Lowell Dr,Idaho Falls,ID,83402,415000,5,3.0,MILL RUN-BON,2604,9583,1990,7,159,,Active,,,https://www.redfin.com/ID/Idaho-Falls/1163-Lowell-Dr-83402/home/115758824,SRMLS,2178482,N,Y,43.4872543,-112.0920251
MLS Listing,,Mobile/Manufactured Home,2230 Whispering Pines Dr,Idaho Falls,ID,83401,75000,2,2.0,PINE WOOD ESTATES-BON,938,,1986,7,80,895,Active,,,https://www.redfin.com/ID/Idaho-Falls/2230-Whispering-Pines-Dr-83401/home/115836110,SRMLS,2178476,N,Y,43.516328,-111.9892408
MLS Listing,,Single Family Residential,4955 Shadow Creek Dr,Idaho Falls,ID,83401,600000,5,3.0,KINGS ISLAND-BON,3564,7841,2025,7,168,10,Active,,,https://www.redfin.com/ID/Idaho-Falls/4955-Shadow-Creek-Dr-83401/home/191195792,SRMLS,2178475,N,Y,43.539431,-112.039185
MLS Listing,,Single Family Residential,182 Hartert Dr,Idaho Falls,ID,83404,450000,8,3.0,HOME RANCH-BON,3382,14375,1967,7,133,,Active,August-1-2025 11:00 AM,August-1-2025 01:00 PM,https://www.redfin.com/ID/Idaho-Falls/182-Hartert-Dr-83404/home/115655410,SRMLS,2178468,N,Y,43.4726935,-112.0316518
MLS Listing,,Single Family Residential,1185 15 E,Idaho Falls,ID,83404,298000,2,1.0,ANDERSON-JEPPSON-BON,1093,6534,1953,8,273,,Active,,,https://www.redfin.com/ID/Idaho-Falls/1185-E-15th-St-83404/home/115432391,SRMLS,2178459,N,Y,43.4841711,-112.0129637
MLS Listing,,Multi-Family (2-4 Unit),2543 Prospect Dr,Idaho Falls,ID,83401,630000,8,4.0,DAGGETT HEIGHTS-BON,3120,10454,2006,8,202,,Active,,,https://www.redfin.com/ID/Idaho-Falls/2543-Prospect-Dr-83401/home/115691228,SRMLS,2178455,N,Y,43.5186643,-112.0394736
MLS Listing,,Single Family Residential,142 Galena Summit Dr,Idaho Falls,ID,83404,555000,6,3.0,SOUTHPOINT-BON,3477,13068,2025,8,160,35,Active,,,https://www.redfin.com/ID/Idaho-Falls/142-Galena-Summit-DR-83404/home/196593486,SRMLS,2178454,N,Y,43.442591,-112.034741
MLS Listing,,Single Family Residential,3984 Silverado Dr,Idaho Falls,ID,83404,589000,6,3.5,WATERFORD-BON,4104,10890,2007,8,144,17,Active,,,https://www.redfin.com/ID/Idaho-Falls/3984-Silverado-Dr-83404/home/115605446,SRMLS,2178433,N,Y,43.4621345,-112.0407241
MLS Listing,,Single Family Residential,1395 Latah Ave,Idaho Falls,ID,83402,410000,4,2.5,RIVERFRONT ESTATES-BON,2196,2614,2024,8,187,125,Active,,,https://www.redfin.com/ID/Idaho-Falls/1395-Latah-Ave-83402/home/195410816,SRMLS,2178429,N,Y,43.512925,-112.048615
MLS Listing,,Single Family Residential,605 10th St,Idaho Falls,ID,83404,350000,4,2.0,SCOTTS ADDITION-BON,2000,5663,1920,8,175,,Active,,,https://www.redfin.com/ID/Idaho-Falls/605-10th-St-83404/home/115349439,SRMLS,2178428,N,Y,43.4890186,-112.0214728
MLS Listing,,Single Family Residential,1387 Latah Ave,Idaho Falls,ID,83402,395000,3,2.5,RIVERFRONT ESTATES-BON,2468,2047,2024,9,160,125,Active,,,https://www.redfin.com/ID/Idaho-Falls/1387-Latah-Ave-83402/home/195937919,SRMLS,2178423,N,Y,43.512796,-112.048615
MLS Listing,,Multi-Family (2-4 Unit),280 H St,Idaho Falls,ID,83401,465000,4,4.0,ORIGINAL TOWNSITE,2400,7000,1960,9,194,,Active,,,https://www.redfin.com/ID/Idaho-Falls/280-H-St-83402/home/115556578,SRMLS,2178421,N,Y,43.4979604,-112.0352643
MLS Listing,,Multi-Family (2-4 Unit),242 Gladstone St,Idaho Falls,ID,83401,350000,5,2.0,DWIGHTS ADDITION-BON,2222,6200,1950,9,158,,Active,,,https://www.redfin.com/ID/Idaho-Falls/242-Gladstone-St-83401/home/115519967,SRMLS,2178420,N,Y,43.4985048,-112.0298753
MLS Listing,,Single Family Residential,5966 Lochsa St,Idaho Falls,ID,83404,617000,6,3.0,SOUTHPOINT-BON,3376,10890,2023,9,183,,Active,,,https://www.redfin.com/ID/Idaho-Falls/5966-Lochsa-St-83404/home/185322856,SRMLS,2178419,N,Y,43.4441319,-112.0372725
MLS Listing,,Single Family Residential,2063 Henryanna Ave,Idaho Falls,ID,83404,325000,3,2.5,ROSE NIELSEN TOWNHOUSE-BON,2950,3485,1991,9,110,100,Active,,,https://www.redfin.com/ID/Idaho-Falls/2063-Henryanna-Ave-83404/home/115460901,SRMLS,2178414,N,Y,43.4794193,-111.9925215
MLS Listing,,Single Family Residential,1788 Gallup St,Idaho Falls,ID,83404,330000,3,1.5,PACKER ADDITION-BON,2070,8712,1961,9,159,,Active,,,https://www.redfin.com/ID/Idaho-Falls/1788-Gallup-St-83404/home/115557257,SRMLS,2178415,N,Y,43.4889506,-111.9982945
MLS Listing,,Mobile/Manufactured Home,12710 3rd W,Idaho Falls,ID,83404,275000,2,1.0,IDAHO FALLS,708,172498,1966,9,388,,Active,,,https://www.redfin.com/ID/Idaho-Falls/12710-S-3rd-W-83404/home/115847582,SRMLS,2178410,N,Y,43.3829173,-112.0391424
MLS Listing,,Single Family Residential,701 S Maurine Dr,Idaho Falls,ID,83401,325000,5,2.0,MCDONALD'S FARM-BON,1920,9148,1981,9,169,,Active,,,https://www.redfin.com/ID/Idaho-Falls/701-Maurine-St-83401/home/115483195,SRMLS,2178400,N,Y,43.4907345,-111.9633743
MLS Listing,,Single Family Residential,4960 Shadow Creek Dr,Idaho Falls,ID,83401,606000,4,3.0,KINGS ISLAND-BON,3715,9583,2000,9,163,42,Active,August-2-2025 11:00 AM,August-2-2025 01:00 PM,https://www.redfin.com/ID/Idaho-Falls/4960-Shadow-Creek-Dr-83401/home/115672952,SRMLS,2178398,N,Y,43.539432,-112.0385273
MLS Listing,,Mobile/Manufactured Home,1076 Singletree Cir,Idaho Falls,ID,83402,310000,3,2.0,COACHMAN WEST-BON,1152,13852,1985,10,269,,Active,,,https://www.redfin.com/ID/Idaho-Falls/1076-Singletree-Cir-83402/home/115504701,SRMLS,2178385,N,Y,43.5054596,-112.0722614
MLS Listing,,Single Family Residential,242 Pinon Dr,Idaho Falls,ID,83401,425000,4,1.5,PINE ACRES-BON,2908,8276,1958,10,146,,Active,,,https://www.redfin.com/ID/Idaho-Falls/242-Pinon-Dr-83401/home/115859940,SRMLS,2178381,N,Y,43.4981791,-112.0101336
MLS Listing,,Vacant Land,6331 S Desert Peak Dr,Idaho Falls,ID,83404,194000,,,SAND POINTE SUBDIVISION-BON,,14810,,10,,,Active,,,https://www.redfin.com/ID/Idaho-Falls/6331-Desert-Peak-Dr-83404/home/196540155,SRMLS,2178378,N,Y,43.440342,-111.994858
MLS Listing,,Single Family Residential,1407 Fremont Ave,Idaho Falls,ID,83402,339900,3,2.5,FREMONT AVENUE SUBDIVISION-BON,1790,1742,2021,10,190,125,Active,,,https://www.redfin.com/ID/Idaho-Falls/1407-Fremont-Ave-83402/home/181982200,SRMLS,2178377,N,Y,43.5132165,-112.0474299
MLS Listing,,Single Family Residential,2008 Mikayla Ln,Idaho Falls,ID,83404,850000,5,4.0,BROOKSIDE-BON,4195,17816,2025,10,203,,Active,,,https://www.redfin.com/ID/Idaho-Falls/2008-Mikayla-Ln-83404/home/180405259,SRMLS,2178375,N,Y,43.458205,-111.993657
MLS Listing,,Single Family Residential,701 Moonlite Dr,Idaho Falls,ID,83401,350000,4,2.0,ESQUIRE ACRES-BON,1808,7405,1971,10,194,,Active,August-2-2025 11:00 AM,August-2-2025 01:00 PM,https://www.redfin.com/ID/Idaho-Falls/701-Moonlite-Dr-83402/home/115439927,SRMLS,2178374,N,Y,43.5021663,-112.0799427
MLS Listing,,Single Family Residential,556 Sydney Dr,Idaho Falls,ID,83401,494900,4,2.5,SIMPLICITY SUBDIVISION-BON,2137,6970,2025,10,232,85,Active,,,https://www.redfin.com/ID/Ammon/556-Sydney-Dr-83401/home/196537367,SRMLS,2178369,N,Y,43.500502,-111.974605
MLS Listing,,Single Family Residential,2075 Meppen Dr,Idaho Falls,ID,83401,275000,2,1.5,MEPPEN DRIVE TOWNHOUSES-BON,1108,4356,2006,10,248,,Active,,,https://www.redfin.com/ID/Idaho-Falls/2075-Meppen-Dr-83401/home/115468442,SRMLS,2178367,N,Y,43.4906456,-111.9927545
MLS Listing,,Single Family Residential,4649 Weatherby Way,Idaho Falls,ID,83401,484900,5,3.0,WOLF CREEK-BON,2666,6795,2024,11,182,15,Active,,,https://www.redfin.com/ID/Ammon/4649-Weatherby-WAY-83401/home/193633497,SRMLS,2178354,N,Y,43.538047,-111.960485
MLS Listing,,Single Family Residential,3635 Tuscany Dr,Idaho Falls,ID,83404,530000,4,2.5,WATERFORD-BON,3202,10799,2004,11,166,18,Active,,,https://www.redfin.com/ID/Idaho-Falls/3635-Tuscany-Dr-83404/home/115761141,SRMLS,2178349,N,Y,43.4652437,-112.0401696
MLS Listing,,Single Family Residential,1490 Albany St,Idaho Falls,ID,83402,274000,2,1.0,YELLOWSTONE ACRES-BON,1056,7405,1950,11,259,,Active,August-1-2025 04:00 PM,August-1-2025 07:00 PM,https://www.redfin.com/ID/Idaho-Falls/1490-Albany-St-83402/home/169286531,SRMLS,2178362,N,Y,43.4936572,-112.0582182
MLS Listing,,Single Family Residential,6394 Ender Ln,Idaho Falls,ID,83401,399900,3,2.0,TETON VIEW ESTATES-BON,2420,7231,2025,14,165,100,Active,,,https://www.redfin.com/ID/Idaho-Falls/6394-Ender-Ln-83401/home/196502243,SRMLS,2178318,N,Y,43.5524978,-112.029419
MLS Listing,,Single Family Residential,176 Spirit Cv,Idaho Falls,ID,83404,800000,6,4.0,SOUTHPOINT-BON,4772,23522,2004,14,168,35,Active,,,https://www.redfin.com/ID/Idaho-Falls/176-Spirit-Cv-83404/home/115819616,SRMLS,2178316,N,Y,43.4489674,-112.0352559
MLS Listing,,Single Family Residential,3413 Sun Cir,Idaho Falls,ID,83404,565000,4,3.0,SUNRISE CONDOS-BON,3178,2614,2007,14,178,280,Active,,,https://www.redfin.com/ID/Idaho-Falls/3413-Sun-Cir-83404/home/196501661,SRMLS,2178314,N,Y,43.4667854,-112.0234177
MLS Listing,,Single Family Residential,3762 E Marble Dr,Idaho Falls,ID,83401,469999,5,3.0,RED ROCK ESTATES-BON,2731,9583,2014,14,172,8,Active,August-1-2025 05:00 PM,August-1-2025 07:00 PM,https://www.redfin.com/ID/Idaho-Falls/3762-E-Marble-Dr-83401/home/115632434,SRMLS,2178308,N,Y,43.5260252,-111.9587747
MLS Listing,,Single Family Residential,1005 Syringa Dr,Idaho Falls,ID,83401,350000,4,2.5,LINDEN  PARK-BON,1889,9627,1952,14,185,,Active,August-2-2025 11:00 AM,August-2-2025 01:00 PM,https://www.redfin.com/ID/Idaho-Falls/1005-Syringa-Dr-83401/home/115839058,SRMLS,2178306,N,Y,43.4962506,-112.0096505
MLS Listing,,Single Family Residential,1140 Corinne Ave,Idaho Falls,ID,83402,415000,4,2.0,JOHNS HEIGHTS-BON,2322,9583,1963,14,179,,Active,,,https://www.redfin.com/ID/Idaho-Falls/1140-Corinne-Ave-83402/home/115751203,SRMLS,2178305,N,Y,43.5061287,-112.0673312
MLS Listing,,Single Family Residential,353 W 129 N,Idaho Falls,ID,83401,1000000,5,3.5,IDAHO FALLS,4477,43560,2014,14,223,,Active,,,https://www.redfin.com/ID/Idaho-Falls/353-W-129-N-83401/home/116193299,SRMLS,2178303,N,Y,43.6111537,-112.0397825
MLS Listing,,Single Family Residential,5153 E Demott St,Iona,ID,83427,702900,6,3.0,FREEDOM FIELD ESTATES-BON,3314,21780,2020,14,212,9,Active,,,https://www.redfin.com/ID/Iona/5153-E-Demott-St-83427/home/176246731,SRMLS,2178295,N,Y,43.5334671,-111.9310534
MLS Listing,,Single Family Residential,867 Coachman Dr,Idaho Falls,ID,83402,398000,5,2.0,Old Fashion Way,2275,8276,1986,15,175,,Active,,,https://www.redfin.com/ID/Idaho-Falls/867-Coachman-Dr-83402/home/115421504,PCTMLS,580014,N,Y,43.5028054,-112.0739595
MLS Listing,,Single Family Residential,1440 Riviera Dr,Idaho Falls,ID,83404,345000,5,2.0,RIVIERA HOMES-BON,2052,8712,1962,15,168,,Active,,,https://www.redfin.com/ID/Idaho-Falls/1440-Riviera-Dr-83404/home/115562908,SRMLS,2178282,N,Y,43.484676,-111.9977398
MLS Listing,,Single Family Residential,300 N Farnsworth Dr,Idaho Falls,ID,83401,319500,3,1.0,CLOVERDALE ESTATES-BON,1040,9583,1978,15,307,,Active,,,https://www.redfin.com/ID/Idaho-Falls/300-N-Farnsworth-Dr-83401/home/115482035,SRMLS,2178281,N,Y,43.4980725,-111.9471461
MLS Listing,,Single Family Residential,1518 S Woodruff Ave,Idaho Falls,ID,83404,199900,2,2.0,THREE FOUNTAINS-BON,1052,1307,1977,15,190,115,Active,,,https://www.redfin.com/ID/Idaho-Falls/1518-S-Woodruff-Ave-83404/home/184566112,SRMLS,2178279,N,Y,43.484373,-112.0004481
MLS Listing,,Single Family Residential,7753 S Packbridge Ln,Idaho Falls,ID,83406,1500000,5,3.5,COMORE LOMA-BON,6291,101146,2023,15,238,,Active,,,https://www.redfin.com/ID/Idaho-Falls/7753-S-Packbridge-Ln-83406/home/193350713,SRMLS,2178273,N,Y,43.426908,-111.912733
MLS Listing,,Single Family Residential,6018 Cove Creek Cir,Idaho Falls,ID,83406,850000,4,2.5,COMORE LOMA-BON,3982,84506,2021,15,213,,Active,,,https://www.redfin.com/ID/Idaho-Falls/6018-S-Cove-Creek-Cir-83406/home/116178959,SRMLS,2178268,N,Y,43.444482,-111.902206
MLS Listing,,Single Family Residential,605 Lincoln Dr,Idaho Falls,ID,83401,373500,4,3.5,LINDEN  PARK-BON,2676,14375,1956,16,140,,Active,,,https://www.redfin.com/ID/Idaho-Falls/605-Lincoln-Dr-83401/home/115719864,SRMLS,2178264,N,Y,43.4921359,-112.0094258
MLS Listing,,Single Family Residential,363 8th St,Idaho Falls,ID,83401,295000,4,2.0,CROWS ADDITION-BON,1696,9583,1928,16,174,,Active,,,https://www.redfin.com/ID/Idaho-Falls/363-8th-St-83401/home/115813759,SRMLS,2178262,N,Y,43.4908701,-112.0271063
MLS Listing,,Single Family Residential,3720 Barcelona Ave,Idaho Falls,ID,83401,495000,3,2.0,BERKLEY PARK-BON,2770,11326,2021,16,179,,Active,,,https://www.redfin.com/ID/Idaho-Falls/3720-N-Barcelona-Ave-83401/home/181978426,SRMLS,2178238,N,Y,43.5291006,-111.9503906
MLS Listing,,Single Family Residential,110 Chatham Dr,Idaho Falls,ID,83401,375000,4,3.0,KUGLER-BON,2094,6534,1957,16,179,,Active,,,https://www.redfin.com/ID/Idaho-Falls/110-Chatham-Dr-83401/home/115702367,SRMLS,2178237,N,Y,43.4967214,-112.0157644
MLS Listing,,Single Family Residential,5048 Big River Rd,Iona,ID,83427,440000,3,2.0,Countryside Estates,2886,14519,2025,17,152,16,Active,,,https://www.redfin.com/ID/Iona/5048-Big-River-RD-Unknown/home/196426874,SRMLS,2178225,N,Y,43.5411207158435,-111.934599346339
MLS Listing,,Single Family Residential,4981 Big River Rd,Iona,ID,83427,450000,3,2.0,Countryside Estates,3000,16200,2025,17,150,16,Active,,,https://www.redfin.com/ID/Iona/4981-Big-River-RD-Unknown/home/196426573,SRMLS,2178224,N,Y,43.5404945632637,-111.935082982152
MLS Listing,,Single Family Residential,1080 9th St,Idaho Falls,ID,83404,275000,3,1.0,TEW ADDITION-BON,1672,7405,1951,17,164,,Active,,,https://www.redfin.com/ID/Idaho-Falls/1080-9th-St-83404/home/115724676,SRMLS,2178220,N,Y,43.4894936,-112.0118422
MLS Listing,,Single Family Residential,2195 Pend Oreille Cir,Idaho Falls,ID,83404,460000,3,2.5,LAKEWOOD ASPENS-BON,1870,8276,2005,17,246,30,Active,,,https://www.redfin.com/ID/Idaho-Falls/2195-Pend-Oreille-Cir-83404/home/196419313,SRMLS,2178212,N,Y,43.4884731,-111.9905899
MLS Listing,,Mobile/Manufactured Home,4285 N Yellowstone Hwy #27,Idaho Falls,ID,83401,199000,3,2.0,AUTUMN COVE-BON,1512,,2017,18,132,,Active,,,https://www.redfin.com/ID/Idaho-Falls/4285-N-Yellowstone-Hwy-83401/unit-27/home/115376364,SRMLS,2178203,N,Y,43.5348998,-111.9761392
MLS Listing,,Single Family Residential,2828 Linda St,Idaho Falls,ID,83402,420000,3,2.0,WESTRIDGE SUBDIVISION-BON,2539,8276,2000,18,165,,Active,,,https://www.redfin.com/ID/Idaho-Falls/2828-Linda-St-83402/home/115592939,SRMLS,2178201,N,Y,43.4945698,-112.0875818
MLS Listing,,Single Family Residential,4887 N Sunset Dr,Iona,ID,83401,1565000,7,3.5,Sunrise Acres,5440,41382,2023,18,288,,Active,,,https://www.redfin.com/ID/Iona/4887-N-Sunset-Dr-83427/home/187426703,SRMLS,2178198,N,Y,43.5394943,-111.9366326
MLS Listing,,Single Family Residential,618 Davidson Dr,Idaho Falls,ID,83401,335000,5,2.0,FALLS VALLEY-BON,2106,8250,1963,18,159,,Active,,,https://www.redfin.com/ID/Idaho-Falls/618-Davidson-Dr-83401/home/115427297,SRMLS,2178185,N,Y,43.5012398,-111.9893164
MLS Listing,,Single Family Residential,5973 E 65th S,Idaho Falls,ID,83406,985000,6,4.5,COMORE LOMA-BON,4571,50965,2022,18,215,,Active,August-2-2025 10:00 AM,August-2-2025 12:00 PM,https://www.redfin.com/ID/Ammon/5973-E-65th-S-83406/home/180405238,SRMLS,2178181,N,Y,43.431861,-111.9152999
MLS Listing,,Single Family Residential,303 Stillwater Cir,Idaho Falls,ID,83404,799950,5,4.5,SOUTHPOINT-BON,4346,15246,2007,20,184,29,Active,,,https://www.redfin.com/ID/Idaho-Falls/303-Stillwater-Cir-83404/home/115461389,SRMLS,2178176,N,Y,43.4483555,-112.0389757
MLS Listing,,Single Family Residential,6549 S 15 W #1,Idaho Falls,ID,83402,475000,3,2.0,IDAHO FALLS,2300,139392,1930,20,207,,Active,,,https://www.redfin.com/ID/Idaho-Falls/6549-S-15th-W-83402/unit-1/home/196377108,SRMLS,2178175,N,Y,43.4390439,-112.0626707
MLS Listing,,Single Family Residential,4035 Shadow Mountain Trl,Idaho Falls,ID,83404,549000,6,3.0,MEADOWS (THE)-BON,3100,10019,2008,20,177,,Active,,,https://www.redfin.com/ID/Idaho-Falls/4035-Shadow-Mountain-Trl-83404/home/115859341,SRMLS,2178163,N,Y,43.461509,-112.0113381
MLS Listing,,Single Family Residential,2738 Hallon St,Idaho Falls,ID,83402,370000,5,2.0,NEW SWEDEN ESTATES-BON,2004,9583,1984,21,185,,Active,,,https://www.redfin.com/ID/Idaho-Falls/2738-Hallon-St-83402/home/115400151,SRMLS,2178162,N,Y,43.4835196,-112.0857351
MLS Listing,,Single Family Residential,4736 S Thunder Dr,Ammon,ID,83406,630000,6,3.0,MOUNTAIN BEND ESTATES-BON,3446,10934,2020,21,183,3,Active,August-2-2025 04:30 PM,August-2-2025 06:30 PM,https://www.redfin.com/ID/Ammon/4736-Thunder-Dr-83406/home/147359136,SRMLS,2178159,N,Y,43.455783,-111.951401
MLS Listing,,Single Family Residential,944 J St,Idaho Falls,ID,83402,309950,4,2.0,Edgewater Heights,2004,6969,1940,21,155,,Active,,,https://www.redfin.com/ID/Idaho-Falls/944-J-St-83402/home/115375780,IMLS,98954338,N,Y,43.5031021,-112.0424561
MLS Listing,,Single Family Residential,960 Royal Pl,Idaho Falls,ID,83401,274900,2,1.5,BEL AIRE SUBDIVISION-BON,986,7405,1953,21,279,,Active,,,https://www.redfin.com/ID/Idaho-Falls/960-Royal-Pl-83401/home/115330296,SRMLS,2178150,N,Y,43.5027052,-112.0129769
MLS Listing,,Single Family Residential,6600 S High Creek Ln,Idaho Falls,ID,83406,975000,3,3.5,COMORE LOMA-BON,4368,61507,2017,21,223,,Active,,,https://www.redfin.com/ID/Idaho-Falls/6600-S-High-Creek-Ln-83406/home/115489719,SRMLS,2178141,N,Y,43.4376764,-111.9172469
MLS Listing,,Single Family Residential,798 9th St,Idaho Falls,ID,83404,380000,3,2.5,SCOTTS ADDITION-BON,2044,8712,1946,21,186,,Active,,,https://www.redfin.com/ID/Idaho-Falls/798-9th-St-83404/home/115808806,SRMLS,2178139,N,Y,43.4894882,-112.0180508
MLS Listing,,Mobile/Manufactured Home,3807 E Greenwillow Ln,Idaho Falls,ID,83401,310000,4,2.0,Lincoln Park,1400,9148,2000,22,221,,Active,,,https://www.redfin.com/ID/Idaho-Falls/3807-Greenwillow-Ln-83401/home/115767921,PCTMLS,579955,N,Y,43.505064,-111.958065
MLS Listing,,Single Family Residential,957 Jack Ln,Idaho Falls,ID,83402,580000,6,3.0,PARK PLACE-BON,3210,10925,2024,22,181,8,Active,,,https://www.redfin.com/ID/Idaho-Falls/957-Jack-Ln-83402/home/196342533,SRMLS,2178127,N,Y,43.444083,-112.052668
MLS Listing,,Single Family Residential,5715 Long Cove Dr,Idaho Falls,ID,83404,780000,6,3.0,SAND POINTE SUBDIVISION-BON,3879,24176,2024,22,201,33,Active,August-9-2025 01:00 PM,August-9-2025 04:00 PM,https://www.redfin.com/ID/Idaho-Falls/5715-Long-Cove-Dr-83404/home/182121049,SRMLS,2178126,N,Y,43.445806,-111.996879
MLS Listing,,Single Family Residential,2180 Richards Ave,Idaho Falls,ID,83404,420000,4,3.0,WOODRUFF PARK-BON,2376,12632,1972,22,177,,Active,,,https://www.redfin.com/ID/Idaho-Falls/2180-Richards-Ave-83404/home/115864734,SRMLS,2178116,N,Y,43.4779815,-112.0026938
MLS Listing,,Single Family Residential,2764 N 25th East,Idaho Falls,ID,83401,550000,5,2.0,IDAHO FALLS,2792,43124,1982,22,197,,Active,,,https://www.redfin.com/ID/Idaho-Falls/2764-N-25th-E-83401/home/115520783,SRMLS,2178113,N,Y,43.5210194,-111.9835309
MLS Listing,,Single Family Residential,1449 Fairmont Dr,Idaho Falls,ID,83404,345000,4,2.0,FAIRMONT PARK-BON,2208,8712,1958,22,156,,Active,,,https://www.redfin.com/ID/Idaho-Falls/1449-Fairmont-Dr-83404/home/115557162,SRMLS,2178108,N,Y,43.4846237,-112.0019796
MLS Listing,,Single Family Residential,2967 Sydney Dr,Ammon,ID,83406,434900,3,2.0,1st street community #3,1649,6429,2023,23,264,,Active,,,https://www.redfin.com/ID/Idaho-Falls/2967-Sydney-Dr-83401/home/193349946,SRMLS,2178098,N,Y,43.4999734,-111.9759639
MLS Listing,,Single Family Residential,940 Jefferson Ave,Idaho Falls,ID,83402,350000,5,2.5,HIGHLAND PARK-BON,3480,7841,1920,23,101,,Active,,,https://www.redfin.com/ID/Idaho-Falls/940-Jefferson-Ave-83402/home/115719449,SRMLS,2178085,N,Y,43.5043345,-112.0432173
MLS Listing,,Single Family Residential,1700 Shady Pine Dr,Idaho Falls,ID,83404,525000,6,3.0,ST CLAIR ESTATES-BON,3088,13504,2006,23,170,10,Active,August-1-2025 03:00 PM,August-1-2025 05:00 PM,https://www.redfin.com/ID/Idaho-Falls/1700-Shady-Pine-Dr-83404/home/115452806,SRMLS,2178084,N,Y,43.4634558,-111.9998416
MLS Listing,,Single Family Residential,5700 S Solitude Ln,Idaho Falls,ID,83406,795000,4,3.0,SPLENDID ACRES-BON,4254,80150,1998,23,187,,Active,,,https://www.redfin.com/ID/Idaho-Falls/5700-Solitude-Dr-83406/home/115582342,SRMLS,2178083,N,Y,43.4457999,-111.9347324
MLS Listing,,Single Family Residential,4680 N Memory Ln,Idaho Falls,ID,83401,475000,4,3.5,WOLF CREEK-BON,2197,6599,2022,23,216,,Active,,,https://www.redfin.com/ID/Idaho-Falls/4680-Memory-Ln-83401/home/181983205,SRMLS,2178079,N,Y,43.5381268,-111.9613557
MLS Listing,,Single Family Residential,360 N Ridge Ave,Idaho Falls,ID,83402,287000,3,2.0,ORIGINAL TOWNSITE,1859,6970,1920,23,154,,Active,,,https://www.redfin.com/ID/Idaho-Falls/360-N-Ridge-Ave-83402/home/115855710,SRMLS,2178074,N,Y,43.4906517,-112.0349435
MLS Listing,,Single Family Residential,3867 E Hyrum Dr,Idaho Falls,ID,83401,430000,5,2.0,Red Rock Estates,2544,11761,2016,23,169,10,Active,,,https://www.redfin.com/ID/Idaho-Falls/3867-E-Hyrum-Dr-83401/home/116199508,SRMLS,2178073,N,Y,43.532507,-111.956123
MLS Listing,,Single Family Residential,5320 Long Cove Dr,Idaho Falls,ID,83404,598000,3,2.5,DUNES AT SANDCREEK-BON,4004,20909,2017,23,149,25,Active,August-1-2025 03:00 PM,August-1-2025 05:00 PM,https://www.redfin.com/ID/Idaho-Falls/5320-Long-Cove-Dr-83404/home/115547575,SRMLS,2178071,N,Y,43.449659,-111.9903101
MLS Listing,,Single Family Residential,184 Galena Summit Dr,Idaho Falls,ID,83404,649900,6,6.0,SOUTHPOINT-BON,3424,11892,2025,24,190,23,Active,,,https://www.redfin.com/ID/Idaho-Falls/184-Galena-Summit-DR-83404/home/196293915,SRMLS,2178060,N,Y,43.442583,-112.035786
MLS Listing,,Single Family Residential,974 W Riverview Dr,Idaho Falls,ID,83401,1599900,6,4.5,RIVER ACRES ESTATES-BON,5776,62726,2005,24,277,,Active,,,https://www.redfin.com/ID/Idaho-Falls/974-W-Riverview-Dr-83401/home/115669353,SRMLS,2177810,N,Y,43.5455972,-112.0529376
MLS Listing,,Vacant Land,TBD N 55th E,Idaho Falls,ID,83401,315000,,,IDAHO FALLS,,507387,,24,,,Active,,,https://www.redfin.com/ID/Idaho-Falls/TBD-N-55th-E-83401/home/191968051,SRMLS,2178050,N,Y,43.5728249894382,-111.924127441791
MLS Listing,,Mobile/Manufactured Home,1705 N Pinewood Dr,Idaho Falls,ID,83401,102000,2,2.0,PINE WOOD ESTATES-BON,938,466,1997,24,109,,Active,,,https://www.redfin.com/ID/Idaho-Falls/1705-N-Pinewood-Dr-83401/home/115412964,SRMLS,2178049,N,Y,43.5108601,-111.9901306
MLS Listing,,Single Family Residential,1896 S St Clair Ave,Idaho Falls,ID,83404,325000,3,2.0,UNIVERSITY MANOR-BON,1920,10019,1968,24,169,,Active,August-1-2025 12:00 PM,August-1-2025 02:00 PM,https://www.redfin.com/ID/Idaho-Falls/1896-Saint-Clair-Rd-83404/home/115840549,SRMLS,2178043,N,Y,43.4805842,-112.0043959
MLS Listing,,Single Family Residential,612 Boxwood Dr,Idaho Falls,ID,83402,635000,6,3.0,LINDEN TRAILS-BON,3350,11326,2025,24,190,,Active,,,https://www.redfin.com/ID/Idaho-Falls/612-Boxwood-Dr-83402/home/196289860,SRMLS,2178038,N,Y,43.4920959,-112.086612
MLS Listing,,Single Family Residential,4201 N Zona Way,Idaho Falls,ID,83401,439900,3,2.0,Hatch Hollow,2830,12419,2023,24,155,8,Active,,,https://www.redfin.com/ID/Idaho-Falls/4201-Zona-Way-83401/home/187752377,SRMLS,2178028,N,Y,43.5350784,-111.9500484
MLS Listing,,Single Family Residential,5120 Big River Rd,Iona,ID,83427,450000,3,2.0,Countryside Estates,3216,14523,2025,24,140,16,Active,,,https://www.redfin.com/ID/Iona/5120-Big-River-RD-Unknown/home/195923062,SRMLS,2176830,N,Y,43.5419487000635,-111.934661204785
MLS Listing,,Mobile/Manufactured Home,3570 S Yellowstone Hwy Unit TBD,Idaho Falls,ID,83402,40000,2,2.0,IDAHO FALLS,1200,,1970,25,33,475,Active,,,https://www.redfin.com/ID/Idaho-Falls/3570-S-Yellowstone-Hwy-83402/unit-TBD/home/196283172,SRMLS,2178021,N,Y,43.4662783,-112.0589043
MLS Listing,,Mobile/Manufactured Home,2930 S Yellowstone Hwy Unit TBD,Idaho Falls,ID,83402,40000,2,2.0,IDAHO FALLS,1200,,1970,25,33,475,Active,,,https://www.redfin.com/ID/Idaho-Falls/2930-S-Yellowstone-Hwy-83402/unit-TBD/home/196283013,SRMLS,2178020,N,Y,43.4720215,-112.0544816
MLS Listing,,Single Family Residential,1009 Ernest Dr,Idaho Falls,ID,83402,469000,4,2.0,SILVERLEAF ESTATES-BON,2868,15682,2019,25,164,,Active,,,https://www.redfin.com/ID/Idaho-Falls/1009-Ernest-Dr-83402/home/172617691,SRMLS,2178015,N,Y,43.5050332,-112.096753
MLS Listing,,Single Family Residential,220 N Fanning Ave #15,Idaho Falls,ID,83401,210000,2,1.5,REGENCY CONDOS-BON,1008,1525,1983,25,208,125,Active,,,https://www.redfin.com/ID/Idaho-Falls/220-N-Fanning-Ave-83401/unit-15/home/115531061,SRMLS,2178014,N,Y,43.4983622,-112.0158447
MLS Listing,,Single Family Residential,6364 E Twin Creeks Dr,Idaho Falls,ID,83401,699000,5,3.0,ROBINSON TWIN CREEK-BON,3640,43560,2014,25,192,,Active,,,https://www.redfin.com/ID/Idaho-Falls/6364-E-Twin-Creek-Dr-83401/home/115356163,SRMLS,2178001,N,Y,43.5077647,-111.9074915
MLS Listing,,Single Family Residential,939 S 45th E,Idaho Falls,ID,83401,625000,5,3.0,IDAHO FALLS,3688,90605,1965,27,169,,Active,,,https://www.redfin.com/ID/Ammon/939-S-45th-E-83401/home/115797979,SRMLS,2177988,N,Y,43.4885631,-111.9437335
MLS Listing,,Single Family Residential,821 E 10th Ave,Idaho Falls,ID,83404,220000,2,1.0,SCOTTS ADDITION-BON,508,5663,1933,28,433,,Active,,,https://www.redfin.com/ID/Idaho-Falls/821-10th-St-83404/home/115839955,SRMLS,2177978,N,Y,43.4890152,-112.0172406
MLS Listing,,Single Family Residential,5804 Dune Village Way,Idaho Falls,ID,83404,879000,6,3.5,SAND POINTE SUBDIVISION-BON,4058,17860,2025,29,217,31,Active,,,https://www.redfin.com/ID/Idaho-Falls/5804-Dune-Village-Way-83404/home/187530396,SRMLS,2177965,N,Y,43.445242,-111.9969
MLS Listing,,Single Family Residential,1860 S Boulevard,Idaho Falls,ID,83402,299900,2,1.0,SOUTH PARK ADDITION-BON,1624,7841,1935,29,185,,Active,August-3-2025 01:00 PM,August-3-2025 03:00 PM,https://www.redfin.com/ID/Idaho-Falls/1860-S-Boulevard-83402/home/115830001,SRMLS,2177955,N,Y,43.4813285,-112.0339662
MLS Listing,,Single Family Residential,160 Tabor Ave,Idaho Falls,ID,83401,285000,4,1.0,BEL AIRE SUBDIVISION-BON,1248,6970,1950,29,228,,Active,,,https://www.redfin.com/ID/Idaho-Falls/160-Tabor-Ave-83401/home/115590588,SRMLS,2177582,N,Y,43.4973757,-112.0069774
MLS Listing,,Single Family Residential,170 W 17th St,Idaho Falls,ID,83402,294900,4,2.0,SOUTH PARK ADDITION-BON,1552,6098,1948,29,190,,Active,,,https://www.redfin.com/ID/Idaho-Falls/170-W-17th-St-83402/home/115336767,SRMLS,2177947,N,Y,43.4828031,-112.0354845
MLS Listing,,Single Family Residential,542 Davidson Dr,Idaho Falls,ID,83401,310000,4,2.0,FALLS VALLEY-BON,1920,8250,1958,29,161,,Active,,,https://www.redfin.com/ID/Idaho-Falls/542-Davidson-Dr-83401/home/115546207,SRMLS,2177938,N,Y,43.5006273,-111.9893115
MLS Listing,,Single Family Residential,492 Melrose Dr,Idaho Falls,ID,83401,310000,4,2.0,FALLS VALLEY-BON,1850,7139,1960,30,168,,Active,,,https://www.redfin.com/ID/Idaho-Falls/492-Melrose-Dr-83401/home/115522397,SRMLS,2177921,N,Y,43.5002802,-111.99326
MLS Listing,,Single Family Residential,1228 Meadow Edge Ct,Idaho Falls,ID,83402,324900,3,2.5,Barnwood Estates,1531,1041,2025,30,212,90,Active,August-2-2025 10:00 AM,August-2-2025 02:00 PM,https://www.redfin.com/ID/Idaho-Falls/1228-Meadow-Edge-CT-Unknown/home/196257023,SRMLS,2177915,N,Y,43.4865616227154,-112.065239168306
MLS Listing,,Single Family Residential,1258 N 45th E,Idaho Falls,ID,83401,439500,3,3.5,IDAHO FALLS,2664,39160,1940,30,165,,Active,,,https://www.redfin.com/ID/Idaho-Falls/1258-N-45th-E-83401/home/172616738,SRMLS,2177912,N,Y,43.5065981,-111.9440109
MLS Listing,,Single Family Residential,5856 Gleneagles Dr,Idaho Falls,ID,83401,799900,5,3.5,FAIRWAY ESTATES-BON,5353,12632,2001,30,149,,Active,,,https://www.redfin.com/ID/Idaho-Falls/5856-Gleneagles-Dr-83401/home/115350788,SRMLS,2177910,N,Y,43.5475338,-112.0380616
MLS Listing,,Single Family Residential,1234 Meadow Edge Ct,Idaho Falls,ID,83402,324900,3,2.5,Barnwood Estates,1531,1041,2025,30,212,90,Active,August-2-2025 10:00 AM,August-2-2025 02:00 PM,https://www.redfin.com/ID/Idaho-Falls/1234-Meadow-Edge-CT-Unknown/home/196255916,SRMLS,2177906,N,Y,43.4865003224665,-112.065237827202
MLS Listing,,Single Family Residential,3487 N Jade St,Idaho Falls,ID,83401,459900,6,3.0,Red Rock Estates,2634,10019,2017,30,175,6,Active,,,https://www.redfin.com/ID/Idaho-Falls/3487-N-Jade-St-83401/home/169287576,SRMLS,2177888,N,Y,43.527406,-111.9567767
MLS Listing,,Single Family Residential,1370 Utley Cir,Idaho Falls,ID,83401,279000,2,1.0,BEL AIRE SUBDIVISION-BON,1118,13068,1953,30,250,,Active,,,https://www.redfin.com/ID/Idaho-Falls/1370-Utley-Cir-83401/home/115545306,SRMLS,2177885,N,Y,43.4975372,-112.0053033
MLS Listing,,Single Family Residential,6206 Foxrun Dr,Idaho Falls,ID,83401,675000,3,2.0,HOLDEN PLACE-BON,3504,67039,1999,31,193,,Active,,,https://www.redfin.com/ID/Idaho-Falls/6206-Fox-Run-Dr-83402/home/115754223,SRMLS,2177882,N,Y,43.4419854,-112.052152
MLS Listing,,Single Family Residential,372 Gladstone St,Idaho Falls,ID,83401,292000,3,2.0,CAPITOL HILL-BON,1769,6186,1949,31,165,,Active,,,https://www.redfin.com/ID/Idaho-Falls/372-Gladstone-St-83401/home/115850808,SRMLS,2177876,N,Y,43.4985332,-112.026811
MLS Listing,,Single Family Residential,1307 Laurel Dr,Idaho Falls,ID,83404,400000,4,3.0,UNIVERSITY MANOR-BON,2978,4356,1981,31,134,200,Active,August-1-2025 03:00 PM,August-1-2025 05:00 PM,https://www.redfin.com/ID/Idaho-Falls/1307-Laurel-Dr-83404/home/115504190,SRMLS,2177873,N,Y,43.4815868,-112.0076588
MLS Listing,,Single Family Residential,460 Pevero Dr,Idaho Falls,ID,83401,549000,4,3.5,FAIRWAY ESTATES-BON,2979,16117,1995,31,184,,Active,,,https://www.redfin.com/ID/Idaho-Falls/460-Pevero-Dr-83401/home/115526670,SRMLS,2177865,N,Y,43.5372527,-112.0423818
MLS Listing,,Single Family Residential,665 Meppen Dr,Idaho Falls,ID,83401,275000,2,1.5,MELBOURNE PARK-BON,1108,4792,2006,31,248,,Active,August-2-2025 11:00 AM,August-2-2025 01:00 PM,https://www.redfin.com/ID/Idaho-Falls/665-Meppen-Dr-83401/home/115529582,SRMLS,2177864,N,Y,43.4916458,-111.9932082
MLS Listing,,Single Family Residential,1147 Johnson St,Idaho Falls,ID,83401,278500,3,1.0,BEL AIRE SUBDIVISION-BON,1040,5227,1951,31,268,,Active,,,https://www.redfin.com/ID/Idaho-Falls/1147-Johnson-St-83401/home/115697186,SRMLS,2177863,N,Y,43.5025297,-112.0083438
MLS Listing,,Single Family Residential,512 Boxwood Dr,Idaho Falls,ID,83402,564900,3,2.0,Idaho Falls,1700,13068,2025,31,332,50,Active,,,https://www.redfin.com/ID/Idaho-Falls/512-Boxwood-Dr-83402/home/186477538,IMLS,98953078,N,Y,43.493448,-112.0884
MLS Listing,,Single Family Residential,6203 Maggie Dr,Idaho Falls,ID,83402,504900,3,2.0,PARK PLACE-BON,3468,13068,2025,32,146,8,Active,,,https://www.redfin.com/ID/Idaho-Falls/6203-Maggie-Dr-83402/home/196240532,SRMLS,2177841,N,Y,43.442017,-112.049198
MLS Listing,,Vacant Land,4610 E Dusty Bison Cir,Idaho Falls,ID,83406,175000,,,BLACKHAWK ESTATES-BON,,56628,,32,,,Active,,,https://www.redfin.com/ID/Idaho-Falls/4610-E-Dusty-Bison-Cir-83406/home/115492104,SRMLS,2177834,N,Y,43.420268,-111.94061
MLS Listing,,Single Family Residential,6455 Ender Ln,Idaho Falls,ID,83401,499990,6,3.0,TETON VIEW ESTATES-BON,2824,8756,2025,32,177,8,Active,,,https://www.redfin.com/ID/Idaho-Falls/6455-Ender-Ln-83401/home/196238480,SRMLS,2177831,N,Y,43.5530442,-112.0302495
MLS Listing,,Single Family Residential,6469 Ender Ln,Idaho Falls,ID,83401,539990,6,3.0,TETON VIEW ESTATES-BON,2824,8364,2025,32,191,100,Active,,,https://www.redfin.com/ID/Idaho-Falls/6469-Ender-Ln-83401/home/196237395,SRMLS,2177824,N,Y,43.5531825,-112.0302492
MLS Listing,,Single Family Residential,289 Davidson Dr,Idaho Falls,ID,83401,370000,5,2.0,FALLS VALLEY-BON,2476,8398,1957,32,149,,Active,,,https://www.redfin.com/ID/Idaho-Falls/289-Davidson-Dr-83401/home/115686417,SRMLS,2177820,N,Y,43.4983242,-111.9899171
MLS Listing,,Single Family Residential,2483 Mars St,Idaho Falls,ID,83402,399000,4,2.0,ESQUIRE ACRES-BON,1533,7841,1962,32,260,,Active,August-4-2025 06:00 PM,August-4-2025 08:00 PM,https://www.redfin.com/ID/Idaho-Falls/2483-Mars-St-83402/home/115375875,SRMLS,2177817,N,Y,43.4985157,-112.0806012
MLS Listing,,Single Family Residential,3965 N Barcelona Ave,Idaho Falls,ID,83401,474900,3,2.0,BERKLEY PARK-BON,2900,12632,2022,32,164,9,Active,,,https://www.redfin.com/ID/Idaho-Falls/3965-N-Barcelona-Ave-83401/home/184564601,SRMLS,2177815,N,Y,43.5314949,-111.9503932
MLS Listing,,Single Family Residential,5440 E Rio Seco Dr,Ammon,ID,83406,839000,6,3.0,COMORE LOMA-BON,3628,59242,2017,33,231,,Active,,,https://www.redfin.com/ID/Idaho-Falls/5440-Rio-Seco-Dr-83406/home/115496151,SRMLS,2177808,N,Y,43.446618,-111.924832
MLS Listing,,Single Family Residential,459 Church St,Idaho Falls,ID,83401,436900,4,2.5,SIMPLICITY SUBDIVISION-BON,1897,6970,2025,33,230,85,Active,August-2-2025 11:00 AM,August-2-2025 02:00 PM,https://www.redfin.com/ID/Ammon/459-Church-St-83406/home/195394147,SRMLS,2177541,N,Y,43.499633,-111.975077
MLS Listing,,Single Family Residential,1142 N Cornerstone Dr,Idaho Falls,ID,83401,355000,4,2.5,CORNERSTONE-BON,1633,7405,2005,35,217,,Active,,,https://www.redfin.com/ID/Idaho-Falls/1142-Cornerstone-Dr-83401/home/115668474,SRMLS,2177795,N,Y,43.5062746,-111.9630768
MLS Listing,,Vacant Land,TBD Elmore Ave,Idaho Falls,ID,83402,349000,,,HIGHLAND PARK-BON,,27007,,35,,,Active,,,https://www.redfin.com/ID/Idaho-Falls/TBD-Elmore-Ave-83402/home/184425262,SRMLS,2177784,N,Y,43.5101587,-112.045892
MLS Listing,,Single Family Residential,1730 E 25th St,Idaho Falls,ID,83404,484900,4,3.0,ROSE NIELSEN-BON,2516,13504,1984,35,193,,Active,,,https://www.redfin.com/ID/Idaho-Falls/1730-E-25th-St-83404/home/115722353,SRMLS,2177777,N,Y,43.4748079,-111.9995092
MLS Listing,,Single Family Residential,169 4th St,Idaho Falls,ID,83401,350000,5,2.0,CROWS ADDITION-BON,2023,6229,1930,36,173,,Active,,,https://www.redfin.com/ID/Idaho-Falls/169-4th-St-83401/home/115545882,SRMLS,2177774,N,Y,43.4944193,-112.031868
MLS Listing,,Mobile/Manufactured Home,2250 Whispering Pines Dr,Idaho Falls,ID,83404,97500,3,1.0,PINE WOOD ESTATES-BON,924,,2000,36,106,730,Active,,,https://www.redfin.com/ID/Idaho-Falls/2250-Whispering-Pines-Dr-83401/home/115889310,SRMLS,2177756,N,Y,43.516493,-111.9892584
MLS Listing,,Single Family Residential,1241 E Lazy Ln,Idaho Falls,ID,83404,1695000,6,4.5,LAZY 8 ESTATES-BON,6035,348480,2008,36,281,,Active,,,https://www.redfin.com/ID/Idaho-Falls/1241-E-Lazy-Ln-83404/home/115498620,SRMLS,2177764,N,Y,43.4258994,-112.008642
MLS Listing,,Single Family Residential,1896 Jeppson Ave,Idaho Falls,ID,83404,400000,5,2.5,UNIVERSITY MANOR-BON,3210,10019,1960,36,125,,Active,,,https://www.redfin.com/ID/Idaho-Falls/1896-Jeppson-Ave-83404/home/115444421,SRMLS,2177763,N,Y,43.4806135,-112.008724
MLS Listing,,Single Family Residential,1840 Sequoia Ave,Idaho Falls,ID,83404,327000,4,2.0,EDGEMONT GARDENS-BON,2236,8015,1956,36,146,,Active,,,https://www.redfin.com/ID/Idaho-Falls/1840-Sequoia-Dr-83404/home/115815840,SRMLS,2176667,N,Y,43.4810402,-112.0122673
MLS Listing,,Single Family Residential,5264 Skidmore Dr,Idaho Falls,ID,83406,830000,4,3.0,COMORE LOMA-BON,3975,158994,1996,36,209,,Active,,,https://www.redfin.com/ID/Idaho-Falls/5264-E-Skidmore-Dr-83406/home/115793257,SRMLS,2177746,N,Y,43.4461484,-111.9291583
MLS Listing,,Mobile/Manufactured Home,2146 E Pinetree Cir,Idaho Falls,ID,83401,79500,3,1.5,PINE WOOD ESTATES-BON,924,,1995,37,86,,Active,,,https://www.redfin.com/ID/Idaho-Falls/2146-Pine-Tree-Cir-83401/home/115607512,SRMLS,2177740,N,Y,43.5166706,-111.9896251
MLS Listing,,Single Family Residential,6439 Ender Ln,Idaho Falls,ID,83401,484990,6,3.0,TETON VIEW ESTATES-BON,2824,8973,2025,37,172,100,Active,,,https://www.redfin.com/ID/Idaho-Falls/6439-Ender-Ln-83401/home/195240996,SRMLS,2177742,N,Y,43.5529095,-112.0302498
MLS Listing,,Single Family Residential,683 Boxwood Dr,Idaho Falls,ID,83402,580000,5,3.0,LINDEN TRAILS-BON,3400,10890,2021,37,171,50,Active,,,https://www.redfin.com/ID/Idaho-Falls/683-Boxwood-Dr-83402/home/181981742,SRMLS,2177733,N,Y,43.4914913,-112.0859936
MLS Listing,,Single Family Residential,7084 Bedford Ave,Idaho Falls,ID,83402,529500,5,3.0,IVYWOOD-BON,2736,10280,2019,37,194,9,Active,,,https://www.redfin.com/ID/Idaho-Falls/7084-S-Bedford-Ave-83402/home/172617504,SRMLS,2177725,N,Y,43.434738,-112.044786
MLS Listing,,Single Family Residential,3617 E Lincoln Rd,Ammon,ID,83401,339000,3,1.0,LINCOLN TOWNSITE-BON,1572,13939,1900,37,216,,Active,,,https://www.redfin.com/ID/Idaho-Falls/3617-E-Lincoln-Rd-83401/home/115834875,SRMLS,2177723,N,Y,43.5115646,-111.9624791
MLS Listing,,Single Family Residential,5055 E Smith Dr,Iona,ID,83427,499900,3,2.0,FREEDOM FIELD ESTATES-BON,3129,24263,2022,37,160,9,Active,,,https://www.redfin.com/ID/Iona/5055-E-Smith-Dr-83427/home/181166796,SRMLS,2177721,N,Y,43.5393877,-111.932946
MLS Listing,,Single Family Residential,3159 Riata Ln,Ammon,ID,83406,405000,3,2.0,Crestwood Hills,2752,9148,2024,37,147,17,Active,,,https://www.redfin.com/ID/Ammon/3159-Riata-LN-Unknown/home/193818129,SRMLS,2177715,N,Y,43.468719,-111.943334
MLS Listing,,Single Family Residential,1251 Lake Ave,Idaho Falls,ID,83402,275000,3,2.0,RIVERSIDE SUBDIVISION-BON,1400,3485,1925,37,196,,Active,,,https://www.redfin.com/ID/Idaho-Falls/1251-Lake-Ave-83402/home/115759106,SRMLS,2177681,N,Y,43.4994606,-112.0350798
MLS Listing,,Single Family Residential,4976 E 49th S,Idaho Falls,ID,83406,2000000,4,3.5,Idaho Falls,6282,30492,1989,38,318,,Active,,,https://www.redfin.com/ID/Idaho-Falls/4976-E-49th-S-83406/home/115596099,PCTMLS,579788,N,Y,43.450863,-111.933775
MLS Listing,,Single Family Residential,1507 Avon Ln,Idaho Falls,ID,83401,439000,4,3.0,CRIMSON VALLEY-BON,2436,13504,2004,39,180,,Active,August-2-2025 10:00 AM,August-2-2025 12:00 PM,https://www.redfin.com/ID/Idaho-Falls/1507-Avon-Ln-83401/home/115485176,SRMLS,2177671,N,Y,43.5089098,-111.9511814
MLS Listing,,Single Family Residential,6260 Red Shirt Rd,Idaho Falls,ID,83401,399500,4,3.0,FREEDOM ACRES-BON,2830,7405,2025,39,141,10,Active,,,https://www.redfin.com/ID/Idaho-Falls/6260-Red-Shirt-RD-Unknown/home/196166705,SRMLS,2177654,N,Y,43.4926602,-112.0407506
MLS Listing,,Single Family Residential,1519 Alayssa Dr,Idaho Falls,ID,83402,470000,5,3.0,VILLAGE-BON,3010,10454,2012,39,156,,Active,,,https://www.redfin.com/ID/Idaho-Falls/1519-Alayssa-Dr-83402/home/115422130,SRMLS,2177648,N,Y,43.509641,-112.0924771
MLS Listing,,Vacant Land,113 Cold Springs Dr,Idaho Falls,ID,83404,105000,,,SOUTHPOINT-BON,,11430,,39,,,Active,,,https://www.redfin.com/ID/Idaho-Falls/113-Cold-Springs-Dr-83404/home/196163265,SRMLS,2177640,N,Y,43.444298,-112.034031
MLS Listing,,Multi-Family (2-4 Unit),955 N Eve Dr,Idaho Falls,ID,83401,657500,8,4.0,CORNERSTONE-BON,2980,11265,2006,42,221,,Active,,,https://www.redfin.com/ID/Idaho-Falls/955-Eve-Dr-83401/home/115485663,SRMLS,2177615,N,Y,43.5042553,-111.9565522
MLS Listing,,Multi-Family (2-4 Unit),949 Eve Dr,Idaho Falls,ID,83401,657500,8,4.0,CORNERSTONE-BON,2980,12014,2006,42,221,,Active,,,https://www.redfin.com/ID/Idaho-Falls/949-Eve-Dr-83401/home/115677942,SRMLS,2177614,N,Y,43.5039141,-111.9565643
MLS Listing,,Single Family Residential,494 11th St,Idaho Falls,ID,83404,550000,4,2.5,CROWS ADDITION-BON,3224,6098,1920,42,171,,Active,,,https://www.redfin.com/ID/Idaho-Falls/494-11th-St-83404/home/115597219,SRMLS,2177575,N,Y,43.4877894,-112.0240471
MLS Listing,,Single Family Residential,2313 E 1st St,Idaho Falls,ID,83401,450000,4,3.5,EAST VIEW-BON,2862,16731,1974,43,157,,Active,,,https://www.redfin.com/ID/Idaho-Falls/2313-1st-St-83401/home/115743683,SRMLS,2177563,N,Y,43.4968508,-111.9875794
MLS Listing,,Single Family Residential,1385 Terry Dr,Idaho Falls,ID,83404,350000,3,2.0,ORLIN PARK-BON,2547,9148,1963,43,137,,Active,,,https://www.redfin.com/ID/Idaho-Falls/1385-Terry-Dr-83404/home/115442689,SRMLS,2177555,N,Y,43.4852391,-112.0049501
MLS Listing,,Mobile/Manufactured Home,1452 Huckleberry Ln,Idaho Falls,ID,83401,65000,2,1.0,HOLLIPARK-BON,684,,1965,43,95,250,Active,,,https://www.redfin.com/ID/Idaho-Falls/1452-Huckleberry-St-83401/home/115853844,SRMLS,2177537,N,Y,43.5125588,-112.004473
MLS Listing,,Vacant Land,14122 N 5th E,Idaho Falls,ID,83401,690000,,,IDAHO FALLS,,1306800,,44,,,Active,,,https://www.redfin.com/ID/Idaho-Falls/14122-N-5th-E-83401/home/115705107,SRMLS,2177535,N,Y,43.6228765,-112.0230109
MLS Listing,,Single Family Residential,863 Coachman Dr,Idaho Falls,ID,83402,360000,5,2.0,OLD FASHION WAY-BON,1833,8276,1986,44,196,,Active,,,https://www.redfin.com/ID/Idaho-Falls/863-Coachman-Dr-83402/home/115392022,SRMLS,2177531,N,Y,43.5026061,-112.0739717
MLS Listing,,Single Family Residential,1463 Vega Cir #1,Idaho Falls,ID,83405,189000,2,2.0,WESTWOOD PARK VILLAGE CONDOS-BON,920,871,1970,44,205,125,Active,,,https://www.redfin.com/ID/Idaho-Falls/1463-Vega-Cir-83402/unit-1/home/196129076,SRMLS,2177516,N,Y,43.5030895,-112.0575691
MLS Listing,,Vacant Land,TBA Royal Ave,Idaho Falls,ID,83401,695000,,,BEL AIRE SUBDIVISION-BON,,112995,,44,,,Active,,,https://www.redfin.com/ID/Idaho-Falls/TBA-Royal-Ave-83401/home/196127403,SRMLS,2177500,N,Y,43.5039145,-112.0136956
MLS Listing,,Single Family Residential,750 Sharp Pl,Idaho Falls,ID,83401,305000,3,1.0,BEL AIRE SUBDIVISION-BON,1040,7841,1951,44,293,,Active,,,https://www.redfin.com/ID/Idaho-Falls/750-Sharp-Pl-83401/home/115616215,SRMLS,2177494,N,Y,43.5026682,-112.0114573
MLS Listing,,Single Family Residential,4935 Jupiter Hills Dr,Idaho Falls,ID,83401,584900,6,3.0,KINGS ISLAND-BON,4216,10890,2005,45,139,42,Active,,,https://www.redfin.com/ID/Idaho-Falls/4935-Jupiter-Hills-Dr-83401/home/115525071,SRMLS,2177478,N,Y,43.5393503,-112.0378309
MLS Listing,,Vacant Land,TBD 55th W Unit P4,Idaho Falls,ID,83402,425000,,,IDAHO FALLS,,435600,,45,,,Active,,,https://www.redfin.com/ID/Unknown/TBD-N-55th-W-83402/unit-P4/home/196120457,SRMLS,2177467,N,Y,43.5115554,-112.1426393
MLS Listing,,Vacant Land,TBD 55th W Unit P2,Idaho Falls,ID,83402,299500,,,IDAHO FALLS,,435600,,45,,,Active,,,https://www.redfin.com/ID/Unknown/TBD-N-55th-W-83402/unit-P2/home/196120454,SRMLS,2177468,N,Y,43.5115554,-112.1426393
MLS Listing,,Vacant Land,TBD 55th W Unit P3,Idaho Falls,ID,83402,325000,,,IDAHO FALLS,,435600,,45,,,Active,,,https://www.redfin.com/ID/Unknown/TBD-N-55th-W-83402/unit-P3/home/196120452,SRMLS,2177466,N,Y,43.5115554,-112.1426393
MLS Listing,,Vacant Land,TBD 55th W Unit P1,Idaho Falls,ID,83402,275000,,,IDAHO FALLS,,784080,,45,,,Active,,,https://www.redfin.com/ID/Idaho-Falls/1463-Commerce-Way-83401/unit-P1/home/196120448,SRMLS,2177464,N,Y,43.5339468,-112.0046852
MLS Listing,,Single Family Residential,153 Stone Run Ln,Idaho Falls,ID,83404,665000,6,3.5,STONEBROOK-BON,3955,12632,1986,45,168,5,Active,,,https://www.redfin.com/ID/Idaho-Falls/153-Stone-Run-Ln-83404/home/115862846,SRMLS,2177459,N,Y,43.4677638,-112.0331559
MLS Listing,,Single Family Residential,550 11th St,Idaho Falls,ID,83404,349900,4,2.0,SCOTTS ADDITION-BON,2853,8625,1950,45,123,,Active,August-2-2025 10:00 AM,August-2-2025 12:00 PM,https://www.redfin.com/ID/Idaho-Falls/550-11th-St-83404/home/115840040,SRMLS,2177457,N,Y,43.4876753,-112.0225554
MLS Listing,,Single Family Residential,645 Kelsey Ave,Idaho Falls,ID,83401,318000,3,1.0,KELSEY ESTATES-BON,1161,8712,1959,46,274,,Active,,,https://www.redfin.com/ID/Idaho-Falls/645-Kelsey-Ave-83401/home/115409527,SRMLS,2177211,N,Y,43.5017808,-112.0031545
MLS Listing,,Single Family Residential,5241 E Powerhouse Dr,Ammon,ID,83406,785000,3,2.0,COMORE LOMA-BON,5444,60984,2007,46,144,,Active,,,https://www.redfin.com/ID/Idaho-Falls/5241-E-Powerhouse-Dr-83406/home/115489364,SRMLS,2176908,N,Y,43.4291281,-111.9302066
MLS Listing,,Mobile/Manufactured Home,500 N Lakewood Ave,Idaho Falls,ID,83401,326500,5,3.0,MOBILE HOME ESTATES-BON,1813,9583,2024,46,180,,Active,,,https://www.redfin.com/ID/Idaho-Falls/500-Lakewood-Ave-83401/home/115823608,SRMLS,2177442,N,Y,43.4999658,-111.9638931
MLS Listing,,Single Family Residential,2214 W Saddle Ln,Idaho Falls,ID,83402,355000,4,3.0,IRONWOOD ESTATES-BON,1856,11761,1992,46,191,,Active,,,https://www.redfin.com/ID/Idaho-Falls/2214-W-Saddle-Ln-83402/home/115691361,SRMLS,2177438,N,Y,43.4806325,-112.0755349
MLS Listing,,Single Family Residential,2034 La Rain Ct,Idaho Falls,ID,83402,344000,4,2.0,IRONWOOD ESTATES-BON,1725,10389,1991,48,199,,Active,,,https://www.redfin.com/ID/Idaho-Falls/2034-La-Rain-Ct-83402/home/115445604,SRMLS,2177048,N,Y,43.4794433,-112.0760085
MLS Listing,,Vacant Land,TBD S 45 W,Idaho Falls,ID,83402,528000,,,IDAHO FALLS,,497237,,48,,,Active,,,https://www.redfin.com/ID/Unknown/TBD-S-45th-Rd-W-83402/home/195636361,SRMLS,2177423,N,Y,43.4262279,-112.1231033
MLS Listing,,Single Family Residential,375 N Freeman Ave,Idaho Falls,ID,83401,489900,5,2.5,CAPITOL HILL-BON,4058,12402,1967,48,121,,Active,,,https://www.redfin.com/ID/Idaho-Falls/375-N-Freeman-Ave-83401/home/115608426,SRMLS,2177422,N,Y,43.4993265,-112.021694
MLS Listing,,Single Family Residential,2300 S Boulevard Blvd,Idaho Falls,ID,83404,780000,5,3.0,ROSE PARK-BON,6710,49223,1931,48,116,,Active,,,https://www.redfin.com/ID/Idaho-Falls/2300-S-Boulevard-83402/home/115648415,SRMLS,2177416,N,Y,43.477048,-112.0340493
MLS Listing,,Single Family Residential,200 W Commons Rd,Idaho Falls,ID,83401,779000,6,3.0,Idaho Falls,4040,27007,2006,49,193,63,Active,,,https://www.redfin.com/ID/Idaho-Falls/200-W-Commons-Rd-83401/home/115586050,IMLS,98951112,N,Y,43.560506,-112.0328327
MLS Listing,,Single Family Residential,137 3rd St,Idaho Falls,ID,83401,265000,3,1.0,Idaho Falls,1846,392040,1920,49,144,,Active,,,https://www.redfin.com/ID/Idaho-Falls/137-3rd-St-83401/home/115735817,CDAMLS,25-6145,N,Y,43.4953148,-112.0326926
MLS Listing,,Single Family Residential,4246 N Ola Vista Ave,Idaho Falls,ID,83401,480000,4,2.0,Hatch Hollow,3060,10890,2023,49,157,8,Active,,,https://www.redfin.com/ID/Idaho-Falls/4246-Ola-Vista-Ave-83401/home/186429573,SRMLS,2177409,N,Y,43.5340655,-111.9506969
MLS Listing,,Single Family Residential,1020 Koster Ave,Idaho Falls,ID,83404,365000,5,2.0,PACKER ADDITION-BON,2239,8276,1958,49,163,,Active,,,https://www.redfin.com/ID/Idaho-Falls/1020-Koster-Ave-83404/home/115442875,SRMLS,2177401,N,Y,43.488594,-112.0014884
MLS Listing,,Multi-Family (2-4 Unit),2416 Virlow St,Idaho Falls,ID,83401,1280000,12,10.0,Virlow Village,5856,10454,2025,49,219,,Active,,,https://www.redfin.com/ID/Idaho-Falls/2416-Virlow-St-83401/home/196078457,SRMLS,2177381,N,Y,43.4971932,-111.9856382
MLS Listing,,Single Family Residential,418 Rock Hill Ln,Idaho Falls,ID,83401,630000,3,2.0,FAIRWAY ESTATES-BON,3676,10062,2025,49,171,,Active,,,https://www.redfin.com/ID/Idaho-Falls/418-Rock-Hill-Ln-83401/home/196078220,SRMLS,2177380,N,Y,43.5411762,-112.0261079
MLS Listing,,Single Family Residential,7009 Marble Cir,Idaho Falls,ID,83406,1045000,7,4.5,COMORE LOMA-BON,4792,110207,2007,49,218,,Active,,,https://www.redfin.com/ID/Idaho-Falls/7009-S-Marble-Cir-83406/home/115791619,SRMLS,2177378,N,Y,43.43382,-111.9246515
MLS Listing,,Vacant Land,TBD S Henry Creek Rd,Idaho Falls,ID,83406,349900,,,IRON RIM RANCH-BON,,53884,,50,,,Active,,,https://www.redfin.com/ID/Idaho-Falls/TBD-S-Henry-Creek-Rd-83406/home/196068913,SRMLS,2177358,N,Y,43.4142765,-111.9433526
MLS Listing,,Vacant Land,9921 S Henry Creek Rd,Idaho Falls,ID,83406,249900,,,IRON RIM RANCH-BON,,43560,,50,,,Active,,,https://www.redfin.com/ID/Idaho-Falls/9921-S-Henry-Creek-Rd-E-83406/home/196068480,SRMLS,2177355,N,Y,43.4078363,-111.941846
MLS Listing,,Vacant Land,TBD Cleveland St,Idaho Falls,ID,83401,185000,,,IDAHO FALLS,,8712,,50,,,Active,,,https://www.redfin.com/ID/Idaho-Falls/TBD-Cleveland-St-83401/home/184565216,SRMLS,2177348,N,Y,43.49961224,-112.02330499
MLS Listing,,Vacant Land,L52&53B5 Brad Cir,Idaho Falls,ID,83402,168000,,,TETON VIEW ESTATES-BON,,17163,,50,,,Active,,,https://www.redfin.com/ID/Idaho-Falls/L52-53B5-Brad-Cir-83401/home/191002648,SRMLS,2177329,N,Y,43.5526017,-112.0272874
MLS Listing,,Vacant Land,L44&45B5 Brad Cir,Idaho Falls,ID,83402,168000,,,TETON VIEW ESTATES-BON,,14549,,50,,,Active,,,https://www.redfin.com/ID/Idaho-Falls/L44-45B5-Brad-Cir-83401/home/191002644,SRMLS,2177325,N,Y,43.5526017,-112.0272874
MLS Listing,,Vacant Land,L46&47B5 Brad Cir,Idaho Falls,ID,83402,168000,,,TETON VIEW ESTATES-BON,,19907,,50,,,Active,,,https://www.redfin.com/ID/Idaho-Falls/L46-47B5-Brad-Cir-83401/home/191002646,SRMLS,2177326,N,Y,43.5526017,-112.0272874
MLS Listing,,Vacant Land,L50&51B5 Brad Cir,Idaho Falls,ID,83402,168000,,,TETON VIEW ESTATES-BON,,18600,,50,,,Active,,,https://www.redfin.com/ID/Idaho-Falls/L50-51B5-Brad-Cir-83401/home/191002647,SRMLS,2177328,N,Y,43.5526017,-112.0272874
MLS Listing,,Vacant Land,L48&49B5 Brad Cir,Idaho Falls,ID,83402,168000,,,TETON VIEW ESTATES-BON,,19515,,50,,,Active,,,https://www.redfin.com/ID/Idaho-Falls/L48-49B5-Brad-Cir-83401/home/191002645,SRMLS,2177327,N,Y,43.5526017,-112.0272874
MLS Listing,,Vacant Land,L40&41B5 Slider Ln,Idaho Falls,ID,83402,168000,,,TETON VIEW ESTATES-BON,,17032,,50,,,Active,,,https://www.redfin.com/ID/Idaho-Falls/L40-41B5-Slider-Ln-83401/home/190991690,SRMLS,2177322,N,Y,43.5507014,-112.0263102
MLS Listing,,Vacant Land,L42&43B5 Brad Cir,Idaho Falls,ID,83402,168000,,,TETON VIEW ESTATES-BON,,15943,,50,,,Active,,,https://www.redfin.com/ID/Idaho-Falls/L42-43B5-Brad-Cir-83401/home/191002485,SRMLS,2177324,N,Y,43.5526017,-112.0272874
MLS Listing,,Vacant Land,L48&49B1 Copeland Dr,Idaho Falls,ID,83402,168000,,,TETON VIEW ESTATES-BON,,15638,,50,,,Active,,,https://www.redfin.com/ID/Idaho-Falls/L48-49B1-Copeland-Dr-83401/home/190991763,SRMLS,2177323,N,Y,43.5513741,-112.0268565
MLS Listing,,Vacant Land,L28&29B5 Copeland Dr,Idaho Falls,ID,83402,170000,,,TETON VIEW ESTATES-BON,,18034,,50,,,Active,,,https://www.redfin.com/ID/Idaho-Falls/L28-29B5-Copeland-Dr-83401/home/190991614,SRMLS,2177319,N,Y,43.5513741,-112.0268565
MLS Listing,,Vacant Land,L34&35B5 Copeland Dr,Idaho Falls,ID,83402,170000,,,TETON VIEW ESTATES-BON,,18121,,50,,,Active,,,https://www.redfin.com/ID/Idaho-Falls/L34-35B5-Copeland-Dr-83401/home/190991691,SRMLS,2177320,N,Y,43.5513741,-112.0268565
MLS Listing,,Vacant Land,L17&18B4 Achilles Ave,Idaho Falls,ID,83402,170000,,,TETON VIEW ESTATES-BON,,16683,,50,,,Active,,,https://www.redfin.com/ID/Idaho-Falls/L17-18B4-Achilles-Ave-83401/home/190991472,SRMLS,2177314,N,Y,43.5524455,-112.0285912
MLS Listing,,Vacant Land,L15&16B4 Ender Ln,Idaho Falls,ID,83402,170000,,,TETON VIEW ESTATES-BON,,16422,,50,,,Active,,,https://www.redfin.com/ID/Idaho-Falls/L15-16B4-Ender-Ln-83401/home/190991471,SRMLS,2177313,N,Y,43.5516372,-112.0297998
MLS Listing,,Vacant Land,L24&25B5 Achilles Ave,Idaho Falls,ID,83402,168000,,,TETON VIEW ESTATES-BON,,14810,,50,,,Active,,,https://www.redfin.com/ID/Idaho-Falls/L24-25B5-Achilles-Ave-83401/home/190991570,SRMLS,2177317,N,Y,43.5524455,-112.0285912
MLS Listing,,Vacant Land,L22&23B5 Achilles Ave,Idaho Falls,ID,83402,170000,,,TETON VIEW ESTATES-BON,,16466,,50,,,Active,,,https://www.redfin.com/ID/Idaho-Falls/L22-23B5-Achilles-Ave-83401/home/190991544,SRMLS,2177316,N,Y,43.5524455,-112.0285912
MLS Listing,,Vacant Land,L26&27B5 Achilles Ave,Idaho Falls,ID,83402,168000,,,TETON VIEW ESTATES-BON,,14723,,50,,,Active,,,https://www.redfin.com/ID/Idaho-Falls/L26-27B5-Achilles-Ave-83401/home/190991572,SRMLS,2177318,N,Y,43.5524455,-112.0285912
MLS Listing,,Vacant Land,L19&20B4 Achilles Ave,Idaho Falls,ID,83402,168000,,,TETON VIEW ESTATES-BON,,14810,,50,,,Active,,,https://www.redfin.com/ID/Idaho-Falls/L19-20B4-Achilles-Ave-83401/home/190991473,SRMLS,2177315,N,Y,43.5524455,-112.0285912
MLS Listing,,Vacant Land,L27&28B6 Slider Ln,Idaho Falls,ID,83402,170000,,,TETON VIEW ESTATES-BON,,16161,,50,,,Active,,,https://www.redfin.com/ID/Idaho-Falls/L27-28B6-Slider-Ln-83401/home/190991081,SRMLS,2177307,N,Y,43.5507014,-112.0263102
MLS Listing,,Vacant Land,L41&42B6 Birdie Thompson Dr,Idaho Falls,ID,83402,160000,,,TETON VIEW ESTATES-BON,,15987,,50,,,Active,,,https://www.redfin.com/ID/Idaho-Falls/L41-42B6-Birdie-Thompson-Dr-83401/home/190991238,SRMLS,2177312,N,Y,43.5528809,-112.0272703
MLS Listing,,Vacant Land,L35&36B6 Slider Ln,Idaho Falls,ID,83402,160000,,,TETON VIEW ESTATES-BON,,15333,,50,,,Active,,,https://www.redfin.com/ID/Idaho-Falls/L35-36B6-Slider-Ln-83401/home/190991168,SRMLS,2177311,N,Y,43.5507014,-112.0263102
MLS Listing,,Vacant Land,L29&30B6 Slider Ln,Idaho Falls,ID,83402,170000,,,TETON VIEW ESTATES-BON,,17729,,50,,,Active,,,https://www.redfin.com/ID/Idaho-Falls/L29-30B6-Slider-Ln-83401/home/190991080,SRMLS,2177308,N,Y,43.5507014,-112.0263102
MLS Listing,,Vacant Land,L31&32B6 Slider Ln,Idaho Falls,ID,83402,170000,,,TETON VIEW ESTATES-BON,,17206,,50,,,Active,,,https://www.redfin.com/ID/Idaho-Falls/L31-32B6-Slider-Ln-83401/home/190991169,SRMLS,2177309,N,Y,43.5507014,-112.0263102
MLS Listing,,Vacant Land,L33&34B6 Slider Ln,Idaho Falls,ID,83402,168000,,,TETON VIEW ESTATES-BON,,14026,,50,,,Active,,,https://www.redfin.com/ID/Idaho-Falls/L33-34B6-Slider-Ln-83401/home/190991170,SRMLS,2177310,N,Y,43.5507014,-112.0263102
MLS Listing,,Vacant Land,L14&15B3 Birdie Thompson Dr,Idaho Falls,ID,83402,168000,,,TETON VIEW ESTATES-BON,,17990,,50,,,Active,,,https://www.redfin.com/ID/Idaho-Falls/L14-15B3-Birdie-Thompson-Dr-83401/home/190991048,SRMLS,2177306,N,Y,43.5528809,-112.0272703
MLS Listing,,Vacant Land,L44&45B1 Copeland Dr,Idaho Falls,ID,83402,168000,,,TETON VIEW ESTATES-BON,,14026,,50,,,Active,,,https://www.redfin.com/ID/Idaho-Falls/L44-45B1-Copeland-Dr-83401/home/196066779,SRMLS,2177302,N,Y,43.5513741,-112.0268565
MLS Listing,,Vacant Land,L46&47B1 Copeland Dr,Idaho Falls,ID,83402,168000,,,TETON VIEW ESTATES-BON,,14026,,50,,,Active,,,https://www.redfin.com/ID/Idaho-Falls/L46-47B1-Copeland-Dr-83401/home/196066778,SRMLS,2177305,N,Y,43.5513741,-112.0268565
MLS Listing,,Vacant Land,L42&43B1 Copeland Dr,Idaho Falls,ID,83402,168000,,,TETON VIEW ESTATES-BON,,14026,,50,,,Active,,,https://www.redfin.com/ID/Idaho-Falls/L42-43B1-Copeland-Dr-83401/home/196066776,SRMLS,2177300,N,Y,43.5513741,-112.0268565
MLS Listing,,Vacant Land,L40&41B1 Copeland Dr,Idaho Falls,ID,83402,168000,,,TETON VIEW ESTATES-BON,,14026,,50,,,Active,,,https://www.redfin.com/ID/Idaho-Falls/L40-41B1-Copeland-Dr-83401/home/196066706,SRMLS,2177298,N,Y,43.5513741,-112.0268565
MLS Listing,,Vacant Land,L38&39B1 Copeland Dr,Idaho Falls,ID,83402,168000,,,TETON VIEW ESTATES-BON,,14026,,50,,,Active,,,https://www.redfin.com/ID/Idaho-Falls/L38-39B1-Copeland-Dr-83401/home/196066705,SRMLS,2177297,N,Y,43.5513741,-112.0268565
MLS Listing,,Single Family Residential,220 Stillwater Dr,Idaho Falls,ID,83404,769999,5,3.0,SOUTHPOINT-BON,4936,17206,2006,50,156,35,Active,,,https://www.redfin.com/ID/Idaho-Falls/220-Stillwater-Dr-83404/home/115769724,SRMLS,2177293,N,Y,43.448649,-112.036548
MLS Listing,,Single Family Residential,6110 Bryson Ln,Idaho Falls,ID,83402,484000,5,3.0,PARK PLACE-BON,3332,8712,2012,50,145,8,Active,,,https://www.redfin.com/ID/Idaho-Falls/6110-Bryson-Ln-83402/home/115682759,SRMLS,2177274,N,Y,43.4428016,-112.0447339
MLS Listing,,Single Family Residential,2659 Laguna Dr,Idaho Falls,ID,83404,359900,4,3.0,ROSE NIELSEN-BON,2545,12197,1981,50,141,,Active,,,https://www.redfin.com/ID/Idaho-Falls/2659-Laguna-Dr-83404/home/115625902,SRMLS,2176977,N,Y,43.4736192,-111.9981866
MLS Listing,,Single Family Residential,408 N Curlew Dr,Ammon,ID,83401,515000,4,3.0,1st Street Community,3496,8189,2018,51,147,85,Active,August-2-2025 12:00 AM,August-2-2025 11:59 PM,https://www.redfin.com/ID/Ammon/408-N-Curlew-Dr-83401/home/172618152,SRMLS,2177269,N,Y,43.4990622,-111.9786381
MLS Listing,,Single Family Residential,2847 St Charles Ave,Idaho Falls,ID,83404,425000,5,3.0,PARK ST CLAIR-BON,2988,10454,1979,51,142,,Active,,,https://www.redfin.com/ID/Idaho-Falls/2847-Saint-Charles-Ave-83404/home/115816833,SRMLS,2177260,N,Y,43.4722344,-112.0056546
MLS Listing,,Single Family Residential,1276 Bingham Ave,Idaho Falls,ID,83404,325000,3,2.5,HIGHLAND PARK-BON,1928,2614,2025,51,169,,Active,,,https://www.redfin.com/ID/Idaho-Falls/1276-Bingham-Ave-83402/home/196050396,SRMLS,2177254,N,Y,43.510572,-112.0382292
MLS Listing,,Single Family Residential,1280 Bingham Ave,Idaho Falls,ID,83404,325000,3,2.5,HIGHLAND PARK-BON,1928,3485,2025,51,169,,Active,August-2-2025 11:00 AM,August-2-2025 01:00 PM,https://www.redfin.com/ID/Idaho-Falls/1280-Bingham-Ave-83402/home/196050283,SRMLS,2177252,N,Y,43.5106278,-112.038229
MLS Listing,,Single Family Residential,1272 Bingham Ave,Idaho Falls,ID,83404,325000,3,2.5,HIGHLAND PARK-BON,1928,2614,2025,51,169,,Active,,,https://www.redfin.com/ID/Idaho-Falls/1272-Bingham-Ave-83402/home/196050159,SRMLS,2177251,N,Y,43.5105163,-112.0382293
MLS Listing,,Single Family Residential,1268 Bingham Ave,Idaho Falls,ID,83404,325000,3,2.5,HIGHLAND PARK-BON,1928,3049,2025,51,169,,Active,,,https://www.redfin.com/ID/Idaho-Falls/1268-Bingham-Ave-83402/home/196048426,SRMLS,2177245,N,Y,43.5103827,-112.0382256
MLS Listing,,Multi-Family (2-4 Unit),TBD Bingham Ave,Idaho Falls,ID,83404,1300000,12,10.0,HIGHLAND PARK-BON,7712,14375,2025,51,169,,Active,,,https://www.redfin.com/ID/Idaho-Falls/TBD-Bingham-Ave-83402/home/182276972,SRMLS,2177242,N,Y,43.5105726707638,-112.038232556681
MLS Listing,,Mobile/Manufactured Home,4019 E Lincoln Rd,Idaho Falls,ID,83401,2250000,3,2.0,IDAHO FALLS,1826,96268,1998,52,1232,,Active,,,https://www.redfin.com/ID/Idaho-Falls/4019-E-Lincoln-Rd-83401/home/196037424,SRMLS,2177219,N,Y,43.5130018,-111.9539159
MLS Listing,,Single Family Residential,3899 Harrington Rd,Idaho Falls,ID,83404,540000,6,3.0,Thatcher Grove,3342,11326,2022,52,162,,Active,,,https://www.redfin.com/ID/Idaho-Falls/3899-Harrington-Rd-83404/home/180405411,SRMLS,2177208,N,Y,43.462508,-111.994213
MLS Listing,,Single Family Residential,5335 Carbine Dr,Idaho Falls,ID,83402,565000,6,3.0,BELMONT ESTATES-BON,3216,10890,2020,52,176,18,Active,,,https://www.redfin.com/ID/Idaho-Falls/5335-S-Carbine-Dr-83404/home/176246057,SRMLS,2177203,N,Y,43.4497335,-112.0211221
MLS Listing,,Single Family Residential,624 Cole Ct,Idaho Falls,ID,83402,599000,6,3.0,Park Place,3404,10454,2021,53,176,,Active,,,https://www.redfin.com/ID/Idaho-Falls/624-Cole-Ct-83402/home/181981169,PCTMLS,579622,N,Y,43.4409863,-112.0460934
MLS Listing,,Single Family Residential,1102 Atlantic St,Idaho Falls,ID,83404,415000,5,3.0,JENNIE LEE-BON,2886,8999,1961,53,144,,Active,,,https://www.redfin.com/ID/Idaho-Falls/1102-Atlantic-St-83404/home/115780044,SRMLS,2177138,N,Y,43.4765289,-112.011916
MLS Listing,,Single Family Residential,4439 Pocono St,Idaho Falls,ID,83404,590000,5,3.5,BRISTOL HEIGHTS-BON,3418,13852,2015,55,173,,Active,,,https://www.redfin.com/ID/Idaho-Falls/4439-Pocono-St-83404/home/116194026,SRMLS,2177165,N,Y,43.4579342,-112.0389254
MLS Listing,,Single Family Residential,6644 S Ensenada Cir,Idaho Falls,ID,83406,750000,5,3.0,COMORE LOMA-BON,3478,81457,2004,55,216,,Active,August-2-2025 02:00 PM,August-2-2025 04:00 PM,https://www.redfin.com/ID/Idaho-Falls/6644-S-Ensenada-Cir-83406/home/115897406,SRMLS,2177151,N,Y,43.4353665,-111.9302246
MLS Listing,,Single Family Residential,3508 Chimney Peak,Idaho Falls,ID,83404,435000,4,3.0,SUMMIT RUN-BON,2565,10454,1992,56,170,,Active,,,https://www.redfin.com/ID/Idaho-Falls/3508-Chimney-Peak-83404/home/115758088,SRMLS,2177146,N,Y,43.4661324,-112.011064
MLS Listing,,Vacant Land,Lot 4 Sagewood Dr,Idaho Falls,ID,83406,159000,,,COMORE LOMA-BON,,75359,,56,,,Active,,,https://www.redfin.com/ID/Unknown/Lot-4-E-Sagewood-Dr-83406/home/196010845,SRMLS,2177135,N,Y,43.4392825688954,-111.900891751622
MLS Listing,,Vacant Land,5460 E 65th S,Idaho Falls,ID,83406,120000,,,COMORE LOMA-BON,,70132,,56,,,Active,,,https://www.redfin.com/ID/Idaho-Falls/5460-E-65th-S-83406/home/190860104,SRMLS,2177111,N,Y,43.4382958,-111.925344
MLS Listing,,Single Family Residential,2950 N Ammon Rd,Idaho Falls,ID,83401,525000,4,4.0,IDAHO FALLS,3363,47045,1983,57,156,,Active,,,https://www.redfin.com/ID/Idaho-Falls/2950-N-Ammon-Rd-83401/home/115543486,SRMLS,2177072,N,Y,43.522451,-111.9635604
MLS Listing,,Vacant Land,TBD N Riverfront Dr,Idaho Falls,ID,83401,279900,,,IDAHO FALLS,,135036,,57,,,Active,,,https://www.redfin.com/ID/IDAHO-FALLS/TBD-N-Riverfront-DR-83402/home/184563738,SRMLS,2177108,N,Y,43.56851,-112.041211
MLS Listing,,Vacant Land,TBD Riverfront Dr,Idaho Falls,ID,83401,279000,,,IDAHO FALLS,,135036,,57,,,Active,,,https://www.redfin.com/ID/Unknown/TBD-Riverfront-Dr-83401/home/191194861,SRMLS,2177107,N,Y,43.5637077,-112.0434098
MLS Listing,,Vacant Land,1512 Canyon Ave,Idaho Falls,ID,83402,194500,,,HIGHLAND PARK-BON,,12197,,57,,,Active,,,https://www.redfin.com/ID/Idaho-Falls/1512-Canyon-Ave-83402/home/115409579,SRMLS,2177097,N,Y,43.515094,-112.0443
MLS Listing,,Single Family Residential,5085 Eaglewood Dr,Idaho Falls,ID,83401,779000,6,4.0,FAIRWAY ESTATES-BON,4608,11326,2023,57,169,,Active,,,https://www.redfin.com/ID/Idaho-Falls/5085-Eaglewood-Dr-83401/home/176245949,SRMLS,2177090,N,Y,43.5406835,-112.0345824
MLS Listing,,Single Family Residential,7351 S Bowman Ln,Idaho Falls,ID,83406,699999,5,3.0,COMORE LOMA-BON,3296,67518,2004,57,212,,Active,,,https://www.redfin.com/ID/Idaho-Falls/7351-S-Bowman-Ln-83406/home/115669434,SRMLS,2177079,N,Y,43.4308079,-111.929853
MLS Listing,,Single Family Residential,1574 Palm Springs Dr,Idaho Falls,ID,83404,699900,4,3.0,Sandcreek Estates,4574,12632,2022,57,153,30,Active,,,https://www.redfin.com/ID/Idaho-Falls/1574-Palm-Springs-Dr-83404/home/186732432,SRMLS,2177077,N,Y,43.4471778,-112.0022286
MLS Listing,,Single Family Residential,730 Jex,Idaho Falls,ID,83402,585000,5,3.5,PAR PLACE-BON,3219,11064,2020,58,182,8,Active,,,https://www.redfin.com/ID/Idaho-Falls/730-Jex-Ln-83402/home/144128192,SRMLS,2177076,N,Y,43.4447643,-112.048073
MLS Listing,,Single Family Residential,195-197 2nd St,Idaho Falls,ID,83401,700000,6,4.0,CROWS ADDITION-BON,3880,8276,2023,58,180,,Active,,,https://www.redfin.com/ID/Idaho-Falls/195-2nd-St-83401/home/195987389,SRMLS,2177064,N,Y,43.4962233,-112.0312588
MLS Listing,,Single Family Residential,7695 N Riverfront Dr,Idaho Falls,ID,83401,2100000,3,3.0,RIVERFRONT ESTATES-BON,5350,108900,2004,58,393,,Active,,,https://www.redfin.com/ID/Idaho-Falls/7695-N-Riverfront-Dr-83401/home/115717751,SRMLS,2177054,N,Y,43.561611,-112.043579
MLS Listing,,Single Family Residential,4051 N Ola Vista Ave,Idaho Falls,ID,83401,425000,3,2.0,BERKLEY PARK-BON,2656,13068,2022,58,160,8,Active,,,https://www.redfin.com/ID/Idaho-Falls/4051-Ola-Vista-Ave-83401/home/181978507,SRMLS,2177051,N,Y,43.5323059,-111.9514654
MLS Listing,,Single Family Residential,3340 Judy St,Ammon,ID,83406,405000,3,2.0,OLSEN PARK-BON,2675,9148,2018,59,151,9,Active,,,https://www.redfin.com/ID/Ammon/3340-Judy-St-83406/home/172617956,SRMLS,2177038,N,Y,43.46306,-111.96918
MLS Listing,,Single Family Residential,468 9th St,Idaho Falls,ID,83404,305000,3,2.0,CROWS ADDITION-BON,1266,6098,1920,60,241,,Active,,,https://www.redfin.com/ID/Idaho-Falls/468-9th-St-83404/home/115388657,SRMLS,2177000,N,Y,43.4896116,-112.0246123
MLS Listing,,Single Family Residential,265 N Karey Ln,Idaho Falls,ID,83402,470000,5,2.0,SCOTSVILLE-BON,2150,78844,1982,62,219,,Active,,,https://www.redfin.com/ID/Idaho-Falls/265-N-Karey-Ln-83402/home/115740367,SRMLS,2176979,N,Y,43.4995151,-112.151375
MLS Listing,,Single Family Residential,2085 Sequoia Dr,Idaho Falls,ID,83401,369000,4,2.0,EDGEMONT GARDENS-BON,2424,8276,1958,63,152,,Active,,,https://www.redfin.com/ID/Idaho-Falls/2085-Sequoia-Dr-83404/home/115826934,SRMLS,2176964,N,Y,43.4790372,-112.0117459
MLS Listing,,Single Family Residential,2819 W Meadow Lark Ln,Idaho Falls,ID,83402,875000,5,3.5,ROSEWOOD ACRES-BON,4940,87120,1987,63,177,,Active,,,https://www.redfin.com/ID/Idaho-Falls/2819-W-Meadow-Lark-Ln-83402/home/115881287,SRMLS,2176948,N,Y,43.5142856,-112.0885207
MLS Listing,,Single Family Residential,3747 Cove Fort Dr,Idaho Falls,ID,83401,410000,3,2.0,HERITAGE HILLS-BON,2500,12632,2017,63,164,7,Active,,,https://www.redfin.com/ID/Idaho-Falls/3747-Cove-Fort-Dr-83401/home/144127924,SRMLS,2176938,N,Y,43.5295865,-112.0479915
MLS Listing,,Single Family Residential,2846 Blackwood,Idaho Falls,ID,83402,410000,4,3.0,LINDEN TRAILS-BON,2516,2178,2020,63,163,240,Active,,,https://www.redfin.com/ID/Idaho-Falls/2846-Blackwood-83402/home/176245868,SRMLS,2176934,N,Y,43.4920801,-112.0880509
MLS Listing,,Single Family Residential,12027 E 101 N,Idaho Falls,ID,83401,1500000,4,3.5,IDAHO FALLS,8570,448668,2019,63,175,,Active,,,https://www.redfin.com/ID/IDAHO-FALLS/12027-E-101-N-83401/home/195954636,SRMLS,2176930,N,Y,43.5878798,-111.7919656
MLS Listing,,Single Family Residential,2850 Sable Chase Rd,Idaho Falls,ID,83401,499000,6,3.0,GREEN VALLEY ESTATES-BON,2868,10890,2017,64,174,9,Active,,,https://www.redfin.com/ID/Idaho-Falls/2850-Sable-Chase-Rd-83401/home/144128463,SRMLS,2176904,N,Y,43.5209866,-111.9460409
MLS Listing,,Mobile/Manufactured Home,3518 E Elswood Dr,Idaho Falls,ID,83402,79900,3,2.0,SUNNYSIDE ACRES-BON,1050,,1984,64,76,485,Active,,,https://www.redfin.com/ID/Idaho-Falls/3518-E-Elswood-Dr-83402/home/115812530,SRMLS,2176383,N,Y,43.466102,-112.049309
MLS Listing,,Vacant Land,5955 N Alma Dr,Idaho Falls,ID,83401,109900,,,PANORAMA HILLS-BON,,47437,,64,,,Active,,,https://www.redfin.com/ID/Idaho-Falls/5955-N-Alma-Dr-83401/home/115791417,SRMLS,2176881,N,Y,43.549517,-111.913059
MLS Listing,,Single Family Residential,5954 Macrae Dr,Idaho Falls,ID,83401,510000,6,3.0,PARK PLACE-BON,3340,8756,2025,65,153,8,Active,,,https://www.redfin.com/ID/Idaho-Falls/5954-Macrae-Dr-83402/home/195938235,SRMLS,2176875,N,Y,43.444228,-112.053342
MLS Listing,,Single Family Residential,6241 Maggie Dr,Idaho Falls,ID,83401,510000,5,3.0,PARK PLACE-BON,3350,14026,2025,65,152,8,Active,,,https://www.redfin.com/ID/Idaho-Falls/6241-Maggie-Dr-83402/home/195938233,SRMLS,2176876,N,Y,43.441606,-112.049214
MLS Listing,,Single Family Residential,3489 Wallace Way,Idaho Falls,ID,83401,375000,3,2.0,RED ROCK ESTATES-BON,2670,6264,2025,65,140,5,Active,,,https://www.redfin.com/ID/Idaho-Falls/1880-John-Adams-Pkwy-83401/home/195597736,SRMLS,2176558,N,Y,43.493216,-111.9966776
MLS Listing,,Vacant Land,5057 Shadow Creek Dr,Idaho Falls,ID,83401,167500,,,KINGS ISLAND-BON,,10934,,66,,,Active,,,https://www.redfin.com/ID/Idaho-Falls/5057-Shadow-Creek-Dr-83401/home/115549708,SRMLS,2176847,N,Y,43.540362,-112.039198
MLS Listing,,Single Family Residential,439 Hidden Bridgeln Ln,Idaho Falls,ID,83404,340000,3,2.5,Hidden Bridge,1695,2178,2025,66,201,75,Active,,,https://www.redfin.com/ID/Idaho-Falls/439-Hidden-Bridge-Ln-83404/home/195924047,SRMLS,2176838,N,Y,43.478808,-112.0253697
MLS Listing,,Single Family Residential,443 Hidden Bridgeln Ln,Idaho Falls,ID,83404,340000,3,2.5,Hidden Bridge,1695,2178,2025,66,201,75,Active,,,https://www.redfin.com/ID/Idaho-Falls/443-Hidden-Bridge-Ln-83404/home/195924045,SRMLS,2176839,N,Y,43.4788081,-112.0252504
MLS Listing,,Single Family Residential,447 Hidden Bridgeln Ln,Idaho Falls,ID,83404,340000,3,2.5,Hidden Bridge,1695,2178,2025,66,201,75,Active,,,https://www.redfin.com/ID/Idaho-Falls/447-Hidden-Bridge-Ln-83404/home/195924044,SRMLS,2176840,N,Y,43.4788082,-112.0251505
MLS Listing,,Single Family Residential,433 Hidden Bridgeln Ln,Idaho Falls,ID,83404,340000,3,2.5,Hidden Bridge,1695,2178,2025,66,201,75,Active,,,https://www.redfin.com/ID/Idaho-Falls/433-Hidden-Bridge-Ln-83404/home/195924013,SRMLS,2176837,N,Y,43.4788078,-112.0254716
MLS Listing,,Single Family Residential,431 Hidden Bridgeln Ln,Idaho Falls,ID,83404,340000,3,2.5,Hidden Bridge,1695,2178,2025,66,201,75,Active,,,https://www.redfin.com/ID/Idaho-Falls/431-Hidden-Bridge-Ln-83404/home/195924012,SRMLS,2176836,N,Y,43.4788078,-112.02556
MLS Listing,,Single Family Residential,427 Hidden Bridgeln Ln,Idaho Falls,ID,83404,340000,3,2.5,Hidden Bridge,1695,2178,2025,66,201,75,Active,,,https://www.redfin.com/ID/Idaho-Falls/427-Hidden-Bridge-Ln-83404/home/195923976,SRMLS,2176835,N,Y,43.4788077,-112.0256427
MLS Listing,,Single Family Residential,1052 E 129 N,Idaho Falls,ID,83401,899900,6,4.5,IDAHO FALLS,10344,93393,1922,67,87,,Active,,,https://www.redfin.com/ID/Idaho-Falls/1052-E-129-N-83401/home/115697724,SRMLS,2176821,N,Y,43.611076,-112.012447
MLS Listing,,Single Family Residential,345 W 17th St,Idaho Falls,ID,83402,355000,3,2.0,SOUTH PARK ADDITION-BON,2119,6098,1950,68,168,,Active,,,https://www.redfin.com/ID/Idaho-Falls/345-W-17th-St-83402/home/115759221,SRMLS,2176812,N,Y,43.4825173,-112.0397848
MLS Listing,,Single Family Residential,126 E 19th St,Idaho Falls,ID,83404,210000,1,1.0,BRODBECKS-BON,564,9583,1947,68,372,,Active,,,https://www.redfin.com/ID/Idaho-Falls/126-E-19th-St-83404/home/115395651,SRMLS,2176674,N,Y,43.4804376,-112.0328283
MLS Listing,,Single Family Residential,1945 E Alturas Cir,Idaho Falls,ID,83401,439000,4,4.0,MONTCLIFFE ESTATES-BON,2114,10454,1990,68,208,,Active,,,https://www.redfin.com/ID/Idaho-Falls/1945-E-Alturas-Cir-83401/home/115506013,SRMLS,2176810,N,Y,43.4959711,-111.9951372
MLS Listing,,Single Family Residential,368 E 21st St,Idaho Falls,ID,83404,375000,4,3.0,BRODBECKS-BON,3578,6098,1935,69,105,,Active,,,https://www.redfin.com/ID/Idaho-Falls/368-E-21st-St-83404/home/115681031,SRMLS,2176449,N,Y,43.4787138,-112.0268731
MLS Listing,,Single Family Residential,4406 Dry Creek Rd,Ammon,ID,83406,849900,5,3.0,Silver Springs,3770,20473,2023,70,225,,Active,,,https://www.redfin.com/ID/Ammon/4406-Dry-Creek-Way-83406/home/187426430,SRMLS,2176789,N,Y,43.4431756,-111.9460176
MLS Listing,,Single Family Residential,346 N Canyon Creek Rd,Idaho Falls,ID,83402,890000,4,3.5,SPRING MEADOWS-BON,4472,190357,2008,70,199,,Active,,,https://www.redfin.com/ID/Idaho-Falls/346-N-Canyon-Creek-Rd-83402/home/115722665,SRMLS,2176786,N,Y,43.4988734,-112.1285921
MLS Listing,,Vacant Land,tbd 65th W,Idaho Falls,ID,83402,400000,,,IDAHO FALLS,,435600,,70,,,Active,,,https://www.redfin.com/ID/Unknown/TBD-S-65th-W-83402/home/187461794,SRMLS,2176775,N,Y,43.4735719710111,-112.161755031738
MLS Listing,,Single Family Residential,5396 Cypress Crk,Idaho Falls,ID,83401,585000,6,3.0,FAIRWAY ESTATES-BON,3600,12894,2025,70,163,10,Active,,,https://www.redfin.com/ID/Idaho-Falls/5396-Cypress-Creek-Dr-83401/home/188581772,SRMLS,2176770,N,Y,43.5434709,-112.031677
MLS Listing,,Single Family Residential,5622 Glass Mountain Blvd,Idaho Falls,ID,83404,699000,6,3.0,SANDSTONE ESTATES,3686,17860,2023,70,190,21,Active,,,https://www.redfin.com/ID/Idaho-Falls/5622-Glass-Mountain-Blvd-83404/home/182492446,SRMLS,2176752,N,Y,43.4468729,-111.997825
MLS Listing,,Single Family Residential,5368 Cypress Crk,Idaho Falls,ID,83401,600000,5,3.5,FAIRWAY ESTATES-BON,3559,9583,2025,70,169,10,Active,,,https://www.redfin.com/ID/Idaho-Falls/5368-Cypress-Creek-Dr-83401/home/188581843,SRMLS,2176749,N,Y,43.543214,-112.031679
MLS Listing,,Vacant Land,TBD S Highline Dr,Idaho Falls,ID,83401,2500000,,,IDAHO FALLS,,13939200,,71,,,Active,,,https://www.redfin.com/ID/Unknown/TBD-S-Highline-Dr-83401/home/194119121,SRMLS,2176747,N,Y,43.4902055506645,-111.881546693115
MLS Listing,,Single Family Residential,4343 N Ruger Dr,Idaho Falls,ID,83401,585000,6,3.0,ROCK RIVER ESTATES-BON,3626,14810,2017,71,161,,Active,,,https://www.redfin.com/ID/Idaho-Falls/4343-N-Ruger-Dr-83401/home/144128508,SRMLS,2176741,N,Y,43.5352337,-111.9615543
MLS Listing,,Single Family Residential,185 E 25th St,Idaho Falls,ID,83404,334000,3,1.0,BRODBECKS-BON,1950,7841,1950,72,171,,Active,,,https://www.redfin.com/ID/Idaho-Falls/185-E-25th-St-83404/home/115727804,SRMLS,2176620,N,Y,43.4756047,-112.0315785
MLS Listing,,Multi-Family (2-4 Unit),335 E 17th St,Idaho Falls,ID,83404,360000,3,2.0,CROWS ADDITION-BON,1664,7841,1954,72,216,,Active,,,https://www.redfin.com/ID/Idaho-Falls/335-E-17th-St-83404/home/115815408,SRMLS,2176701,N,Y,43.4828159,-112.0275772
MLS Listing,,Single Family Residential,2439 Caddis Way,Idaho Falls,ID,83404,335000,3,2.5,Virlow Village,1676,3049,2024,72,200,,Active,,,https://www.redfin.com/ID/Idaho-Falls/2439-Caddis-WAY-83404/home/195871526,SRMLS,2176697,N,Y,43.496805,-111.985435
MLS Listing,,Single Family Residential,2435 Caddis Way,Idaho Falls,ID,83404,335000,3,2.5,Virlow Village,1676,3049,2024,72,200,,Active,,,https://www.redfin.com/ID/Idaho-Falls/2435-Caddis-WAY-83404/home/195870126,SRMLS,2176695,N,Y,43.496806,-111.985481
MLS Listing,,Single Family Residential,798 Garfield St,Idaho Falls,ID,83401,350000,4,3.0,CAPITOL HILL-BON,1834,17860,1959,72,191,,Active,,,https://www.redfin.com/ID/Idaho-Falls/798-Garfield-St-83401/home/115814670,SRMLS,2176685,N,Y,43.5002782,-112.0167972
MLS Listing,,Single Family Residential,2325 Balboa Dr,Idaho Falls,ID,83404,399000,5,3.5,ROSE NIELSEN-BON,3264,9148,1971,73,122,,Active,,,https://www.redfin.com/ID/Idaho-Falls/2325-Balboa-Dr-83404/home/115436626,SRMLS,2176673,N,Y,43.4766423,-111.9961394
MLS Listing,,Vacant Land,TBD E 97th S,Idaho Falls,ID,83404,500000,,,IDAHO FALLS,,504425,,73,,,Active,,,https://www.redfin.com/ID/IDAHO-FALLS/TBD-E-97th-S-83401/home/191195231,SRMLS,2176666,N,Y,43.40990633,-112.00880116
MLS Listing,,Single Family Residential,4755 Witts End,Idaho Falls,ID,83401,465000,4,3.5,WOLF CREEK-BON,2100,10219,2022,74,221,15,Active,,,https://www.redfin.com/ID/Idaho-Falls/4755-Witts-End-83401/home/181983200,SRMLS,2176640,N,Y,43.5389295,-111.9624178
MLS Listing,,Single Family Residential,5148 Rockland Dr,Idaho Falls,ID,83401,769000,6,3.0,Fairway Estates,5152,10803,2023,74,149,10,Active,,,https://www.redfin.com/ID/Idaho-Falls/5148-Rockland-Dr-83401/home/186473589,PCTMLS,579407,N,Y,43.541343,-112.024574
MLS Listing,,Single Family Residential,144 Links Way,Idaho Falls,ID,83401,775000,5,3.0,FAIRWAY ESTATES-BON,4312,27007,2022,74,180,10,Active,,,https://www.redfin.com/ID/Idaho-Falls/144-Links-Way-83401/home/115341577,SRMLS,2176647,N,Y,43.5382858,-112.0326403
MLS Listing,,Single Family Residential,2427 Caddis Way,Idaho Falls,ID,83404,335000,3,2.5,Virlow Village,1676,3049,2024,74,200,,Active,,,https://www.redfin.com/ID/Idaho-Falls/2427-Caddis-WAY-83404/home/195846885,SRMLS,2176642,N,Y,43.496809,-111.985572
MLS Listing,,Single Family Residential,2431 Caddis Way,Idaho Falls,ID,83404,335000,3,2.5,Virlow Village,1676,3049,2024,74,200,,Active,,,https://www.redfin.com/ID/Idaho-Falls/2431-Caddis-WAY-83404/home/195846884,SRMLS,2176643,N,Y,43.496808,-111.98553
MLS Listing,,Single Family Residential,4333 E Wagonwheel Cir,Idaho Falls,ID,83406,465000,3,2.0,CENTENNIAL RANCH-BON,1716,13142,2006,77,271,,Active,,,https://www.redfin.com/ID/Idaho-Falls/4333-Wagonwheel-Cir-83406/home/115778736,SRMLS,2176597,N,Y,43.4958796,-111.9477115
MLS Listing,,Single Family Residential,2423 Caddis Way,Idaho Falls,ID,83404,335000,3,2.5,Virlow Village,1676,3049,2024,77,200,,Active,,,https://www.redfin.com/ID/Idaho-Falls/2423-Caddis-WAY-83404/home/195831173,SRMLS,2176588,N,Y,43.496815,-111.985754
MLS Listing,,Single Family Residential,2419 Caddis Way,Idaho Falls,ID,83404,335000,3,2.5,Virlow Village,1676,3049,2024,77,200,,Active,,,https://www.redfin.com/ID/Idaho-Falls/2419-Caddis-WAY-83404/home/195831072,SRMLS,2176586,N,Y,43.496816,-111.985792
MLS Listing,,Vacant Land,5746 S Big Horn Cir,Idaho Falls,ID,83406,250000,,,COMORE LOMA-BON,,105851,,78,,,Active,,,https://www.redfin.com/ID/Idaho-Falls/5746-S-Big-Horn-Cir-83406/home/184563202,SRMLS,2176561,N,Y,43.4454441,-111.9146103
MLS Listing,,Single Family Residential,5081 Smith Dr,Iona,ID,83427,550000,5,3.0,FREEDOM FIELD ESTATES-BON,2990,21780,2023,78,184,9,Active,,,https://www.redfin.com/ID/Iona/5081-E-Smith-Dr-83427/home/181166851,SRMLS,2176546,N,Y,43.5393995,-111.9324071
MLS Listing,,Single Family Residential,3515 Charleston Ln,Idaho Falls,ID,83404,710000,6,3.5,STONEBROOK-BON,5636,14375,1996,79,126,,Active,,,https://www.redfin.com/ID/Idaho-Falls/3515-Charleston-Ln-83404/home/115707523,SRMLS,2176540,N,Y,43.4663445,-112.0341755
MLS Listing,,Single Family Residential,2415 Caddis Way,Idaho Falls,ID,83404,335000,3,2.5,Virlow Village,1676,3049,2024,79,200,,Active,,,https://www.redfin.com/ID/Idaho-Falls/2415-Caddis-WAY-83404/home/195810117,SRMLS,2176520,N,Y,43.496818,-111.985845
MLS Listing,,Single Family Residential,2411 Caddis Way,Idaho Falls,ID,83404,335000,3,2.5,Virlow Village,1676,3049,2024,79,200,,Active,,,https://www.redfin.com/ID/Idaho-Falls/2411-Caddis-WAY-83404/home/195810033,SRMLS,2176519,N,Y,43.49682,-111.985889
MLS Listing,,Vacant Land,4631 Cast Iron Rd,Idaho Falls,ID,83406,285000,,,Sellers Overlook,,125932,,80,,,Active,,,https://www.redfin.com/ID/Ammon/4631-E-Cast-Iron-Rd-83406/home/191416843,SRMLS,2176495,N,Y,43.4029497,-111.9419063
MLS Listing,,Single Family Residential,973 Jack Ln,Idaho Falls,ID,83402,519500,3,2.0,PAR PLACE-BON,3636,14549,2025,80,143,8,Active,,,https://www.redfin.com/ID/Idaho-Falls/973-Jack-Ln-83402/home/195797963,SRMLS,2176490,N,Y,43.444045,-112.053087
MLS Listing,,Single Family Residential,4205 Roy Cir,Idaho Falls,ID,83401,589000,6,4.0,OLD MILL-BON,2514,22651,2015,80,234,,Active,,,https://www.redfin.com/ID/Idaho-Falls/4205-E-Roy-Cir-83401/home/116175140,SRMLS,2175183,N,Y,43.5127738,-111.9507921
MLS Listing,,Single Family Residential,804 E Sunnyside Rd #1,Idaho Falls,ID,83401,339900,4,2.5,Aspen Point Townhomes,1667,,2024,80,204,90,Active,,,https://www.redfin.com/ID/Idaho-Falls/804-E-Sunnyside-Rd-83404/unit-1/home/190140213,SRMLS,2176473,N,Y,43.467902,-112.018043
MLS Listing,,Single Family Residential,794 E Sunnyside Rd #3,Idaho Falls,ID,83401,334900,4,2.5,Aspen Point Townhomes,1667,,2024,80,201,90,Active,,,https://www.redfin.com/ID/Idaho-Falls/794-E-Sunnyside-Rd-83404/unit-3/home/195796310,SRMLS,2176472,N,Y,43.4676064,-112.0180672
MLS Listing,,Single Family Residential,1274 Norton Ave,Idaho Falls,ID,83402,520000,4,3.5,JOHNS HEIGHTS-BON,4292,26136,1973,81,121,,Active,,,https://www.redfin.com/ID/Idaho-Falls/1274-Norton-Ave-83402/home/115398732,SRMLS,2176454,N,Y,43.5075372,-112.064183
MLS Listing,,Single Family Residential,5485 Pahala Dr,Idaho Falls,ID,83404,629900,6,3.0,SUNTERRA-BON,3664,19602,2008,84,172,16,Active,August-2-2025 10:00 AM,August-2-2025 12:00 PM,https://www.redfin.com/ID/Idaho-Falls/5485-Pahala-Dr-83404/home/115327664,SRMLS,2176401,N,Y,43.4482033,-112.0265662
MLS Listing,,Single Family Residential,595 Sycamore Cir,Idaho Falls,ID,83402,435000,4,3.5,RIDGEWOOD PARK-BON,3065,9148,2000,84,142,10,Active,,,https://www.redfin.com/ID/Idaho-Falls/595-Sycamore-Cir-83402/home/115733714,SRMLS,2176379,N,Y,43.4663675,-112.0452897
MLS Listing,,Single Family Residential,428 Rock Hill Ln,Idaho Falls,ID,83402,630000,5,3.0,FAIRWAY ESTATES-BON,3560,10062,2025,84,177,10,Active,,,https://www.redfin.com/ID/Idaho-Falls/428-Rock-Hill-Ln-83401/home/195657263,SRMLS,2176376,N,Y,43.541159,-112.025626
MLS Listing,,Single Family Residential,1284 Meadow Edge Ct,Idaho Falls,ID,83402,329900,3,2.5,Barnwood Estates,1531,,2025,85,215,90,Active,,,https://www.redfin.com/ID/Idaho-Falls/1284-Meadow-Edge-CT-Unknown/home/195650435,SRMLS,2176356,N,Y,43.4864339267551,-112.065216178873
MLS Listing,,Single Family Residential,3185 Sunnybrook Ln,Idaho Falls,ID,83404,550000,6,3.5,ROSE NIELSEN TOWNHOUSE-BON,4114,13068,1986,85,134,,Active,,,https://www.redfin.com/ID/Idaho-Falls/3185-Sunnybrook-Ln-83404/home/115560576,SRMLS,2175983,N,Y,43.4689965,-112.0009652
MLS Listing,,Single Family Residential,1272 Meadow Edge Ct,Idaho Falls,ID,83402,329900,3,2.5,Barnwood Estates,1531,,2025,85,215,90,Active,,,https://www.redfin.com/ID/Idaho-Falls/1272-Meadow-Edge-CT-Unknown/home/195650278,SRMLS,2176349,N,Y,43.4862205750407,-112.06520924093
MLS Listing,,Single Family Residential,653 11th St,Idaho Falls,ID,83404,550000,5,3.5,SCOTTS ADDITION-BON,3894,9583,1947,85,141,,Active,,,https://www.redfin.com/ID/Idaho-Falls/653-11th-St-83404/home/115862139,SRMLS,2176343,N,Y,43.4881592,-112.0206114
