SALE TYPE,SOLD DATE,PROPERTY TYPE,ADDRESS,CITY,STATE OR PROVINCE,ZIP OR POSTAL CODE,PRICE,BEDS,BATHS,LOCATION,SQUARE FEET,LOT SIZE,YEAR BUILT,DAYS ON MARKET,$/SQUARE FEET,HOA/MONTH,STATUS,NEXT OPEN HOUSE START TIME,NEXT OPEN HOUSE END TIME,URL (SEE https://www.redfin.com/buy-a-home/comparative-market-analysis FOR INFO ON PRICING),SOURCE,MLS#,FAVORITE,INTERESTED,LATITUDE,LONGITUDE
"In accordance with local MLS rules, some MLS listings are not included in the download"
MLS Listing,,Single Family Residential,2007 Schumacher Dr,Naperville,IL,60540,549900,4,3.5,Naperville,2212,,1995,1,249,,Active,August-9-2025 12:00 PM,August-9-2025 02:00 PM,https://www.redfin.com/IL/Naperville/2007-Schumacher-Dr-60540/home/18068758,MRED as Distributed by MLS Grid,12430211,N,Y,41.7541845,-88.1890369
MLS Listing,,Single Family Residential,3620 Ambrosia Dr,Naperville,IL,60564,924000,5,5.0,Wagner Farms,3600,,2022,1,257,58,Active,,,https://www.redfin.com/IL/Naperville/3620-Ambrosia-Dr-60564/home/184853485,MRED as Distributed by MLS Grid,12433285,N,Y,41.7011804,-88.2040379
MLS Listing,,Single Family Residential,2224 Flambeau Dr,Naperville,IL,60564,600000,4,2.5,Naperville,2270,,1987,6,264,,Active,August-3-2025 01:00 PM,August-3-2025 03:00 PM,https://www.redfin.com/IL/Naperville/2224-Flambeau-Dr-60564/home/23330829,MRED as Distributed by MLS Grid,12429953,N,Y,41.7237372,-88.173478
MLS Listing,,Single Family Residential,2412 Lucent Ln,Naperville,IL,60563,899000,5,3.0,Naperville,3382,,2024,7,266,96,Active,,,https://www.redfin.com/IL/Naperville/2412-Lucent-Ln-60563/home/179610880,MRED as Distributed by MLS Grid,12428108,N,Y,41.8180194,-88.1216603
MLS Listing,,Condo/Co-op,1543 Raymond Dr #204,Naperville,IL,60563,245000,2,2.0,Naperville,966,,1985,7,254,388,Active,,,https://www.redfin.com/IL/Naperville/1543-Raymond-Dr-60563/unit-204/home/17975740,MRED as Distributed by MLS Grid,12424395,N,Y,41.7941347,-88.1900131
MLS Listing,,Townhouse,1644 Windward Ave,Naperville,IL,60563,389000,3,2.5,Riverbrook West,1984,,2000,14,196,411,Active,,,https://www.redfin.com/IL/Naperville/1644-Windward-Ct-60563/home/22190667,MRED as Distributed by MLS Grid,12416693,N,Y,41.7797366,-88.1900539
MLS Listing,,Condo/Co-op,1329 Queensgreen Cir,Naperville,IL,60563,325000,2,1.5,Terraces of Brookdale,1297,,1986,16,251,315,Active,,,https://www.redfin.com/IL/Naperville/1329-Queensgreen-Cir-60563/home/196179448,MRED as Distributed by MLS Grid,12421135,N,Y,41.7915002,-88.1870428
MLS Listing,,Townhouse,30W003 Brayman Ct,Warrenville,IL,60563,449900,3,2.5,Lexington Trace,2006,1092,2022,21,224,235,Active,,,https://www.redfin.com/IL/Warrenville/30W003-Brayman-Ct-60563/home/185881143,MRED as Distributed by MLS Grid,12410737,N,Y,41.817759,-88.205239
MLS Listing,,Single Family Residential,584 Beaconsfield Ave,Naperville,IL,60565,599900,4,2.5,Cedar Glen,2130,6098,1987,21,282,,Active,,,https://www.redfin.com/IL/Naperville/584-Beaconsfield-Ave-60565/home/23237927,MRED as Distributed by MLS Grid,12412448,N,Y,41.7251889,-88.1603024
MLS Listing,,Single Family Residential,8S452 Bell Dr,Naperville,IL,60565,2500000,7,5.5,Naperville,6300,45750,1975,22,397,,Active,,,https://www.redfin.com/IL/Naperville/8S452-Bell-Dr-60565/home/14156080,MRED as Distributed by MLS Grid,12410521,N,Y,41.7475109,-88.1216722
MLS Listing,,Single Family Residential,557 Juniper Dr,Naperville,IL,60540,1275000,5,5.5,West Highlands,4790,,2005,34,266,,Active,,,https://www.redfin.com/IL/Naperville/557-Juniper-Dr-60540/home/18070462,MRED as Distributed by MLS Grid,12405821,N,Y,41.7507597,-88.1558598
MLS Listing,,Single Family Residential,2247 Palmer Cir,Naperville,IL,60564,999000,4,4.0,White Eagle,3850,15681,1994,1,259,97,Active,,,https://www.redfin.com/IL/Naperville/2247-Palmer-Cir-60564/home/23238096,MRED as Distributed by MLS Grid,12435146,N,Y,41.72299,-88.2077095
MLS Listing,,Single Family Residential,805 Potomac Ave,Naperville,IL,60565,800000,4,3.5,Naperville,4188,,1983,1,191,,Active,August-2-2025 01:00 PM,August-2-2025 03:00 PM,https://www.redfin.com/IL/Naperville/805-Potomac-Ave-60565/home/23339794,MRED as Distributed by MLS Grid,12432028,N,Y,41.7264689,-88.115588
MLS Listing,,Townhouse,2206 Weatherbee Ln,Naperville,IL,60563,624900,3,2.5,Naper Commons,2100,7200,2022,1,298,348,Active,,,https://www.redfin.com/IL/Naperville/2206-Weatherbee-Ln-60563/home/182266171,MRED as Distributed by MLS Grid,12435049,N,Y,41.813289,-88.117473
MLS Listing,,Single Family Residential,1401 Sussex Rd,Naperville,IL,60540,749900,5,2.5,Huntington Commons,3118,14374,1976,1,241,,Active,,,https://www.redfin.com/IL/Naperville/1401-Sussex-Rd-60540/home/14165358,MRED as Distributed by MLS Grid,12434858,N,Y,41.7766767,-88.1154693
MLS Listing,,Single Family Residential,1500 Sequoia Rd,Naperville,IL,60540,699900,4,3.0,West Wind,2669,11761,1987,1,262,,Active,August-3-2025 12:00 PM,August-3-2025 02:00 PM,https://www.redfin.com/IL/Naperville/1500-Sequoia-Rd-60540/home/18072400,MRED as Distributed by MLS Grid,12434776,N,Y,41.7582996,-88.1794095
MLS Listing,,Condo/Co-op,2148 Sunderland Ct Unit 101A,Naperville,IL,60565,310000,3,2.0,Old Sawmill,1250,,1984,1,248,,Active,,,https://www.redfin.com/IL/Naperville/2148-Sunderland-Ct-60565/unit-101A/home/18038547,MRED as Distributed by MLS Grid,12422303,N,Y,41.728011,-88.133677
MLS Listing,,Single Family Residential,1636 Canyon Run Rd,Naperville,IL,60565,799000,5,3.5,Naperville,3659,13068,1993,1,218,,Active,,,https://www.redfin.com/IL/Naperville/1636-Canyon-Run-Rd-60565/home/18035588,MRED as Distributed by MLS Grid,12434726,N,Y,41.7341407,-88.099592
MLS Listing,,Single Family Residential,1312 Frederick Ln,Naperville,IL,60565,525000,4,2.5,Bay Colony,2623,13939,1971,1,200,,Active,August-2-2025 01:00 PM,August-2-2025 03:00 PM,https://www.redfin.com/IL/Naperville/1312-Frederick-Ln-60565/home/18039488,MRED as Distributed by MLS Grid,12428878,N,Y,41.7469202,-88.1465672
MLS Listing,,Single Family Residential,6S475 Sussex Rd,Naperville,IL,60540,624900,4,2.5,Huntington,2501,,1973,1,250,17,Active,August-3-2025 12:00 PM,August-3-2025 02:00 PM,https://www.redfin.com/IL/Naperville/6S475-Sussex-Rd-60540/home/18051722,MRED as Distributed by MLS Grid,12434624,N,Y,41.7765567,-88.1130966
MLS Listing,,Single Family Residential,223 Center St,Naperville,IL,60540,1499000,5,5.0,Naperville,3476,7500,2024,1,431,,Active,August-3-2025 01:00 PM,August-3-2025 03:00 PM,https://www.redfin.com/IL/Naperville/223-Center-St-60540/home/18050791,MRED as Distributed by MLS Grid,12434606,N,Y,41.7782582,-88.1464698
MLS Listing,,Single Family Residential,1343 Dunrobin Rd,Naperville,IL,60540,1050000,4,2.5,Olesen Estates,4370,18295,1996,1,240,,Active,August-2-2025 12:00 PM,August-2-2025 02:00 PM,https://www.redfin.com/IL/Naperville/1343-Dunrobin-Rd-60540/home/18050293,MRED as Distributed by MLS Grid,12395659,N,Y,41.7711517,-88.1157865
MLS Listing,,Townhouse,1724 Tamahawk Ln,Naperville,IL,60564,375000,2,1.5,Winchester Trails,1695,2415,1995,1,221,270,Active,August-3-2025 12:00 PM,August-3-2025 02:00 PM,https://www.redfin.com/IL/Naperville/1724-Tamahawk-Ln-60564/home/23377930,MRED as Distributed by MLS Grid,12434369,N,Y,41.7109335,-88.1834596
MLS Listing,,Townhouse,558 Harlowe Ln,Naperville,IL,60565,450000,2,2.5,Baileywood,1829,,1995,1,246,381,Active,,,https://www.redfin.com/IL/Naperville/558-Harlowe-Ln-60565/home/18040866,MRED as Distributed by MLS Grid,12434138,N,Y,41.7415687,-88.1199461
MLS Listing,,Townhouse,431 Orleans Ave #431,Naperville,IL,60565,474900,3,3.5,Orleans,,,1990,1,,370,Active,,,https://www.redfin.com/IL/Naperville/431-Orleans-Ave-60565/unit-431/home/183977577,MRED as Distributed by MLS Grid,12433446,N,Y,41.7383136,-88.1204971
MLS Listing,,Townhouse,3331 Rosecroft Ln,Naperville,IL,60564,410000,3,2.5,Heatherstone,1931,1680,2001,1,212,400,Active,August-3-2025 01:00 PM,August-3-2025 03:00 PM,https://www.redfin.com/IL/Naperville/3331-Rosecroft-Ln-60564/home/23334601,MRED as Distributed by MLS Grid,12434032,N,Y,41.7115969,-88.211061
MLS Listing,,Single Family Residential,1202 Chateaugay Ave,Naperville,IL,60540,740000,4,2.5,Hobson Village,2700,10018,1979,1,274,13,Active,,,https://www.redfin.com/IL/Naperville/1202-Chateaugay-Ave-60540/home/18048213,MRED as Distributed by MLS Grid,12413272,N,Y,41.7616782,-88.1243722
MLS Listing,,Single Family Residential,2633 Haddassah Dr,Naperville,IL,60565,774900,5,3.0,Knoch Knolls,3002,,1992,1,258,8,Active,,,https://www.redfin.com/IL/Naperville/2633-Haddassah-Dr-60565/home/23262043,MRED as Distributed by MLS Grid,12433641,N,Y,41.7170653,-88.1474158
MLS Listing,,Condo/Co-op,2604 Sheehan Ct #204,Naperville,IL,60564,309900,2,2.0,Windridge,1240,,1998,1,250,273,Active,,,https://www.redfin.com/IL/Naperville/2604-Sheehan-Ct-60564/unit-204/home/23170752,MRED as Distributed by MLS Grid,12429267,N,Y,41.7177188,-88.2021992
MLS Listing,,Townhouse,1379 Danada Ct,Naperville,IL,60563,480000,2,2.5,Naperville,2333,3597,2001,1,206,310,Active,,,https://www.redfin.com/IL/Naperville/1379-Danada-Ct-60563/home/17991019,MRED as Distributed by MLS Grid,12433577,N,Y,41.8140612,-88.1152464
MLS Listing,,Single Family Residential,5083 Prairie Sage Ln,Naperville,IL,60564,600000,4,2.5,High Meadow,2780,13840,1998,1,216,19,Active,,,https://www.redfin.com/IL/Naperville/5083-Prairie-Sage-Ln-60564/home/23299137,MRED as Distributed by MLS Grid,12433282,N,Y,41.6793881,-88.2014761
MLS Listing,,Single Family Residential,1216 Suffolk St,Naperville,IL,60563,599900,4,2.5,Saybrook,1833,10018,1964,1,327,,Active,,,https://www.redfin.com/IL/Naperville/1216-Suffolk-St-60563/home/18059062,MRED as Distributed by MLS Grid,12431425,N,Y,41.7903324,-88.146018
MLS Listing,,Single Family Residential,1309 Monmouth Ave,Naperville,IL,60565,414900,3,1.5,University Heights,1320,,1984,2,314,,Active,,,https://www.redfin.com/IL/Naperville/1309-Monmouth-Ave-60565/home/18036505,MRED as Distributed by MLS Grid,12330769,N,Y,41.7382563,-88.1073269
MLS Listing,,Single Family Residential,1105 Greensfield Dr,Naperville,IL,60563,415000,3,2.0,Naperville,1976,6375,1979,2,210,,Active,August-2-2025 11:00 AM,August-2-2025 01:00 PM,https://www.redfin.com/IL/Naperville/1105-Greensfield-Dr-60563/home/18051373,MRED as Distributed by MLS Grid,12425343,N,Y,41.7833469,-88.1295131
MLS Listing,,Single Family Residential,6S503 Bridlespur Dr,Naperville,IL,60540,630000,4,3.5,Naperville,3355,13638,1970,2,188,,Active,,,https://www.redfin.com/IL/Naperville/6S503-Bridlespur-Dr-60540/home/18051704,MRED as Distributed by MLS Grid,12432912,N,Y,41.7760668,-88.110383
MLS Listing,,Condo/Co-op,630 Zaininger Ave Unit D,Naperville,IL,60563,325000,3,2.0,Creekside Court,1375,,1982,2,236,351,Active,,,https://www.redfin.com/IL/Naperville/630-Zaininger-Ave-60563/unit-D/home/18077136,MRED as Distributed by MLS Grid,12430478,N,Y,41.7871102,-88.1595179
MLS Listing,,Single Family Residential,28W409 Leverenz Rd,Naperville,IL,60564,625000,4,3.0,Naperville,2597,20908,1975,2,241,,Active,,,https://www.redfin.com/IL/Naperville/28W409-Leverenz-Rd-60564/home/23368513,MRED as Distributed by MLS Grid,12432174,N,Y,41.717863,-88.177235
MLS Listing,,Single Family Residential,1552 Chat Ct,Naperville,IL,60565,690000,4,2.5,Maplebrook II,2810,,1970,2,246,,Active,August-3-2025 11:00 AM,August-3-2025 01:00 PM,https://www.redfin.com/IL/Naperville/1552-Chat-Ct-60565/home/18039688,MRED as Distributed by MLS Grid,12432742,N,Y,41.7420164,-88.1324274
MLS Listing,,Townhouse,828 E Franklin Ave,Naperville,IL,60540,1299900,3,3.5,Naperville,2817,4708,2025,2,461,,Active,,,https://www.redfin.com/IL/Naperville/828-E-Franklin-Ave-60540/home/193270569,MRED as Distributed by MLS Grid,12432557,N,Y,41.7756594,-88.1353923
MLS Listing,,Townhouse,1629 Masters Ct,Naperville,IL,60563,375000,3,2.5,Naperville,2343,2366,1988,2,160,245,Active,August-2-2025 11:00 AM,August-2-2025 01:00 PM,https://www.redfin.com/IL/Naperville/1629-Masters-Ct-60563/home/18081748,MRED as Distributed by MLS Grid,12432465,N,Y,41.7983816,-88.2192584
MLS Listing,,Single Family Residential,839 Bellingrath Ct,Naperville,IL,60563,1100000,5,3.5,Columbia Estates,3540,9583,1984,2,311,,Active,,,https://www.redfin.com/IL/Naperville/839-Bellingrath-Ct-60563/home/18051073,MRED as Distributed by MLS Grid,12411174,N,Y,41.7820738,-88.1354967
MLS Listing,,Single Family Residential,4848 Snapjack Cir,Naperville,IL,60564,625000,4,2.5,Naperville,2815,,1996,2,222,29,Active,,,https://www.redfin.com/IL/Naperville/4848-Snapjack-Cir-60564/home/23156494,MRED as Distributed by MLS Grid,12432256,N,Y,41.6811999,-88.1943483
MLS Listing,,Single Family Residential,1585 Winberie Ct,Naperville,IL,60564,960000,5,3.5,White Eagle,3530,16805,1989,2,272,97,Active,,,https://www.redfin.com/IL/Naperville/1585-Winberie-Ct-60564/home/18063053,MRED as Distributed by MLS Grid,12432131,N,Y,41.7255626,-88.2184556
MLS Listing,,Townhouse,838 Havenshire Rd,Naperville,IL,60565,534900,6,3.5,Ranches of Havenshire,2382,6048,1998,2,225,365,Active,August-2-2025 01:00 PM,August-2-2025 04:00 PM,https://www.redfin.com/IL/Naperville/838-Havenshire-Rd-60565/home/18069206,MRED as Distributed by MLS Grid,12432078,N,Y,41.7455864,-88.1622281
MLS Listing,,Single Family Residential,670 Melody Ln,Naperville,IL,60540,549000,3,1.5,East Highlands,1800,11996,1958,2,305,,Active,,,https://www.redfin.com/IL/Naperville/670-Melody-Ln-60540/home/14353654,MRED as Distributed by MLS Grid,12400889,N,Y,41.7637137,-88.1470535
MLS Listing,,Townhouse,1959 Lancaster Ct #1,Naperville,IL,60565,290000,2,2.5,Lancaster Coach,1312,,1991,3,221,290,Active,,,https://www.redfin.com/IL/Naperville/1959-Lancaster-Ct-60565/unit-1/home/18038968,MRED as Distributed by MLS Grid,12399385,N,Y,41.7310933,-88.1331481
MLS Listing,,Single Family Residential,7S448 Arbor Dr,Naperville,IL,60540,2150000,5,4.5,Green Acres,4422,37461,2006,3,486,8,Active,,,https://www.redfin.com/IL/Naperville/7S448-Arbor-Dr-60540/home/18070308,MRED as Distributed by MLS Grid,12423484,N,Y,41.7611698,-88.1652331
MLS Listing,,Single Family Residential,36 Oak Bluff Ct,Naperville,IL,60565,1220000,5,5.0,Naperville,4700,,1996,3,260,,Active,,,https://www.redfin.com/IL/Naperville/36-Oak-Bluff-Ct-60565/home/23193226,MRED as Distributed by MLS Grid,12409293,N,Y,41.7184746,-88.1310116
MLS Listing,,Single Family Residential,1716 Paddington Ave,Naperville,IL,60563,459000,3,1.5,Brookdale,1800,6329,1978,5,255,,Active,August-2-2025 12:00 PM,August-2-2025 03:00 PM,https://www.redfin.com/IL/Naperville/1716-Paddington-Ave-60563/home/18079243,MRED as Distributed by MLS Grid,12427753,N,Y,41.785667,-88.1972435
MLS Listing,,Townhouse,915 Coletta Cir,Naperville,IL,60563,650000,3,3.0,Naperville,2534,1232,2018,6,257,440,Active,,,https://www.redfin.com/IL/Naperville/915-Coletta-Cir-60563/home/148166142,MRED as Distributed by MLS Grid,12429820,N,Y,41.7805753,-88.1329992
MLS Listing,,Single Family Residential,1244 Hollingswood Ave,Naperville,IL,60564,695000,5,2.5,Ashbury,2573,15245,1995,6,270,54,Active,,,https://www.redfin.com/IL/Naperville/1244-Hollingswood-Ave-60564/home/23161442,MRED as Distributed by MLS Grid,12430397,N,Y,41.7037799,-88.1752655
MLS Listing,,Single Family Residential,1912 Seton Hall Dr,Naperville,IL,60565,530000,4,2.5,University Heights,2118,8712,1984,6,250,,Active,,,https://www.redfin.com/IL/Naperville/1912-Seton-Hall-Dr-60565/home/18036238,MRED as Distributed by MLS Grid,12430355,N,Y,41.7342879,-88.1057661
MLS Listing,,Townhouse,2906 Reflection Dr,Naperville,IL,60564,511990,3,2.5,Naperville Crossings,2047,,2022,6,250,360,Active,August-2-2025 12:00 PM,August-2-2025 03:00 PM,https://www.redfin.com/IL/Naperville/2906-Reflection-Dr-60564/home/177819940,MRED as Distributed by MLS Grid,12429052,N,Y,41.7106,-88.2088
MLS Listing,,Single Family Residential,5676 Rosinweed Ln,Naperville,IL,60564,899999,5,5.5,South Pointe,3238,10541,2004,6,278,23,Active,August-2-2025 11:00 AM,August-2-2025 01:00 PM,https://www.redfin.com/IL/Naperville/5676-Rosinweed-Ln-60564/home/23160138,MRED as Distributed by MLS Grid,12428397,N,Y,41.6707432,-88.193901
MLS Listing,,Single Family Residential,1316 Fireside Ct,Naperville,IL,60564,495000,4,2.0,Brook Crossing,1871,10000,1984,6,265,,Active,August-2-2025 11:00 AM,August-2-2025 01:00 PM,https://www.redfin.com/IL/Naperville/1316-Fireside-Ct-60564/home/23346621,MRED as Distributed by MLS Grid,12429411,N,Y,41.7140524,-88.1753415
MLS Listing,,Townhouse,1404 Queensgreen Cir #1404,Naperville,IL,60563,278000,2,1.5,Terraces of Brookdale,1297,,1985,6,214,315,Active,,,https://www.redfin.com/IL/Naperville/1404-Queensgreen-Cir-60563/unit-1404/home/183718370,MRED as Distributed by MLS Grid,12421199,N,Y,41.791895,-88.1868314
MLS Listing,,Single Family Residential,712 Stacie Ct,Naperville,IL,60563,685000,5,4.0,Naperville,1294,10454,1993,6,529,,Active,,,https://www.redfin.com/IL/Naperville/712-Stacie-Ct-60563/home/18074777,MRED as Distributed by MLS Grid,12429607,N,Y,41.7815475,-88.1906386
MLS Listing,,Single Family Residential,567 Roxbury Dr,Naperville,IL,60565,575000,4,2.5,Cedar Glen,2364,6098,1986,6,243,,Active,August-2-2025 12:00 PM,August-2-2025 03:00 PM,https://www.redfin.com/IL/Naperville/567-Roxbury-Dr-60565/home/23218534,MRED as Distributed by MLS Grid,12407767,N,Y,41.7233991,-88.1589154
MLS Listing,,Townhouse,2827 White Thorn Cir,Naperville,IL,60564,385426,2,2.5,Windridge,1270,,2001,7,303,258,Active,August-2-2025 12:00 PM,August-2-2025 03:00 PM,https://www.redfin.com/IL/Naperville/2827-White-Thorn-Cir-60564/home/23203034,MRED as Distributed by MLS Grid,12426270,N,Y,41.721793,-88.201942
MLS Listing,,Single Family Residential,877 Wescott Rd,Bolingbrook,IL,60440,1050000,4,3.5,Bolingbrook,4200,9375,2025,7,250,,Active,August-2-2025 11:00 AM,August-2-2025 01:00 PM,https://www.redfin.com/IL/Bolingbrook/877-Wescott-Rd-60440/home/23240251,MRED as Distributed by MLS Grid,12429337,N,Y,41.7257588,-88.0968879
MLS Listing,,Single Family Residential,23W468 Moraine Ct,Naperville,IL,60540,564900,4,2.5,Hobson Creek,2856,8001,1978,7,198,23,Active,,,https://www.redfin.com/IL/Naperville/23W468-Moraine-Ct-60540/home/18047359,MRED as Distributed by MLS Grid,12429200,N,Y,41.7611368,-88.0820228
MLS Listing,,Single Family Residential,425 W Gartner Rd,Naperville,IL,60540,595000,4,2.0,Naperville,2492,9317,1962,7,239,,Active,,,https://www.redfin.com/IL/Naperville/425-W-Gartner-Rd-60540/home/18070435,MRED as Distributed by MLS Grid,12428706,N,Y,41.7523616,-88.1497006
MLS Listing,,Townhouse,4S768 Pinehurst Dr,Naperville,IL,60563,305000,3,1.5,Naperville,1462,,1975,7,209,275,Active,,,https://www.redfin.com/IL/Naperville/4S768-Pinehurst-Dr-60563/home/14188605,MRED as Distributed by MLS Grid,12428703,N,Y,41.7986124,-88.2157033
MLS Listing,,Single Family Residential,2802 Wedgewood Dr,Naperville,IL,60565,789000,4,2.5,Knoch Knolls,3286,10454,1988,7,240,8,Active,August-2-2025 01:00 PM,August-2-2025 03:00 PM,https://www.redfin.com/IL/Naperville/2802-Wedgewood-Dr-60565/home/23350313,MRED as Distributed by MLS Grid,12388226,N,Y,41.7128113,-88.1527792
MLS Listing,,Single Family Residential,1743 Paddington Ave,Naperville,IL,60563,419000,3,1.5,Brookdale,1311,5614,1979,7,320,,Active,,,https://www.redfin.com/IL/Naperville/1743-Paddington-Ave-60563/home/18079667,MRED as Distributed by MLS Grid,12425747,N,Y,41.7858702,-88.1986766
MLS Listing,,Single Family Residential,614 Bakewell Ln,Naperville,IL,60565,625000,4,2.5,The Glens,2144,10018,1975,7,292,3,Active,,,https://www.redfin.com/IL/Naperville/614-Bakewell-Ln-60565/home/18037296,MRED as Distributed by MLS Grid,12421277,N,Y,41.741353,-88.1169216
MLS Listing,,Condo/Co-op,5S040 Pebblewood Ln Unit W303,Naperville,IL,60563,225000,2,1.5,Pebblewood,1095,,1974,8,205,494,Active,,,https://www.redfin.com/IL/Naperville/5S040-Pebblewood-Ln-60563/unit-W303/home/18080240,MRED as Distributed by MLS Grid,12424169,N,Y,41.7975116,-88.2069456
MLS Listing,,Single Family Residential,10603 Royal Porthcawl Dr,Naperville,IL,60564,1249000,4,4.5,Tamarack Fairways,5184,34848,1989,8,241,13,Active,,,https://www.redfin.com/IL/Naperville/10603-Royal-Porthcawl-Dr-60564/home/23312750,MRED as Distributed by MLS Grid,12428100,N,Y,41.6895396,-88.2178927
MLS Listing,,Single Family Residential,23w731 Hobson Rd,Naperville,IL,60564,2899900,4,3.5,Naperville,3500,108900,2026,8,829,,Active,,,https://www.redfin.com/IL/Naperville/23W731-Hobson-Rd-60540/home/39603843,MRED as Distributed by MLS Grid,12427637,N,Y,41.7549689,-88.0887799
MLS Listing,,Single Family Residential,4240 Kingshill Cir,Naperville,IL,60564,649900,3,3.0,White Eagle,2221,,1990,8,293,97,Active,,,https://www.redfin.com/IL/Naperville/4240-Kingshill-Cir-60564/home/18062359,MRED as Distributed by MLS Grid,12427907,N,Y,41.7319644,-88.2126921
MLS Listing,,Condo/Co-op,1056 N Mill St #306,Naperville,IL,60563,210000,2,1.5,Mill Crossing,1080,,1980,8,194,477,Active,,,https://www.redfin.com/IL/Naperville/1056-N-Mill-St-60563/unit-306/home/17141372,MRED as Distributed by MLS Grid,12427618,N,Y,41.7880136,-88.1529593
MLS Listing,,Single Family Residential,1248 Snapper Rd,Naperville,IL,60563,849500,4,2.5,Naper Commons,3100,6120,2022,8,274,96,Active,August-2-2025 01:00 PM,August-2-2025 03:00 PM,https://www.redfin.com/IL/Naperville/1248-Snapper-Rd-60563/home/179301779,MRED as Distributed by MLS Grid,12426107,N,Y,41.8167198,-88.1203308
MLS Listing,,Single Family Residential,2227 Spartina Rd,Naperville,IL,60564,789900,5,4.0,South Pointe,3500,14520,2005,8,226,23,Active,,,https://www.redfin.com/IL/Naperville/2227-Spartina-Rd-60564/home/23361989,MRED as Distributed by MLS Grid,12427531,N,Y,41.6716995,-88.1917587
MLS Listing,,Single Family Residential,2854 Saint Anton Ct,Lisle,IL,60532,679000,4,2.5,Green Trails,2456,,1980,9,276,15,Active,,,https://www.redfin.com/IL/Lisle/2854-Saint-Anton-Ct-60532/home/14180141,MRED as Distributed by MLS Grid,12427353,N,Y,41.7614453,-88.1058904
MLS Listing,,Single Family Residential,5S705 Hummingbird Ln,Naperville,IL,60540,474900,3,1.5,Steeple Run,1668,9147,1987,9,285,,Active,,,https://www.redfin.com/IL/Naperville/5S705-Hummingbird-Ln-60540/home/18058617,MRED as Distributed by MLS Grid,12419718,N,Y,41.7868643,-88.1114838
MLS Listing,,Condo/Co-op,1134 Spring Garden Cir #48,Naperville,IL,60563,359900,3,2.0,Naperville,1795,,1983,9,201,423,Active,,,https://www.redfin.com/IL/Naperville/1134-Spring-Garden-Cir-60563/unit-48/home/18059432,MRED as Distributed by MLS Grid,12410750,N,Y,41.7967486,-88.1293273
MLS Listing,,Condo/Co-op,2611 Cedar Glade Dr #201,Naperville,IL,60564,310000,2,2.0,Windridge,1240,,1999,10,250,250,Active,,,https://www.redfin.com/IL/Naperville/2611-Cedar-Glade-Dr-60564/unit-201/home/23211088,MRED as Distributed by MLS Grid,12426074,N,Y,41.7174601,-88.2017273
MLS Listing,,Condo/Co-op,1561 Raymond Dr #103,Naperville,IL,60563,187000,1,1.0,Naperville,675,,1985,10,277,272,Active,,,https://www.redfin.com/IL/Naperville/1561-Raymond-Dr-60563/unit-103/home/17975719,MRED as Distributed by MLS Grid,12426360,N,Y,41.7951505,-88.1886521
MLS Listing,,Single Family Residential,2519 Accolade Ave,Naperville,IL,60564,949000,4,4.0,Wagner Farms,3492,,2022,10,272,58,Active,,,https://www.redfin.com/IL/Naperville/2519-Accolade-Ave-60564/home/184853386,MRED as Distributed by MLS Grid,12426109,N,Y,41.7023241,-88.1963107
MLS Listing,,Single Family Residential,3907 Nannyberry St,Naperville,IL,60564,1076000,4,3.5,Ashwood Heights,4404,11325,2016,12,244,116,Active,August-2-2025 12:00 PM,August-2-2025 02:00 PM,https://www.redfin.com/IL/Naperville/3907-Nannyberry-St-60564/home/109648731,MRED as Distributed by MLS Grid,12406511,N,Y,41.6964876,-88.2261767
MLS Listing,,Single Family Residential,225 Elmwood Dr,Naperville,IL,60540,690000,4,2.5,West Highlands,2846,11534,1959,12,242,,Active,August-2-2025 04:00 PM,August-2-2025 06:00 PM,https://www.redfin.com/IL/Naperville/225-Elmwood-Dr-60540/home/18071069,MRED as Distributed by MLS Grid,12407015,N,Y,41.7543765,-88.1526012
MLS Listing,,Single Family Residential,30W145 Country Lakes Dr,Naperville,IL,60563,426000,4,2.0,Naperville,1736,11325,1977,12,245,,Active,August-3-2025 12:00 PM,August-3-2025 02:00 PM,https://www.redfin.com/IL/Naperville/30W145-Country-Lakes-Dr-60563/home/17141669,MRED as Distributed by MLS Grid,12421265,N,Y,41.7944655,-88.2091636
MLS Listing,,Condo/Co-op,1212 Whispering Hills Ct Unit 2B,Naperville,IL,60540,210000,2,1.0,Whispering Hills,895,,1980,13,235,300,Active,,,https://www.redfin.com/IL/Naperville/1212-Whispering-Hills-Ct-60540/unit-2B/home/18076392,MRED as Distributed by MLS Grid,12424377,N,Y,41.7776728,-88.1751565
MLS Listing,,Townhouse,2925 Madison Dr,Naperville,IL,60564,489000,2,2.5,Emerson Park,1998,1491,2019,13,245,222,Active,,,https://www.redfin.com/IL/Naperville/2925-Madison-Dr-60564/home/145574615,MRED as Distributed by MLS Grid,12410284,N,Y,41.7102366,-88.2327195
MLS Listing,,Single Family Residential,6S184 Lakewood Dr,Naperville,IL,60540,619999,4,2.5,Steeple Run,2319,,1974,13,267,60,Active,August-2-2025 12:00 PM,August-2-2025 02:00 PM,https://www.redfin.com/IL/Naperville/6S184-Lakewood-Dr-60540/home/18053379,MRED as Distributed by MLS Grid,12424402,N,Y,41.7816001,-88.1086459
MLS Listing,,Single Family Residential,3432 Redwing Dr,Naperville,IL,60564,799000,5,3.5,Tall Grass,3115,10454,2000,13,257,67,Active,,,https://www.redfin.com/IL/Naperville/3432-Redwing-Dr-60564/home/18964709,MRED as Distributed by MLS Grid,12424461,N,Y,41.699956,-88.2153996
MLS Listing,,Condo/Co-op,2254 Petworth Ct Unit 202D,Naperville,IL,60565,272500,2,2.0,Naperville,1263,,1988,13,216,322,Active,,,https://www.redfin.com/IL/Naperville/2254-Petworth-Ct-60565/unit-202D/home/23336865,MRED as Distributed by MLS Grid,12423764,N,Y,41.726046,-88.135085
MLS Listing,,Townhouse,3310 Rosecroft Ln,Naperville,IL,60564,450000,3,2.5,Heatherstone,1865,1680,2002,13,241,400,Active,,,https://www.redfin.com/IL/Naperville/3310-Rosecroft-Ln-60564/home/23230628,MRED as Distributed by MLS Grid,12422863,N,Y,41.7125519,-88.2117604
MLS Listing,,Townhouse,901 Heathrow Ln,Naperville,IL,60540,485000,3,2.5,The Fields,2440,7316,1989,14,199,335,Active,,,https://www.redfin.com/IL/Naperville/901-Heathrow-Ln-60540/home/18070082,MRED as Distributed by MLS Grid,12395764,N,Y,41.7542962,-88.1667678
MLS Listing,,Single Family Residential,3901 White Eagle Dr,Naperville,IL,60564,1089000,4,3.5,White Eagle,3842,15681,1988,14,283,97,Active,,,https://www.redfin.com/IL/Naperville/3901-White-Eagle-Dr-W-60564/home/18062696,MRED as Distributed by MLS Grid,12413366,N,Y,41.729933,-88.219623
MLS Listing,,Single Family Residential,27W151 48th St,Naperville,IL,60540,1499900,4,3.5,Naperville,3177,14374,2026,14,472,,Active,,,https://www.redfin.com/IL/Naperville/27W141-48th-St-60563/home/21737039,MRED as Distributed by MLS Grid,12423254,N,Y,41.7965483,-88.1506179
MLS Listing,,Townhouse,717 N Brainard St,Naperville,IL,60563,1350000,4,5.0,Naperville,3071,3750,2025,14,440,,Active,August-2-2025 10:00 AM,August-2-2025 12:00 PM,https://www.redfin.com/IL/Naperville/717-N-Brainard-St-60563/home/196352961,MRED as Distributed by MLS Grid,12407577,N,Y,41.7835241,-88.1434515
MLS Listing,,Single Family Residential,4604 Shumard Ln,Naperville,IL,60564,1299000,6,6.0,Ashwood Park,4566,17424,2016,14,284,128,Active,,,https://www.redfin.com/IL/Naperville/4604-Shumard-Ln-60564/home/23171430,MRED as Distributed by MLS Grid,12413531,N,Y,41.6852904,-88.2329515
MLS Listing,,Townhouse,715 N Brainard St,Naperville,IL,60563,1350000,4,5.0,Naperville,3071,3750,2025,14,440,,Active,August-2-2025 10:00 AM,August-2-2025 12:00 PM,https://www.redfin.com/IL/Naperville/715-N-Brainard-St-60563/home/193303569,MRED as Distributed by MLS Grid,12407564,N,Y,41.7834877,-88.143454
MLS Listing,,Single Family Residential,2412 Spartina Ln,Naperville,IL,60564,799900,5,4.5,South Pointe,3465,9000,2004,14,231,26,Active,,,https://www.redfin.com/IL/Naperville/2412-Spartina-Rd-60564/home/23203077,MRED as Distributed by MLS Grid,12417533,N,Y,41.6711481,-88.1942519
MLS Listing,,Single Family Residential,2261 Remington Dr,Naperville,IL,60565,749000,5,3.5,Farmington,2862,10323,1984,14,262,,Active,,,https://www.redfin.com/IL/Naperville/2261-Remington-Dr-60565/home/23220905,MRED as Distributed by MLS Grid,12410804,N,Y,41.7242559,-88.1133119
MLS Listing,,Single Family Residential,4544 Corktree Rd,Naperville,IL,60564,1299999,4,4.0,Ashwood Park,4026,15245,2006,14,323,128,Active,August-3-2025 12:00 PM,August-3-2025 02:00 PM,https://www.redfin.com/IL/Naperville/4544-Corktree-Rd-60564/home/12640295,MRED as Distributed by MLS Grid,12420019,N,Y,41.6859512,-88.2285273
MLS Listing,,Single Family Residential,11401 S Preakness Dr,Plainfield,IL,60585,457000,4,3.5,Champion Creek,1673,8712,2001,15,273,18,Active,,,https://www.redfin.com/IL/Plainfield/11401-S-Preakness-Dr-60585/home/23383578,MRED as Distributed by MLS Grid,12420967,N,Y,41.6751987,-88.2051084
MLS Listing,,Single Family Residential,401 Haddassah Ct,Naperville,IL,60565,984000,6,3.5,Knoch Knolls,3186,12632,1989,15,309,8,Active,,,https://www.redfin.com/IL/Naperville/401-Haddassah-Ct-60565/home/23164772,MRED as Distributed by MLS Grid,12378891,N,Y,41.7177658,-88.148815
MLS Listing,,Townhouse,2789 Blakely Ln,Naperville,IL,60540,525000,3,2.5,Mayfair,2108,,2008,15,249,482,Active,,,https://www.redfin.com/IL/Naperville/2789-Blakely-Ln-60540/home/21731928,MRED as Distributed by MLS Grid,12420498,N,Y,41.750508,-88.200615
MLS Listing,,Single Family Residential,5S671 Buttonwood Ct,Naperville,IL,60540,619900,4,2.5,Steeple Run,2601,8276,1973,15,238,63,Active,,,https://www.redfin.com/IL/Naperville/5S671-Buttonwood-Ct-60540/home/18058524,MRED as Distributed by MLS Grid,12418138,N,Y,41.7873949,-88.1063501
MLS Listing,,Single Family Residential,1125 Huntleigh Dr,Naperville,IL,60540,740000,5,3.0,Huntington Estates,3175,13899,1977,15,233,49,Active,,,https://www.redfin.com/IL/Naperville/1125-Huntleigh-Dr-60540/home/18048898,MRED as Distributed by MLS Grid,12421402,N,Y,41.7560525,-88.1161333
MLS Listing,,Single Family Residential,816 Spindletree Ave,Naperville,IL,60565,930000,5,3.0,Oak Creek,3037,12292,1992,16,306,,Active,,,https://www.redfin.com/IL/Naperville/816-Spindletree-Ave-60565/home/18036954,MRED as Distributed by MLS Grid,12420506,N,Y,41.7281236,-88.1120029
MLS Listing,,Single Family Residential,2203 Fox Boro Ln,Naperville,IL,60564,849500,4,3.5,Stillwater,3135,,1997,16,271,108,Active,August-2-2025 01:00 AM,August-2-2025 03:00 PM,https://www.redfin.com/IL/Naperville/2203-Foxboro-Ln-60564/home/23393980,MRED as Distributed by MLS Grid,12420413,N,Y,41.7235315,-88.1930621
MLS Listing,,Condo/Co-op,835 Genesee Dr,Naperville,IL,60563,309000,2,1.5,Naperville,1412,,2000,17,219,357,Active,,,https://www.redfin.com/IL/Naperville/835-Genesee-Dr-60563/home/17988275,MRED as Distributed by MLS Grid,12416772,N,Y,41.7848377,-88.2202099
MLS Listing,,Condo/Co-op,520 Burning Tree Ln #306,Naperville,IL,60563,237800,2,2.0,Mill Crossing,1100,,1979,17,216,477,Active,August-2-2025 01:00 PM,August-2-2025 03:00 PM,https://www.redfin.com/IL/Naperville/520-Burning-Tree-Ln-60563/unit-306/home/18077241,MRED as Distributed by MLS Grid,12417752,N,Y,41.7876423,-88.1563552
MLS Listing,,Condo/Co-op,1340 Mc Dowell Rd #104,Naperville,IL,60563,221000,2,1.0,Naperville,809,,1985,17,273,326,Active,,,https://www.redfin.com/IL/Naperville/1340-Mc-Dowell-Rd-60563/unit-104/home/23405868,MRED as Distributed by MLS Grid,12414332,N,Y,41.7962519,-88.1902175
MLS Listing,,Single Family Residential,3316 Tall Grass Dr,Naperville,IL,60564,950000,5,5.0,Tall Grass,3682,10000,2000,18,258,67,Active,,,https://www.redfin.com/IL/Naperville/3316-Tall-Grass-Dr-60564/home/23381332,MRED as Distributed by MLS Grid,12418625,N,Y,41.7040654,-88.2167524
MLS Listing,,Condo/Co-op,509 Aurora Ave #409,Naperville,IL,60540,309900,2,1.0,Riverplace,1048,,1986,19,296,822,Active,,,https://www.redfin.com/IL/Naperville/509-Aurora-Ave-60540/unit-409/home/17987677,MRED as Distributed by MLS Grid,12417511,N,Y,41.7687376,-88.1573078
MLS Listing,,Single Family Residential,1622 Indian Knoll Rd,Naperville,IL,60565,570000,4,3.0,Naperville,2596,11761,1975,19,220,,Active,,,https://www.redfin.com/IL/Naperville/1622-Indian-Knoll-Rd-60565/home/18036915,MRED as Distributed by MLS Grid,12417334,N,Y,41.7395845,-88.1123396
MLS Listing,,Single Family Residential,1525 Chickasaw Dr,Naperville,IL,60563,679000,5,3.0,Indian Hill,3780,,1972,19,180,,Active,,,https://www.redfin.com/IL/Naperville/1525-Chickasaw-Dr-60563/home/17360665,MRED as Distributed by MLS Grid,12418243,N,Y,41.7948138,-88.1390246
MLS Listing,,Townhouse,2903 Henley Ln,Naperville,IL,60540,470000,2,2.5,Mayfair,1909,1479,2015,19,246,325,Active,,,https://www.redfin.com/IL/Naperville/2903-Henley-Ln-60540/home/142672085,MRED as Distributed by MLS Grid,12413543,N,Y,41.7527022,-88.2038397
MLS Listing,,Single Family Residential,1440 Monarch Cir,Naperville,IL,60564,875000,5,4.0,White Eagle,3194,14810,1991,20,274,97,Active,,,https://www.redfin.com/IL/Naperville/1440-Monarch-Cir-60564/home/18064129,MRED as Distributed by MLS Grid,12418008,N,Y,41.7300557,-88.2292243
MLS Listing,,Townhouse,2949 Brossman St,Naperville,IL,60564,445000,4,3.5,Sawgrass Winds,1868,,2000,20,238,200,Active,,,https://www.redfin.com/IL/Naperville/2949-Brossman-St-60564/home/21976451,MRED as Distributed by MLS Grid,12417515,N,Y,41.7103307,-88.1825375
MLS Listing,,Single Family Residential,2080 Maplewood Cir,Naperville,IL,60563,495000,5,3.0,Country Lakes,2576,8751,1987,20,192,,Active,,,https://www.redfin.com/IL/Naperville/2080-Maplewood-Cir-60563/home/18079816,MRED as Distributed by MLS Grid,12417936,N,Y,41.7871784,-88.2104657
MLS Listing,,Single Family Residential,10S125 Springbrook Dr,Naperville,IL,60565,575000,4,3.0,Sunset Ridge,3164,24393,1972,20,182,,Active,August-2-2025 01:00 PM,August-2-2025 03:00 PM,https://www.redfin.com/IL/Naperville/10S125-Springbrook-Dr-60565/home/23163282,MRED as Distributed by MLS Grid,12415616,N,Y,41.7244462,-88.1638826
MLS Listing,,Single Family Residential,4015 Chesapeake Ln,Naperville,IL,60564,635000,2,2.0,Naperville,2140,,2014,20,297,314,Active,,,https://www.redfin.com/IL/Naperville/4015-Chesapeake-Ln-60564/home/58965289,MRED as Distributed by MLS Grid,12413372,N,Y,41.7157757,-88.2255806
MLS Listing,,Single Family Residential,1168 Banbury Cir,Naperville,IL,60540,679000,4,2.5,Pembroke Greens,2604,10985,1980,20,261,,Active,,,https://www.redfin.com/IL/Naperville/1168-Banbury-Cir-60540/home/14358203,MRED as Distributed by MLS Grid,12417418,N,Y,41.7643114,-88.1248329
MLS Listing,,Single Family Residential,2547 Mallet Ct,Naperville,IL,60564,727127,4,3.5,Naperville,3277,,2025,20,222,81,Active,,,https://www.redfin.com/IL/Naperville/2547-Mallet-Ct-60564/home/195192694,MRED as Distributed by MLS Grid,12417394,N,Y,41.6696437,-88.1969579
MLS Listing,,Single Family Residential,2543 Mallet Ct,Naperville,IL,60564,743857,5,3.5,Naperville,3404,,2025,20,219,74,Active,,,https://www.redfin.com/IL/Naperville/2543-Mallet-Ct-60564/home/195192720,MRED as Distributed by MLS Grid,12417402,N,Y,41.6696546,-88.1967165
MLS Listing,,Single Family Residential,2539 Mallet Ct,Naperville,IL,60564,722554,4,2.5,Naperville,3433,,2025,20,210,74,Active,August-2-2025 01:00 PM,August-2-2025 03:00 PM,https://www.redfin.com/IL/Naperville/2539-Mallet-Ct-60564/home/195192743,MRED as Distributed by MLS Grid,12417385,N,Y,41.6696546,-88.1964715
MLS Listing,,Single Family Residential,2611 Lawlor Ln,Naperville,IL,60564,639618,4,2.5,Naperville,2875,,2025,20,222,81,Active,,,https://www.redfin.com/IL/Naperville/2611-Lawlor-Ln-60564/home/195192721,MRED as Distributed by MLS Grid,12417379,N,Y,41.6688044,-88.197085
MLS Listing,,Townhouse,1905 Oxley Cir,Naperville,IL,60563,375000,3,2.0,Naperville,2095,2200,2007,20,179,320,Active,,,https://www.redfin.com/IL/Naperville/1905-Oxley-Cir-60563/home/17975065,MRED as Distributed by MLS Grid,12414006,N,Y,41.7842452,-88.2071592
MLS Listing,,Single Family Residential,3744 Highknob Cir,Naperville,IL,60564,730000,4,3.5,Tall Grass,2712,8712,1999,21,269,67,Active,,,https://www.redfin.com/IL/Naperville/3744-Highknob-Cir-60564/home/23289548,MRED as Distributed by MLS Grid,12417035,N,Y,41.7085912,-88.2209475
MLS Listing,,Single Family Residential,3560 Jeremy Ranch Ct,Naperville,IL,60564,750000,5,4.0,Naperville,3081,14374,1992,21,243,97,Active,,,https://www.redfin.com/IL/Naperville/3560-Jeremy-Ranch-Ct-60564/home/18063754,MRED as Distributed by MLS Grid,12382766,N,Y,41.7293416,-88.2285227
MLS Listing,,Single Family Residential,1123 Thackery Ln,Naperville,IL,60564,949900,4,2.5,Naperville,3600,,1994,21,264,54,Active,,,https://www.redfin.com/IL/Naperville/1123-Thackery-Ln-60564/home/23161479,MRED as Distributed by MLS Grid,12416830,N,Y,41.7096627,-88.1694653
MLS Listing,,Single Family Residential,4211 Legend Ct,Naperville,IL,60564,1299000,5,4.0,White Eagle,5184,30491,1994,21,251,97,Active,,,https://www.redfin.com/IL/Naperville/4211-Legend-Ct-60564/home/18063168,MRED as Distributed by MLS Grid,12408773,N,Y,41.7260505,-88.2133998
MLS Listing,,Condo/Co-op,2261 Petworth Ct Unit 201C,Naperville,IL,60565,280000,3,2.0,Winchester Place,1453,,1988,21,193,362,Active,,,https://www.redfin.com/IL/Naperville/2261-Petworth-Ct-60565/unit-201C/home/23262362,MRED as Distributed by MLS Grid,12405502,N,Y,41.725678,-88.136244
MLS Listing,,Single Family Residential,416 Iroquois Ave,Naperville,IL,60563,545108,4,2.5,Indian Hill,2658,13068,1975,21,205,,Active,,,https://www.redfin.com/IL/Naperville/416-Iroquois-Ave-60563/home/18059546,MRED as Distributed by MLS Grid,12411485,N,Y,41.7975544,-88.1418485
MLS Listing,,Single Family Residential,1507 Eton Ln,Naperville,IL,60565,695000,5,2.5,The Glens,2496,8276,1975,21,278,,Active,,,https://www.redfin.com/IL/Naperville/1507-Eton-Ln-60565/home/18040704,MRED as Distributed by MLS Grid,12407864,N,Y,41.7439256,-88.1146014
MLS Listing,,Single Family Residential,1628 Westminster Dr,Naperville,IL,60563,664000,4,2.5,Brookdale,2500,10084,1986,21,266,,Active,,,https://www.redfin.com/IL/Naperville/1628-Westminster-Dr-60563/home/18079329,MRED as Distributed by MLS Grid,12413828,N,Y,41.7948905,-88.195911
MLS Listing,,Single Family Residential,342 Dilorenzo Dr,Naperville,IL,60565,800000,4,2.5,Naperville,3264,,1987,21,245,15,Active,,,https://www.redfin.com/IL/Naperville/342-Dilorenzo-Dr-60565/home/23298508,MRED as Distributed by MLS Grid,12392863,N,Y,41.7226165,-88.1236667
MLS Listing,,Single Family Residential,1112 Saratoga Ct,Naperville,IL,60564,799000,5,2.5,Rose Hill Farm,3184,,1992,21,251,22,Active,August-2-2025 12:00 PM,August-2-2025 02:00 PM,https://www.redfin.com/IL/Naperville/1112-Saratoga-Ct-60564/home/23218572,MRED as Distributed by MLS Grid,12406777,N,Y,41.6963771,-88.1723089
MLS Listing,,Single Family Residential,2616 Gateshead Dr,Naperville,IL,60564,650000,4,2.5,Naperville,2377,9147,1984,21,273,,Active,,,https://www.redfin.com/IL/Naperville/2616-Gateshead-Dr-60564/home/23350362,MRED as Distributed by MLS Grid,12413598,N,Y,41.7151391,-88.1708369
MLS Listing,,Townhouse,3105 Saganashkee Ln,Naperville,IL,60564,409900,3,2.0,Naperville,1850,1400,2005,22,222,394,Active,August-2-2025 01:00 PM,August-2-2025 03:00 PM,https://www.redfin.com/IL/Naperville/3105-Saganashkee-Ln-60564/home/23361504,MRED as Distributed by MLS Grid,12409999,N,Y,41.7021472,-88.2079837
MLS Listing,,Townhouse,1659 Windward Ct,Naperville,IL,60563,389900,3,2.5,Riverbrook West,2205,,2001,22,177,411,Active,,,https://www.redfin.com/IL/Naperville/1659-Windward-Ct-60563/home/17984891,MRED as Distributed by MLS Grid,12414509,N,Y,41.7802332,-88.1913538
MLS Listing,,Single Family Residential,3536 Scottsdale Cir,Naperville,IL,60564,855000,6,4.5,White Eagle,3068,,2001,22,279,326,Active,,,https://www.redfin.com/IL/Naperville/3536-Scottsdale-Cir-60564/home/23316998,MRED as Distributed by MLS Grid,12415162,N,Y,41.7161827,-88.2160183
MLS Listing,,Townhouse,3133 Reflection Dr,Naperville,IL,60564,400000,3,2.5,Signature Club,1610,2704,1998,22,248,285,Active,August-2-2025 12:00 PM,August-2-2025 02:00 PM,https://www.redfin.com/IL/Naperville/3133-Reflection-Dr-60564/home/23301059,MRED as Distributed by MLS Grid,12415151,N,Y,41.707795,-88.2091503
MLS Listing,,Single Family Residential,1308 N Wright St,Naperville,IL,60563,2599000,5,6.0,Saybrook,5010,29185,2013,22,519,,Active,,,https://www.redfin.com/IL/Naperville/1308-N-Wright-St-60563/home/17297144,MRED as Distributed by MLS Grid,12382456,N,Y,41.7913678,-88.1386084
MLS Listing,,Single Family Residential,985 W Bauer Rd,Naperville,IL,60563,729900,4,2.5,Cress Creek,2160,12750,1975,22,338,,Active,August-2-2025 11:00 AM,August-2-2025 02:00 PM,https://www.redfin.com/IL/Naperville/985-W-Bauer-Rd-60563/home/18079189,MRED as Distributed by MLS Grid,12413547,N,Y,41.7946556,-88.1691192
MLS Listing,,Single Family Residential,2337 Keim Rd,Naperville,IL,60565,850000,5,3.5,Naperville,2980,,1987,22,285,11,Active,,,https://www.redfin.com/IL/Naperville/2337-Keim-Rd-60565/home/23240088,MRED as Distributed by MLS Grid,12410660,N,Y,41.7191149,-88.1118788
MLS Listing,,Townhouse,1242 Hobson Oaks Dr,Naperville,IL,60540,439900,3,2.5,Hobson Oaks,1713,4050,1988,22,257,435,Active,,,https://www.redfin.com/IL/Naperville/1242-Hobson-Oaks-Dr-60540/home/18042097,MRED as Distributed by MLS Grid,12414756,N,Y,41.7510059,-88.11829
MLS Listing,,Townhouse,1921 Wisteria Ct #3,Naperville,IL,60565,344900,3,2.5,Lancaster Coach,1281,,1989,22,269,292,Active,,,https://www.redfin.com/IL/Naperville/1921-Wisteria-Ct-60565/unit-3/home/14362156,MRED as Distributed by MLS Grid,12414635,N,Y,41.7320335,-88.1324559
MLS Listing,,Single Family Residential,834 Wellner Rd,Naperville,IL,60540,1949000,4,3.5,East Highlands,4124,10454,2020,23,473,,Active,,,https://www.redfin.com/IL/Naperville/834-Wellner-Rd-60540/home/18049195,MRED as Distributed by MLS Grid,12413601,N,Y,41.7615288,-88.1405013
MLS Listing,,Single Family Residential,1105 W Bauer Rd,Naperville,IL,60563,785000,3,2.0,Cress Creek Commons,2388,,1980,24,329,54,Active,,,https://www.redfin.com/IL/Naperville/1105-W-Bauer-Rd-60563/home/18078365,MRED as Distributed by MLS Grid,12412993,N,Y,41.7951355,-88.1728443
MLS Listing,,Single Family Residential,5124 Christa Dr,Naperville,IL,60564,779000,4,3.5,Ashwood Creek,3216,11761,2013,24,242,55,Active,August-2-2025 01:00 PM,August-2-2025 03:00 PM,https://www.redfin.com/IL/Naperville/5124-Christa-Dr-60564/home/23254245,MRED as Distributed by MLS Grid,12400990,N,Y,41.6779582,-88.2310945
MLS Listing,,Single Family Residential,219 Spring Ave,Naperville,IL,60540,649000,3,2.5,Naperville,1474,8250,1950,25,440,,Active,,,https://www.redfin.com/IL/Naperville/219-Spring-Ave-60540/home/18076332,MRED as Distributed by MLS Grid,12411423,N,Y,41.7786332,-88.1517366
MLS Listing,,Single Family Residential,8S241 Dunham Dr,Naperville,IL,60540,1475000,4,4.0,Woods of Hobson Green,4139,16535,1990,27,356,325,Active,,,https://www.redfin.com/IL/Naperville/8S241-Dunham-Dr-60540/home/18042177,MRED as Distributed by MLS Grid,12400874,N,Y,41.7522887,-88.0771207
MLS Listing,,Single Family Residential,5028 Switch Grass Ln,Naperville,IL,60564,705000,4,2.5,High Meadow,2325,14810,1996,27,303,19,Active,August-2-2025 01:00 PM,August-2-2025 03:00 PM,https://www.redfin.com/IL/Naperville/5028-Switch-Grass-Ln-60564/home/12893308,MRED as Distributed by MLS Grid,12410464,N,Y,41.6798647,-88.1966332
MLS Listing,,Single Family Residential,9S104 Aero Dr,Naperville,IL,60564,459000,3,1.5,Aero Estates,2003,21501,1960,28,229,,Active,,,https://www.redfin.com/IL/Naperville/9S104-Aero-Dr-60564/home/18063164,MRED as Distributed by MLS Grid,12407115,N,Y,41.7379585,-88.204388
MLS Listing,,Townhouse,96 Townsend Cir,Naperville,IL,60565,439999,3,2.5,Naperville,1862,,1994,28,236,321,Active,,,https://www.redfin.com/IL/Naperville/96-Townsend-Cir-60565/home/23322834,MRED as Distributed by MLS Grid,12410450,N,Y,41.7245404,-88.1355187
MLS Listing,,Single Family Residential,1096 Onwentsia Ct,Naperville,IL,60563,699000,3,2.5,Cress Creek,3321,,1983,29,210,50,Active,,,https://www.redfin.com/IL/Naperville/1096-Onwentsia-Ct-60563/home/12586454,MRED as Distributed by MLS Grid,12408944,N,Y,41.7961501,-88.1722651
MLS Listing,,Townhouse,2634 Blakely Ln,Naperville,IL,60540,449000,2,2.5,Vintage Club,2070,,2004,29,217,350,Active,,,https://www.redfin.com/IL/Naperville/2634-Blakely-Ln-60540/home/17978870,MRED as Distributed by MLS Grid,12409575,N,Y,41.7520714,-88.1990763
MLS Listing,,Single Family Residential,24341 W 103rd St,Naperville,IL,60564,599000,5,3.5,Andermann Acres,2980,45738,1976,29,201,,Active,,,https://www.redfin.com/IL/Naperville/24341-W-103rd-St-60564/home/23156628,MRED as Distributed by MLS Grid,12404730,N,Y,41.694814,-88.2142926
MLS Listing,,Single Family Residential,2697 Fox River Ln,Naperville,IL,60565,939500,5,2.5,Naperville,3170,,1991,30,296,,Active,,,https://www.redfin.com/IL/Naperville/2697-Fox-River-Ln-60565/home/23347190,MRED as Distributed by MLS Grid,12374211,N,Y,41.717497,-88.1272072
MLS Listing,,Single Family Residential,2308 Fleetwood Ct,Naperville,IL,60565,1450000,7,6.5,Royce Woods,8200,16552,2001,30,177,,Active,,,https://www.redfin.com/IL/Naperville/2308-Fleetwood-Ct-60565/home/23297107,MRED as Distributed by MLS Grid,12395176,N,Y,41.7167319,-88.1085942
MLS Listing,,Single Family Residential,3919 Callander Ct,Naperville,IL,60564,1080000,4,3.5,Tamarack West,5153,13939,2001,30,210,62,Active,August-2-2025 01:00 PM,August-2-2025 04:00 PM,https://www.redfin.com/IL/Naperville/3919-Callander-Ct-60564/home/21451101,MRED as Distributed by MLS Grid,12393941,N,Y,41.6829614,-88.2236197
MLS Listing,,Townhouse,1768 Stable Ln,Aurora,IL,60503,444990,3,2.5,Wheatland Crossing,1794,2059,2025,31,248,62,Active,,,https://www.redfin.com/IL/Aurora/1768-Stable-Ln-60503/home/196237782,MRED as Distributed by MLS Grid,12404624,N,Y,41.727901458740234,-88.21436309814453
MLS Listing,,Condo/Co-op,5S510 Scots Dr Unit G,Naperville,IL,60563,299000,2,2.0,Willowbend,1353,,1990,33,221,401,Active,,,https://www.redfin.com/IL/Naperville/5S510-Scots-Dr-60563/unit-G/home/18079790,MRED as Distributed by MLS Grid,12406454,N,Y,41.788688,-88.20675
MLS Listing,,Townhouse,3718 Tramore Ct,Naperville,IL,60564,599900,4,2.5,Tramore,2130,9009,2018,34,282,275,Active,,,https://www.redfin.com/IL/Naperville/3718-Tramore-Ct-60564/home/194884267,MRED as Distributed by MLS Grid,12405027,N,Y,41.7000232,-88.1671604
MLS Listing,,Single Family Residential,2275 Norwich Ct,Naperville,IL,60565,500000,3,2.5,Old Sawmill,2014,10890,1979,34,248,,Active,,,https://www.redfin.com/IL/Naperville/2275-Norwich-Ct-60565/home/23324867,MRED as Distributed by MLS Grid,12393795,N,Y,41.7242008,-88.1520508
MLS Listing,,Single Family Residential,915 E Chicago Ave,Naperville,IL,60540,578000,5,3.0,Naperville,1875,6750,,34,308,,Active,,,https://www.redfin.com/IL/Naperville/915-E-Chicago-Ave-60540/home/144886073,MRED as Distributed by MLS Grid,12380368,N,Y,41.7736861,-88.134943
MLS Listing,,Single Family Residential,217 Cortez Ct,Naperville,IL,60563,675000,4,2.5,Naperville,2213,13068,1987,34,305,,Active,,,https://www.redfin.com/IL/Naperville/217-Cortez-Ct-60563/home/18060549,MRED as Distributed by MLS Grid,12403128,N,Y,41.8015349,-88.1447502
MLS Listing,,Single Family Residential,829 Shiloh Cir,Naperville,IL,60540,699000,4,2.5,Hobson West,2424,19737,1980,34,288,58,Active,,,https://www.redfin.com/IL/Naperville/829-Shiloh-Cir-60540/home/18071121,MRED as Distributed by MLS Grid,12405347,N,Y,41.7510386,-88.1616067
MLS Listing,,Single Family Residential,2811 Haven Ct,Naperville,IL,60564,795000,4,3.0,Carillon Club,2764,,2007,34,288,313,Active,,,https://www.redfin.com/IL/Naperville/2811-Haven-Ct-60564/home/23391850,MRED as Distributed by MLS Grid,12404870,N,Y,41.7117162,-88.2200635
MLS Listing,,Single Family Residential,1208 Hamilton Ln,Naperville,IL,60540,1790000,5,4.5,Hobson Meadows,5122,20473,1990,34,349,25,Active,,,https://www.redfin.com/IL/Naperville/1208-Hamilton-Ln-60540/home/18042552,MRED as Distributed by MLS Grid,12405288,N,Y,41.7542455,-88.1071321
MLS Listing,,Single Family Residential,4216 Carpenter Rd,Naperville,IL,60564,1795000,6,6.5,Ashwood Park,5300,14157,2023,35,339,128,Active,,,https://www.redfin.com/IL/Naperville/4216-Carpenter-Rd-60564/home/113882127,MRED as Distributed by MLS Grid,12400609,N,Y,41.6832718,-88.2280602
MLS Listing,,Condo/Co-op,110 S Washington St #400,Naperville,IL,60540,2325000,3,3.5,Naperville,3554,,2020,35,654,1099,Active,,,https://www.redfin.com/IL/Naperville/110-S-Washington-St-60540/unit-400/home/167071293,MRED as Distributed by MLS Grid,12393029,N,Y,41.7737444,-88.1473333
MLS Listing,,Condo/Co-op,1221 Chalet Rd Unit 28-201,Naperville,IL,60563,250000,2,2.0,River Shores,937,,1980,35,267,357,Active,,,https://www.redfin.com/IL/Naperville/1221-Chalet-Rd-60563/unit-28-201/home/18075368,MRED as Distributed by MLS Grid,12336156,N,Y,41.7804908,-88.1760582
MLS Listing,,Single Family Residential,2607 Lawlor Ln,Naperville,IL,60564,690594,4,2.5,Naperville,3372,,2025,35,205,81,Active,August-2-2025 01:00 PM,August-2-2025 03:00 PM,https://www.redfin.com/IL/Naperville/2607-Lawlor-Ln-60564/home/195192745,MRED as Distributed by MLS Grid,12404573,N,Y,41.6688044,-88.1968911
MLS Listing,,Single Family Residential,4327 Conifer Rd,Naperville,IL,60564,975000,5,4.5,Ashwood Park,3500,,2020,35,279,129,Active,,,https://www.redfin.com/IL/Naperville/4327-Conifer-Rd-60564/home/167965972,MRED as Distributed by MLS Grid,12392755,N,Y,41.696471,-88.233323
MLS Listing,,Single Family Residential,24452 W Blvd Dejohn,Naperville,IL,60564,498000,4,2.5,Andermann Acres,2385,31798,1972,36,209,,Active,,,https://www.redfin.com/IL/Naperville/24452-W-Blvd-Dejohn-60564/home/23156674,MRED as Distributed by MLS Grid,12403614,N,Y,41.6923755,-88.217093
MLS Listing,,Single Family Residential,2254 Massachusetts Ave,Naperville,IL,60565,520000,4,2.5,Old Sawmill,1911,8276,1984,36,272,,Active,,,https://www.redfin.com/IL/Naperville/2254-Massachusetts-Ave-60565/home/23296884,MRED as Distributed by MLS Grid,12379234,N,Y,41.72506,-88.1529284
MLS Listing,,Single Family Residential,5s504 Radcliff Rd,Naperville,IL,60563,2249900,4,4.5,Naperville,4965,89733,2026,36,453,,Active,,,https://www.redfin.com/IL/Naperville/5S504-Radcliff-Rd-60563/home/18058675,MRED as Distributed by MLS Grid,12387397,N,Y,41.791461,-88.115622
MLS Listing,,Single Family Residential,230 Elmwood Dr,Naperville,IL,60540,580000,5,2.5,West Highlands,2896,9548,1959,38,200,,Active,,,https://www.redfin.com/IL/Naperville/230-Elmwood-Dr-60540/home/18069997,MRED as Distributed by MLS Grid,12401319,N,Y,41.7539134,-88.1525232
MLS Listing,,Townhouse,1552 Lighthouse Dr,Naperville,IL,60565,297500,2,1.0,Waterfront Estates,1051,,1984,38,283,55,Active,,,https://www.redfin.com/IL/Naperville/1552-Lighthouse-Dr-60565/home/18041763,MRED as Distributed by MLS Grid,12401011,N,Y,41.7422857,-88.1247014
MLS Listing,,Townhouse,2903 Saganashkee Ln,Naperville,IL,60564,435000,3,3.5,Tall Grass,1953,,2007,40,223,394,Active,,,https://www.redfin.com/IL/Naperville/2903-Saganashkee-Ln-60564/home/24551994,MRED as Distributed by MLS Grid,12398895,N,Y,41.6991296,-88.206286
MLS Listing,,Single Family Residential,24W500 Seabrook Ct,Naperville,IL,60540,379900,3,1.0,Steeple Run,1114,9256,1978,41,341,63,Active,,,https://www.redfin.com/IL/Naperville/24W500-Seabrook-Ct-60540/home/18058336,MRED as Distributed by MLS Grid,12399486,N,Y,41.7858045,-88.1026673
MLS Listing,,Single Family Residential,603 Driftwood Ct,Naperville,IL,60540,2499000,5,3.5,Naperville,6453,68389,2013,41,387,,Active,,,https://www.redfin.com/IL/Naperville/603-Driftwood-Ct-60540/home/45402687,MRED as Distributed by MLS Grid,12390875,N,Y,41.7608415,-88.1386893
MLS Listing,,Condo/Co-op,511 Aurora Ave #413,Naperville,IL,60540,269900,1,1.0,Riverplace,845,,1985,42,319,683,Active,,,https://www.redfin.com/IL/Naperville/511-Aurora-Ave-60540/unit-413/home/18070477,MRED as Distributed by MLS Grid,12360899,N,Y,41.7690556,-88.1591297
MLS Listing,,Single Family Residential,1040 Sanctuary Ln,Naperville,IL,60540,559000,5,2.5,Lakewood Crossing,2000,,1994,43,280,15,Active,,,https://www.redfin.com/IL/Naperville/1040-Sanctuary-Ln-60540/home/18068149,MRED as Distributed by MLS Grid,12387777,N,Y,41.7525552,-88.1892735
MLS Listing,,Single Family Residential,8S223 Derby Dr,Naperville,IL,60540,2399000,5,6.5,Brenwood Estates,12033,107867,2003,43,199,,Active,,,https://www.redfin.com/IL/Naperville/8S223-Derby-Dr-60540/home/18043360,MRED as Distributed by MLS Grid,12396995,N,Y,41.7527612,-88.0811719
MLS Listing,,Single Family Residential,5S730 Malibu Ln,Naperville,IL,60540,375000,3,1.0,Steeple Run,,,1977,43,,63,Active,,,https://www.redfin.com/IL/Naperville/5S730-Malibu-Ln-60540/home/18058309,MRED as Distributed by MLS Grid,12392724,N,Y,41.7864193,-88.108762
MLS Listing,,Single Family Residential,911 Lilac Ln,Naperville,IL,60540,540000,2,3.0,West Highlands,2028,11325,1959,43,266,,Active,,,https://www.redfin.com/IL/Naperville/911-Lilac-Ln-60540/home/14177512,MRED as Distributed by MLS Grid,12391571,N,Y,41.755235,-88.1548121
MLS Listing,,Single Family Residential,1779 Frost Ln,Naperville,IL,60564,579000,3,3.0,Ashbury,1993,12210,1991,44,291,50,Active,,,https://www.redfin.com/IL/Naperville/1779-Frost-Ln-60564/home/12723318,MRED as Distributed by MLS Grid,12395279,N,Y,41.7055794,-88.185901
MLS Listing,,Single Family Residential,20 Pinnacle Ct,Naperville,IL,60565,2295000,6,5.5,Hartmann Woods,4819,,2025,45,476,,Active,,,https://www.redfin.com/IL/Naperville/20-Pinnacle-Ct-60565/home/113882190,MRED as Distributed by MLS Grid,12393709,N,Y,41.716159,-88.1308643
MLS Listing,,Townhouse,4037 Ashwood Park Ct,Naperville,IL,60564,795000,3,4.5,Ashwood Park,2795,,2017,45,284,433,Active,,,https://www.redfin.com/IL/Naperville/4037-Ashwood-Park-Ct-60564/home/146057175,MRED as Distributed by MLS Grid,12393031,N,Y,41.6937574,-88.2253925
MLS Listing,,Townhouse,3924 Garnette Ct,Naperville,IL,60564,400000,3,2.5,Rose Hill Farm,1790,2100,1995,48,223,299,Active,,,https://www.redfin.com/IL/Naperville/3924-Garnette-Ct-60564/home/23161475,MRED as Distributed by MLS Grid,12393303,N,Y,41.6956651,-88.1686798
MLS Listing,,Single Family Residential,1554 Chickasaw Dr,Naperville,IL,60563,550000,4,3.5,Indian Hill,2259,,1973,48,243,,Active,,,https://www.redfin.com/IL/Naperville/1554-Chickasaw-Dr-60563/home/18059185,MRED as Distributed by MLS Grid,12392102,N,Y,41.7967061,-88.1378988
MLS Listing,,Single Family Residential,1091 Johnson Dr,Naperville,IL,60540,2900000,6,6.5,Naperville,7856,64603,1997,48,369,,Active,,,https://www.redfin.com/IL/Naperville/1091-Johnson-Dr-60540/home/17173528,MRED as Distributed by MLS Grid,12391923,N,Y,41.7579287,-88.1191833
MLS Listing,,Single Family Residential,2308 Lawlor Ln,Naperville,IL,60564,675000,3,2.0,Naperville,1874,6720,2024,48,360,81,Active,,,https://www.redfin.com/IL/Naperville/2308-Lawlor-Ln-60564/home/196077716,MRED as Distributed by MLS Grid,12392422,N,Y,41.6692281,-88.1909914
MLS Listing,,Townhouse,2929 Portage St,Naperville,IL,60564,459000,2,2.0,Carillon Club,1729,2304,2009,48,265,480,Active,,,https://www.redfin.com/IL/Naperville/2929-Portage-St-60564/home/21654362,MRED as Distributed by MLS Grid,12392510,N,Y,41.710699,-88.2234719
MLS Listing,,Single Family Residential,2503 Skylane Dr,Naperville,IL,60564,1050000,6,5.0,Stillwater,4038,12825,1999,49,260,108,Active,,,https://www.redfin.com/IL/Naperville/2503-Skylane-Dr-60564/home/23305552,MRED as Distributed by MLS Grid,12392365,N,Y,41.7188096,-88.1969047
MLS Listing,,Single Family Residential,1303 Jane Ave,Naperville,IL,60540,698000,5,3.5,Huntington Commons,2409,11700,1976,49,290,,Active,,,https://www.redfin.com/IL/Naperville/1303-Jane-Ave-60540/home/18051466,MRED as Distributed by MLS Grid,12389291,N,Y,41.7733911,-88.1195233
MLS Listing,,Townhouse,2967 Madison Dr,Naperville,IL,60564,430000,2,2.5,Emerson Park,1910,1491,2017,49,225,297,Active,,,https://www.redfin.com/IL/Naperville/2967-Madison-Dr-60564/home/113855253,MRED as Distributed by MLS Grid,12392117,N,Y,41.7098322,-88.2312058
MLS Listing,,Townhouse,2357 Overlook Ct,Naperville,IL,60563,350000,2,2.5,Enclave at Country Lakes,1412,,2000,49,248,357,Active,,,https://www.redfin.com/IL/Naperville/2357-Overlook-Ct-60563/home/17987275,MRED as Distributed by MLS Grid,12382280,N,Y,41.7855212,-88.2191711
MLS Listing,,Single Family Residential,2924 Raleigh Ct,Naperville,IL,60564,625000,2,2.0,Carillon Club,2113,,2007,49,296,314,Active,,,https://www.redfin.com/IL/Naperville/2924-Raleigh-Ct-60564/home/23395109,MRED as Distributed by MLS Grid,12387672,N,Y,41.7099611,-88.2206856
MLS Listing,,Single Family Residential,300 N River Rd,Naperville,IL,60540,750000,5,4.5,Brush Hill,4128,16988,1910,49,182,,Active,,,https://www.redfin.com/IL/Naperville/300-N-River-Rd-60540/home/18076197,MRED as Distributed by MLS Grid,12350157,N,Y,41.7776154,-88.1767403
MLS Listing,,Single Family Residential,1207 Bonnema Ct,Naperville,IL,60565,1890000,6,5.5,Bonnema Woods,6119,21780,2003,50,309,100,Active,,,https://www.redfin.com/IL/Naperville/1207-Bonnema-Ct-60565/home/23339817,MRED as Distributed by MLS Grid,12390734,N,Y,41.7223767,-88.1071433
MLS Listing,,Single Family Residential,456 S Julian St,Naperville,IL,60540,1739000,5,5.0,Naperville,3985,14374,2008,50,436,,Active,,,https://www.redfin.com/IL/Naperville/456-S-Julian-St-60540/home/18050369,MRED as Distributed by MLS Grid,12385404,N,Y,41.7686258,-88.1351818
MLS Listing,,Vacant Land,Lot 17 Lacey Ave,Naperville,IL,60563,279000,,,Naperville Country Estates,,21344,,51,,,Active,,,https://www.redfin.com/IL/Naperville/17-Lacey-Ave-60563/home/177932232,MRED as Distributed by MLS Grid,12389925,N,Y,41.8027213,-88.1178032
MLS Listing,,Vacant Land,1509 Shiva Ln,Naperville,IL,60565,445000,,,Shiva Estates,,15245,,51,,,Active,,,https://www.redfin.com/IL/Naperville/1509-Shiva-Ln-60565/home/21731660,MRED as Distributed by MLS Grid,12389697,N,Y,41.747572,-88.102187
MLS Listing,,Single Family Residential,845 Tulip Ln,Naperville,IL,60540,1595000,4,3.5,West Highlands,3700,10410,2025,51,431,,Active,,,https://www.redfin.com/IL/Naperville/845-Tulip-Ln-60540/home/18070747,MRED as Distributed by MLS Grid,12389243,N,Y,41.7568009,-88.1529443
MLS Listing,,Single Family Residential,203 Settlers Ct,Naperville,IL,60565,2350000,4,4.5,Naperville,7400,16117,1997,52,318,117,Active,,,https://www.redfin.com/IL/Naperville/203-Settlers-Ct-60565/home/23295460,MRED as Distributed by MLS Grid,12388741,N,Y,41.7149919,-88.138731
MLS Listing,,Single Family Residential,336 Brooklea Ct,Naperville,IL,60565,779000,6,4.0,Naper Carriage Hill,3250,15999,1978,52,240,,Active,,,https://www.redfin.com/IL/Naperville/336-Brooklea-Ct-60565/home/18036408,MRED as Distributed by MLS Grid,12388332,N,Y,41.7287147,-88.1230004
MLS Listing,,Townhouse,5 Spyglass Ct,Naperville,IL,60563,330000,4,1.5,Country Lakes,2103,,1978,52,157,275,Active,,,https://www.redfin.com/IL/Naperville/5S011-Spyglass-Ct-60563/home/18080962,MRED as Distributed by MLS Grid,12387695,N,Y,41.7979937,-88.2190878
MLS Listing,,Single Family Residential,2311 Leverenz Rd,Naperville,IL,60564,825000,5,3.0,Naperville,3147,11325,1998,55,262,108,Active,,,https://www.redfin.com/IL/Naperville/2311-Leverenz-Rd-60564/home/23344349,MRED as Distributed by MLS Grid,12386349,N,Y,41.7195593,-88.1927889
MLS Listing,,Townhouse,4039 Sumac Ct #4039,Naperville,IL,60564,449900,2,2.0,Carillon Club,1658,,2013,55,271,480,Active,,,https://www.redfin.com/IL/Naperville/4039-Sumac-Ct-60564/home/52742036,MRED as Distributed by MLS Grid,12383717,N,Y,41.7128362,-88.2257081
MLS Listing,,Single Family Residential,21 Forest Ave,Naperville,IL,60540,3699000,5,7.5,Naperville,7375,17424,2007,55,502,,Active,,,https://www.redfin.com/IL/Naperville/21-Forest-Ave-60540/home/17971858,MRED as Distributed by MLS Grid,12386519,N,Y,41.7749492,-88.1624872
MLS Listing,,Single Family Residential,308 Tamarack Ave,Naperville,IL,60540,545000,5,2.0,Naperville,1840,11325,1962,55,296,,Active,,,https://www.redfin.com/IL/Naperville/308-Tamarack-Ave-60540/home/14162012,MRED as Distributed by MLS Grid,12385911,N,Y,41.7508546,-88.1445282
MLS Listing,,Single Family Residential,554 Carriage Hill Rd,Naperville,IL,60565,530000,4,2.5,Naper Carriage Hill,2064,10000,1974,55,257,,Active,,,https://www.redfin.com/IL/Naperville/554-Carriage-Hill-Rd-60565/home/18037235,MRED as Distributed by MLS Grid,12386158,N,Y,41.7325595,-88.1181749
MLS Listing,,Single Family Residential,2724 Bluewater Cir,Naperville,IL,60564,475000,4,2.5,Woodlake,1432,6042,1991,56,332,13,Active,,,https://www.redfin.com/IL/Naperville/2724-Bluewater-Cir-60564/home/12909273,MRED as Distributed by MLS Grid,12379702,N,Y,41.7165875,-88.1947519
MLS Listing,,Single Family Residential,1519 77th St,Naperville,IL,60565,1595990,5,4.5,Naperville,3600,11325,2025,57,443,,Active,,,https://www.redfin.com/IL/Naperville/1519-77th-St-60565/home/174357778,MRED as Distributed by MLS Grid,12384579,N,Y,41.745726,-88.102033
MLS Listing,,Townhouse,1209 W Bauer Rd,Naperville,IL,60563,499000,3,2.5,Naperville,2209,4725,1982,58,226,425,Active,August-2-2025 11:00 AM,August-2-2025 01:00 PM,https://www.redfin.com/IL/Naperville/1209-W-Bauer-Rd-60563/home/18078751,MRED as Distributed by MLS Grid,12373611,N,Y,41.796382,-88.1746996
MLS Listing,,Townhouse,1425 N Charles Ave,Naperville,IL,60563,478000,3,2.5,Bauer Place,1813,798,2016,58,264,353,Active,,,https://www.redfin.com/IL/Naperville/1425-N-Charles-Ave-60563/home/144059115,MRED as Distributed by MLS Grid,12382962,N,Y,41.7923369,-88.1305679
MLS Listing,,Single Family Residential,4748 Sassafras Ln,Naperville,IL,60564,2725000,8,8.5,Ashwood Park,10000,16988,2018,59,273,128,Active,,,https://www.redfin.com/IL/Naperville/4748-Sassafras-Ln-60564/home/23366523,MRED as Distributed by MLS Grid,12371958,N,Y,41.6856731,-88.2258165
MLS Listing,,Vacant Land,44 Oak Bluff Ct,Naperville,IL,60565,359000,,,Naperville,,16117,,62,,,Active,,,https://www.redfin.com/IL/Naperville/44-Oak-Bluff-Ct-60565/home/23213195,MRED as Distributed by MLS Grid,12379947,N,Y,41.7180184,-88.1304461
MLS Listing,,Single Family Residential,212 E 11th Ave,Naperville,IL,60563,500000,4,2.0,Saybrook,1944,11865,1963,62,257,,Active,,,https://www.redfin.com/IL/Naperville/212-E-11th-Ave-60563/home/17372823,MRED as Distributed by MLS Grid,12371996,N,Y,41.7878355,-88.1432447
MLS Listing,,Single Family Residential,5S542 Tartan Ln,Naperville,IL,60563,515000,4,2.0,Longwood,2284,11761,1981,62,225,,Active,,,https://www.redfin.com/IL/Naperville/5S542-Tartan-Ln-60563/home/18079818,MRED as Distributed by MLS Grid,12373886,N,Y,41.788155,-88.2092249
MLS Listing,,Condo/Co-op,985 West Ct Unit D,Naperville,IL,60563,347000,3,2.0,Creekside,1421,,1987,63,244,455,Active,,,https://www.redfin.com/IL/Naperville/985-West-Ct-60563/unit-D/home/14172873,MRED as Distributed by MLS Grid,12376446,N,Y,41.786552,-88.157412
MLS Listing,,Single Family Residential,1025 Elizabeth Ave,Naperville,IL,60540,650000,4,2.5,Royal Oaks,2444,13068,1965,64,266,,Active,,,https://www.redfin.com/IL/Naperville/1025-Elizabeth-Ave-60540/home/18050703,MRED as Distributed by MLS Grid,12329098,N,Y,41.7708989,-88.130214
MLS Listing,,Single Family Residential,2135 Schumacher Dr,Naperville,IL,60540,480000,3,2.5,Naperville,2354,,1995,66,204,15,Active,,,https://www.redfin.com/IL/Naperville/2135-Schumacher-Dr-60540/home/14354459,MRED as Distributed by MLS Grid,12366033,N,Y,41.752548,-88.1882551
MLS Listing,,Single Family Residential,2030 University Dr,Naperville,IL,60565,524900,4,2.5,University Heights,1710,9949,1984,68,307,,Active,,,https://www.redfin.com/IL/Naperville/2030-University-Dr-60565/home/14362152,MRED as Distributed by MLS Grid,12372487,N,Y,41.7295235,-88.1044614
MLS Listing,,Single Family Residential,24161 Brancaster Dr,Naperville,IL,60564,925000,6,3.0,Tamarack Fairways,5409,29620,1988,69,171,8,Active,,,https://www.redfin.com/IL/Naperville/24161-Brancaster-Dr-60564/home/23161952,MRED as Distributed by MLS Grid,12370949,N,Y,41.6873807,-88.2099193
MLS Listing,,Single Family Residential,107 S Webster St,Naperville,IL,60540,3000000,5,5.0,Naperville,4320,4758,2025,69,694,,Active,,,https://www.redfin.com/IL/Naperville/107-S-Webster-St-60540/home/194756551,MRED as Distributed by MLS Grid,12295627,N,Y,41.7738916,-88.1513657
MLS Listing,,Multi-Family (2-4 Unit),130 N Huffman St,Naperville,IL,60540,2699900,8,7.0,Naperville,,7500,2026,71,,,Active,,,https://www.redfin.com/IL/Naperville/130-N-Huffman-St-60540/home/18050807,MRED as Distributed by MLS Grid,12371611,N,Y,41.7765256,-88.1350237
MLS Listing,,Condo/Co-op,214 E Bailey Rd Unit J,Naperville,IL,60565,195000,2,1.5,Naperville,900,,1983,73,217,477,Active,,,https://www.redfin.com/IL/Naperville/214-E-Bailey-Rd-60565/unit-J/home/18038103,MRED as Distributed by MLS Grid,12369372,N,Y,41.7423689,-88.140636
MLS Listing,,Single Family Residential,2836 Hillcrest Cir,Naperville,IL,60564,650000,2,2.0,Carillon Club,2156,7906,2011,76,301,314,Active,,,https://www.redfin.com/IL/Naperville/2836-Hillcrest-Cir-60564/home/25499529,MRED as Distributed by MLS Grid,12346694,N,Y,41.7118432,-88.2300598
MLS Listing,,Single Family Residential,624 Joshua Ct,Naperville,IL,60540,719990,4,2.5,Buttonwood,2786,14810,1982,76,258,,Active,,,https://www.redfin.com/IL/Naperville/624-Joshua-Ct-60540/home/18072048,MRED as Distributed by MLS Grid,12367623,N,Y,41.7627667,-88.1706197
MLS Listing,,Townhouse,2904 Portage St,Naperville,IL,60564,614900,3,2.5,Carillon Club,2691,,2008,77,229,480,Active,,,https://www.redfin.com/IL/Naperville/2904-Portage-St-60564/home/25499727,MRED as Distributed by MLS Grid,12361985,N,Y,41.7118283,-88.2232391
MLS Listing,,Townhouse,1640 Hilton Head Dr,Naperville,IL,60563,329900,3,2.5,Country Lakes,1524,1955,1990,77,216,245,Active,,,https://www.redfin.com/IL/Naperville/1640-Hilton-Head-Dr-60563/home/18081753,MRED as Distributed by MLS Grid,12365915,N,Y,41.7985533,-88.22058
MLS Listing,,Single Family Residential,625 Wellner Rd,Naperville,IL,60540,689000,3,2.0,East Highlands,1752,8276,1955,78,393,,Active,,,https://www.redfin.com/IL/Naperville/625-Wellner-Rd-60540/home/18050417,MRED as Distributed by MLS Grid,12356135,N,Y,41.7653326,-88.1400616
MLS Listing,,Condo/Co-op,520 S Washington St #201,Naperville,IL,60540,675000,2,2.5,Naperville,2020,,2006,79,334,879,Active,,,https://www.redfin.com/IL/Naperville/520-S-Washington-St-60540/unit-201/home/17977927,MRED as Distributed by MLS Grid,12364207,N,Y,41.7688237,-88.1477151
MLS Listing,,Condo/Co-op,450 Valley Dr #201,Naperville,IL,60563,224900,2,1.0,Naperville,1000,,1990,79,225,325,Active,,,https://www.redfin.com/IL/Naperville/450-Valley-Dr-60563/unit-201/home/14156509,MRED as Distributed by MLS Grid,12363487,N,Y,41.779634,-88.173146
MLS Listing,,Townhouse,405 Orleans Ave,Naperville,IL,60565,445000,2,2.5,Naperville,2110,5830,1989,82,211,370,Active,,,https://www.redfin.com/IL/Naperville/405-Orleans-Ave-60565/home/14177653,MRED as Distributed by MLS Grid,12362090,N,Y,41.7383274,-88.1224649
MLS Listing,,Single Family Residential,809 S Charles Ave,Naperville,IL,60540,610000,4,2.5,Hobson Village,2622,10018,1976,91,233,13,Active,,,https://www.redfin.com/IL/Naperville/809-S-Charles-Ave-60540/home/18049634,MRED as Distributed by MLS Grid,12323619,N,Y,41.7612841,-88.1289354
MLS Listing,,Single Family Residential,905 N Webster St,Naperville,IL,60563,1495000,4,4.0,Naperville,3300,7527,2025,98,453,,Active,,,https://www.redfin.com/IL/Naperville/905-N-Webster-St-60563/home/105533353,MRED as Distributed by MLS Grid,12344099,N,Y,41.7861816,-88.150252
MLS Listing,,Single Family Residential,1428 Calcutta Ln,Naperville,IL,60563,2500000,6,5.5,Cress Creek,5298,12155,2015,99,472,,Active,,,https://www.redfin.com/IL/Naperville/1428-Calcutta-Ln-60563/home/18078003,MRED as Distributed by MLS Grid,12340126,N,Y,41.7934965,-88.1685255
MLS Listing,,Vacant Land,4S069 Barclay Rd,Naperville,IL,60563,112500,,,Naperville,,43560,,105,,,Active,,,https://www.redfin.com/IL/Warrenville/4S069-Barclay-Rd-60563/home/18082602,MRED as Distributed by MLS Grid,12340872,N,Y,41.8131086,-88.20786
MLS Listing,,Townhouse,3103 Saganashkee Ln,Naperville,IL,60564,435000,3,2.5,Naperville,1954,,2005,107,223,394,Active,,,https://www.redfin.com/IL/Naperville/3103-Saganashkee-Ln-60564/home/23361697,MRED as Distributed by MLS Grid,12338706,N,Y,41.7020691,-88.2079831
MLS Listing,,Condo/Co-op,208 E Bailey Rd Unit K,Naperville,IL,60565,174900,1,1.0,Olive Trees,756,,1972,112,231,333,Active,,,https://www.redfin.com/IL/Naperville/208-E-Bailey-Rd-60565/unit-K/home/18037304,MRED as Distributed by MLS Grid,12335237,N,Y,41.738289,-88.124193
MLS Listing,,Condo/Co-op,2409 Golf Ridge Cir,Naperville,IL,60563,329900,2,2.5,Enclave at Country Lakes,1412,,2001,114,234,357,Active,,,https://www.redfin.com/IL/Naperville/2409-Golf-Ridge-Cir-60563/home/17990291,MRED as Distributed by MLS Grid,12332508,N,Y,41.7888843,-88.2248394
MLS Listing,,Single Family Residential,820 Prairie Ave,Naperville,IL,60540,2699900,4,5.5,Naperville,5184,12283,2026,114,521,,Active,,,https://www.redfin.com/IL/Naperville/820-Prairie-Ave-60540/home/18049288,MRED as Distributed by MLS Grid,12332255,N,Y,41.766945,-88.134808
MLS Listing,,Single Family Residential,1114 N Webster St,Naperville,IL,60563,1299900,4,3.5,Naperville,2730,6534,2026,114,476,,Active,,,https://www.redfin.com/IL/Naperville/1114-N-Webster-St-60563/home/18077713,MRED as Distributed by MLS Grid,12331629,N,Y,41.7886968,-88.1492959
MLS Listing,,Condo/Co-op,138 E Bailey Rd Unit M,Naperville,IL,60565,209000,2,1.5,Naperville,927,,1972,119,225,476,Active,,,https://www.redfin.com/IL/Naperville/138-E-Bailey-Rd-60565/unit-M/home/18038128,MRED as Distributed by MLS Grid,12328186,N,Y,41.7383675,-88.1246766
MLS Listing,,Single Family Residential,2741 Gateshead Dr,Naperville,IL,60564,673000,5,3.5,Brook Crossing,2544,10890,1984,119,265,,Active,,,https://www.redfin.com/IL/Naperville/2741-Gateshead-Dr-60564/home/23218329,MRED as Distributed by MLS Grid,12321442,N,Y,41.7114281,-88.1713009
MLS Listing,,Single Family Residential,1033 Emerald Dr,Naperville,IL,60540,1599900,3,3.0,West Highlands,3568,10018,2026,121,448,,Active,,,https://www.redfin.com/IL/Naperville/1033-Emerald-Dr-60540/home/18070030,MRED as Distributed by MLS Grid,12324531,N,Y,41.7513067,-88.1572507
MLS Listing,,Vacant Land,5S583 Tuthill Rd,Naperville,IL,60563,375000,,,Naperville,,55321,,122,,,Active,,,https://www.redfin.com/IL/Naperville/5-Tuthill-Rd-60563/home/195212361,MRED as Distributed by MLS Grid,12325340,N,Y,41.793862,-88.1201864
MLS Listing,,Single Family Residential,660 N Eagle St,Naperville,IL,60563,1650000,4,3.0,Naperville,3180,7339,2025,126,519,,Active,,,https://www.redfin.com/IL/Naperville/660-N-Eagle-St-60563/home/18077381,MRED as Distributed by MLS Grid,12323211,N,Y,41.7833031,-88.1510009
MLS Listing,,Vacant Land,636 E 4th Ave,Naperville,IL,60540,75000,,,Naperville,,9120,,148,,,Active,,,https://www.redfin.com/IL/Naperville/636-E-4th-Ave-60540/home/194945451,MRED as Distributed by MLS Grid,12305039,N,Y,41.779125,-88.137832
MLS Listing,,Single Family Residential,31 Golden Larch Ct,Naperville,IL,60540,1697000,4,3.5,Naperville,3100,21780,,153,547,,Active,,,https://www.redfin.com/IL/Naperville/31-Golden-Larch-Ct-60540/home/18049262,MRED as Distributed by MLS Grid,12300512,N,Y,41.7623132,-88.1469416
MLS Listing,,Single Family Residential,712 E Hillside Rd,Naperville,IL,60540,2480000,6,7.0,Naperville,7594,13650,2007,153,327,,Active,,,https://www.redfin.com/IL/Naperville/712-E-Hillside-Rd-60540/home/18049551,MRED as Distributed by MLS Grid,12296322,N,Y,41.7656977,-88.1363694
MLS Listing,,Single Family Residential,1314 N Eagle St,Naperville,IL,60563,625000,3,2.0,Naperville,,12000,1949,159,,,Active,,,https://www.redfin.com/IL/Naperville/1314-N-Eagle-St-60563/home/17979474,MRED as Distributed by MLS Grid,12288708,N,Y,41.7911723,-88.1502977
MLS Listing,,Single Family Residential,51 Ford Ln,Naperville,IL,60565,3300000,5,8.5,Washington Woods,10305,41382,2006,171,320,85,Active,,,https://www.redfin.com/IL/Naperville/51-Ford-Ln-60565/home/23231808,MRED as Distributed by MLS Grid,12287650,N,Y,41.7160598,-88.1338712
MLS Listing,,Single Family Residential,1216 Tranquility Ct,Naperville,IL,60540,2499000,6,5.5,Cotswold Estates,6349,30056,2007,177,394,,Active,,,https://www.redfin.com/IL/Naperville/1216-Tranquility-Ct-60540/home/21733766,MRED as Distributed by MLS Grid,12260166,N,Y,41.753793,-88.1055845
MLS Listing,,Single Family Residential,328 S Loomis St,Naperville,IL,60540,2149000,5,4.5,Fort Hill,3897,8712,2025,189,551,,Active,,,https://www.redfin.com/IL/Naperville/328-S-Loomis-St-60540/home/21736333,MRED as Distributed by MLS Grid,12270661,N,Y,41.7703889,-88.141383
MLS Listing,,Single Family Residential,3316 Club Ct,Naperville,IL,60564,2899900,4,4.5,White Eagle,4184,,2026,198,693,103,Active,,,https://www.redfin.com/IL/Naperville/3316-Club-Ct-60564/home/109648338,MRED as Distributed by MLS Grid,12269598,N,Y,41.7206456,-88.2153998
MLS Listing,,Single Family Residential,316 N Loomis St,Naperville,IL,60540,560000,3,1.5,Naperville,1457,8550,1960,201,384,,Active,,,https://www.redfin.com/IL/Naperville/316-Loomis-St-60540/home/21775214,MRED as Distributed by MLS Grid,12267381,N,Y,41.7789808,-88.1419104
MLS Listing,,Condo/Co-op,1004 N Mill St #106,Naperville,IL,60563,231750,2,1.5,Mill Crossing,1060,,1980,251,219,420,Active,,,https://www.redfin.com/IL/Naperville/1004-N-Mill-St-60563/unit-106/home/18076517,MRED as Distributed by MLS Grid,12211697,N,Y,41.7870897,-88.1534616
MLS Listing,,Townhouse,328 4th St,Naperville,IL,60540,899990,3,3.5,Naperville,2503,800,2024,292,360,400,Active,,,https://www.redfin.com/IL/Naperville/328-4th-ST-60540/home/193057722,MRED as Distributed by MLS Grid,12186187,N,Y,41.7606321,-88.1437782
MLS Listing,,Townhouse,326 4th St,Naperville,IL,60540,899990,3,3.0,Naperville,2503,800,2024,292,360,400,Active,,,https://www.redfin.com/IL/Naperville/326-4th-ST-60540/home/193057713,MRED as Distributed by MLS Grid,12186144,N,Y,41.7606321,-88.1437782
MLS Listing,,Single Family Residential,11616 Century Cir,Plainfield,IL,60585,1499999,4,4.0,Century Trace,4000,11761,,300,375,,Active,,,https://www.redfin.com/IL/Plainfield/11616-Century-Cir-60585/home/23367428,MRED as Distributed by MLS Grid,12181211,N,Y,41.6723771,-88.2243787
MLS Listing,,Condo/Co-op,415 Jackson Ave #1,Naperville,IL,60540,1699999,3,2.5,Naperville,2987,,2025,300,569,,Active,,,https://www.redfin.com/IL/Naperville/415-Jackson-Ave-60540/unit-1/home/192939728,MRED as Distributed by MLS Grid,12180697,N,Y,41.7722244,-88.1552141
MLS Listing,,Vacant Land,10S154 Schoger Dr,Naperville,IL,60564,900000,,,Wheatland Industrial Park,,59677,,310,,,Active,,,https://www.redfin.com/IL/Naperville/10S154-Schoger-Dr-60564/home/63599814,MRED as Distributed by MLS Grid,12172090,N,Y,41.72135,-88.228293
MLS Listing,,Single Family Residential,4128 Callery Rd,Naperville,IL,60564,1999999,5,5.5,Naperville,5270,10890,,349,380,275,Active,,,https://www.redfin.com/IL/Naperville/4128-Callery-Rd-60564/home/23274391,MRED as Distributed by MLS Grid,12139924,N,Y,41.676133,-88.2268827
MLS Listing,,Vacant Land,24531 W 103rd St,Naperville,IL,60564,1765000,,,Naperville,,185130,,427,,,Active,,,https://www.redfin.com/IL/Naperville/24531-W-103rd-St-60564/home/40174281,MRED as Distributed by MLS Grid,12046559,N,Y,41.6941406,-88.2189412
For-Sale-by-Owner Listing,,Single Family Residential,321 S Columbia St,Naperville,IL,60540,650000,4,,Naperville,1546,,1948,72,420,,Active,,,https://www.redfin.com/IL/Naperville/321-S-Columbia-St-60540/home/14158364,Fizber.com,11557377,N,Y,41.7712329,-88.1381149
For-Sale-by-Owner Listing,,Townhouse,3352 Rosecroft Ln #3352,Naperville,IL,60564,449500,3,2.5,Naperville,1865,,2001,132,241,,Active,,,https://www.redfin.com/IL/Naperville/3352-Rosecroft-Ln-60564/unit-3352/home/13137357,Fizber.com,11553852,N,Y,41.710733,-88.211689
For-Sale-by-Owner Listing,,Single Family Residential,209 E 12th Ave,Naperville,IL,60563,480000,3,2.0,Naperville,1800,,1960,243,267,,Active,,,https://www.redfin.com/IL/Naperville/209-E-12th-Ave-60563/home/18059842,Fizber.com,11547037,N,Y,41.7898252,-88.1443104
New Construction Home,,Single Family Residential,657 N Main St,Naperville,IL,60563,1596900,4,4.5,Naperville,3072,7263,2025,49,520,,Active,,,https://www.redfin.com/IL/Naperville/657-N-Main-St-60563/home/18076434,Zillow,D849C83FF82A,N,Y,41.7835266,-88.1490883
New Construction Home,,Townhouse,117 N Columbia Ave #32,Naperville,IL,60565,2146500,4,3.5,Naperville,4952,,2025,49,433,,Active,,,https://www.redfin.com/IL/Naperville/117-N-Columbia-Ave-60540/unit-32/home/196068092,Zillow,52D9B2B1B131,N,Y,41.7762156,-88.138321
New Construction Home,,Single Family Residential,622 School St #8,Naperville,IL,60540,1672000,3,3.5,Naperville,3749,,2025,49,446,,Active,,,https://www.redfin.com/IL/Naperville/622-School-St-60540/unit-8/home/196068072,Zillow,308967922B26,N,Y,41.7768313,-88.1386804
New Construction Home,,Townhouse,147 N Columbia St #22,Naperville,IL,60540,1399900,3,3.5,Naperville,3693,,2025,49,379,,Active,,,https://www.redfin.com/IL/Naperville/147-Columbia-St-60563/unit-22/home/196068052,Zillow,5027A09A8422,N,Y,41.7769003,-88.1381746
New Construction Home,,Townhouse,149 N Columbia St #21,Naperville,IL,60540,1492000,3,3.5,Naperville,3665,,2025,49,407,,Active,,,https://www.redfin.com/IL/Naperville/149-Columbia-St-60540/unit-21/home/196068049,Zillow,9BBF9B16AEFA,N,Y,41.77717,-88.138256
New Construction Home,,Townhouse,121 N Columbia St #31,Naperville,IL,60540,2112550,3,3.5,Naperville,4898,,2025,49,431,,Active,,,https://www.redfin.com/IL/Naperville/121-Columbia-St-60540/unit-31/home/196068042,Zillow,9FB8208CED8F,N,Y,41.7763965,-88.1382591
New Construction Home,,Single Family Residential,620 School St #7,Naperville,IL,60540,1872000,3,3.5,Naperville,3749,,2025,49,499,,Active,,,https://www.redfin.com/IL/Naperville/620-School-St-60540/unit-7/home/196068011,Zillow,27199FB9DEA9,N,Y,41.7768992,-88.1388
New Construction Home,,Single Family Residential,624 School St #9,Naperville,IL,60540,1772000,3,3.5,Naperville,3749,,2025,49,473,,Active,,,https://www.redfin.com/IL/Naperville/624-School-St-60540/unit-9/home/196067993,Zillow,16D8915FBAD4,N,Y,41.776831,-88.138619
New Construction Home,,Townhouse,145 N Columbia St #23,Naperville,IL,60540,1399900,3,3.5,Naperville,3693,,2025,49,379,,Active,,,https://www.redfin.com/IL/Naperville/145-Columbia-St-60540/unit-23/home/196067975,Zillow,23FFDF0A0B55,N,Y,41.7769977,-88.1382432
New Construction Home,,Townhouse,143 N Columbia St #24,Naperville,IL,60540,1479900,3,3.5,Naperville,3725,,2025,49,397,,Active,,,https://www.redfin.com/IL/Naperville/143-Columbia-St-60540/unit-24/home/196067973,Zillow,3F6F84430077,N,Y,41.7769774,-88.1382448
New Construction Plan,,Townhouse,Building 9 at Heritage Place - One Unit Left! Plan,Naperville,IL,60540,2112550,4,3.5,Naperville,4952,,,13,427,,Active,,,https://www.redfin.com/IL/Naperville/Naperville/Building-9-at-Heritage-Place-One-Unit-Left/home/196502260,Zillow,9089A07FB6DA,N,Y,41.775964,-88.13855
New Construction Plan,,Single Family Residential,The Whistler II Plan,Naperville,IL,60540,1406900,4,3.5,Naperville,3714,,,46,379,,Active,,,https://www.redfin.com/IL/Fz5oo4-North-Naperville/Naperville/The-Whistler-II/home/196085922,Zillow,FC39EA3099ED,N,Y,41.7690459,-88.1510771
New Construction Plan,,Townhouse,Building 7 at Heritage Place - Two Units Left! Plan,Naperville,IL,60540,1399900,3,3.5,Naperville,3665,,,46,382,,Active,,,https://www.redfin.com/IL/Naperville/Naperville/Building-7-at-Heritage-Place-Two-Units-Left/home/196180834,Zillow,A1F0967DF2B5,N,Y,41.775964,-88.13855
New Construction Plan,,Single Family Residential,The Luna Plan,Naperville,IL,60540,1109900,3,2.0,Naperville,2051,,,48,541,,Active,,,https://www.redfin.com/IL/9xv9ij-North-Naperville/Naperville/The-Luna/home/196068123,Zillow,B30C9127DA14,N,Y,41.7690459,-88.1510771
New Construction Plan,,Single Family Residential,The Marissa Plan,Naperville,IL,60540,1388900,4,3.5,Naperville,3925,,,48,354,,Active,,,https://www.redfin.com/IL/8lu5cu-North-Naperville/Naperville/The-Marissa/home/196068076,Zillow,40471F0FA02A,N,Y,41.7690459,-88.1510771
New Construction Plan,,Single Family Residential,The Sierra Plan,Naperville,IL,60540,1200900,3,2.5,Naperville,2483,,,48,484,,Active,,,https://www.redfin.com/IL/1vxr0c-North-Naperville/Naperville/The-Sierra/home/196068098,Zillow,AC9961830DBE,N,Y,41.7690459,-88.1510771
New Construction Plan,,Single Family Residential,The Parker I Plan,Naperville,IL,60540,1159900,4,2.5,Naperville,2700,,,48,430,,Active,,,https://www.redfin.com/IL/Ebevwf-North-Naperville/Naperville/The-Parker-I/home/196068079,Zillow,877D270D110B,N,Y,41.7690459,-88.1510771
New Construction Plan,,Single Family Residential,The Scarlett III Plan,Naperville,IL,60540,1238900,3,3.0,Naperville,2577,,,48,481,,Active,,,https://www.redfin.com/IL/M3ikwk-North-Naperville/Naperville/The-Scarlett-III/home/196068083,Zillow,61ECFEE9A68A,N,Y,41.7690459,-88.1510771
New Construction Plan,,Single Family Residential,The Monroe II Plan,Naperville,IL,60540,1206900,4,4.5,Naperville,3053,,,48,395,,Active,,,https://www.redfin.com/IL/Naperville/Naperville/The-Monroe-II/home/188421938,Zillow,14134ED9DD2F,N,Y,41.7690496,-88.1510377
New Construction Plan,,Single Family Residential,The Parker IV Plan,Naperville,IL,60540,1231900,4,3.5,Naperville,3013,,,48,409,,Active,,,https://www.redfin.com/IL/Naperville/Naperville/The-Parker-IV/home/193745406,Zillow,07726196F6AA,N,Y,41.7690631,-88.1510515
New Construction Plan,,Single Family Residential,The Logan V Plan,Naperville,IL,60540,1436900,4,4.0,Naperville,4175,,,48,344,,Active,,,https://www.redfin.com/IL/Gc6ber-North-Naperville/Naperville/The-Logan-V/home/196068118,Zillow,E6D3B6E5F713,N,Y,41.7690459,-88.1510771
New Construction Plan,,Single Family Residential,The Quinn Plan,Naperville,IL,60540,1263900,4,3.5,Naperville,3177,,,48,398,,Active,,,https://www.redfin.com/IL/Naperville/Naperville/The-Quinn/home/193745408,Zillow,251838625276,N,Y,41.7690631,-88.1510515
New Construction Plan,,Single Family Residential,The Strata Plan,Naperville,IL,60540,1409900,4,3.5,Naperville,3745,,,48,376,,Active,,,https://www.redfin.com/IL/Q1hs7j-North-Naperville/Naperville/The-Strata/home/196068113,Zillow,660519721108,N,Y,41.7690459,-88.1510771
New Construction Plan,,Single Family Residential,The Robin II Plan,Naperville,IL,60540,1418900,4,3.5,Naperville,3916,,,48,362,,Active,,,https://www.redfin.com/IL/North-Naperville/Naperville/The-Robin-II/home/196068062,Zillow,7F21B43F0D59,N,Y,41.7690459,-88.1510771
New Construction Plan,,Single Family Residential,The Summit Plan,Naperville,IL,60540,1147900,4,3.5,Naperville,2290,,,48,501,,Active,,,https://www.redfin.com/IL/Xjbtqr-North-Naperville/Naperville/The-Summit/home/196068116,Zillow,5E17F80C6D8F,N,Y,41.7690459,-88.1510771
New Construction Plan,,Single Family Residential,The Willow Plan,Naperville,IL,60540,1411900,3,3.5,Naperville,3510,,,48,402,,Active,,,https://www.redfin.com/IL/Hyoara-North-Naperville/Naperville/The-Willow/home/196067967,Zillow,87D9071EA7C1,N,Y,41.7690459,-88.1510771
New Construction Plan,,Single Family Residential,The Sugarberry Plan,Naperville,IL,60540,1235900,4,3.5,Naperville,3045,,,48,406,,Active,,,https://www.redfin.com/IL/Naperville/Naperville/The-Sugarberry/home/188423688,Zillow,88ACC96EB34C,N,Y,41.7690496,-88.1510377
New Construction Plan,,Single Family Residential,The Parker III Plan,Naperville,IL,60540,1209900,4,3.5,Naperville,2937,,,48,412,,Active,,,https://www.redfin.com/IL/North-Naperville/Naperville/The-Parker-III/home/196068040,Zillow,9F718503509D,N,Y,41.7690459,-88.1510771
New Construction Plan,,Single Family Residential,The Logan IV Plan,Naperville,IL,60540,1342900,4,4.5,Naperville,3714,,,48,362,,Active,,,https://www.redfin.com/IL/North-Naperville/Naperville/The-Logan-IV/home/196068038,Zillow,8CCD64581CCF,N,Y,41.7690459,-88.1510771
New Construction Plan,,Single Family Residential,The Noah Plan,Naperville,IL,60540,1280900,4,3.5,Naperville,3393,,,48,378,,Active,,,https://www.redfin.com/IL/North-Naperville/Naperville/The-Noah/home/196067971,Zillow,027194DAF478,N,Y,41.7690459,-88.1510771
New Construction Plan,,Single Family Residential,The Scarlett I Plan,Naperville,IL,60540,1196900,3,2.5,Naperville,2427,,,48,493,,Active,,,https://www.redfin.com/IL/Naperville/Naperville/The-Scarlett-I/home/188402204,Zillow,CA4FA5CAE481,N,Y,41.7690631,-88.1510515
New Construction Plan,,Single Family Residential,The Parker II Plan,Naperville,IL,60540,1181900,4,2.5,Naperville,2850,,,48,415,,Active,,,https://www.redfin.com/IL/Hnkfvp-North-Naperville/Naperville/The-Parker-II/home/196068077,Zillow,245B10528001,N,Y,41.7690459,-88.1510771
New Construction Plan,,Single Family Residential,The White Oak Plan,Naperville,IL,60540,1247900,4,3.5,Naperville,3063,,,48,407,,Active,,,https://www.redfin.com/IL/Naperville/Naperville/The-White-Oak/home/188413588,Zillow,F07ACAAB01B2,N,Y,41.7690496,-88.1510377
New Construction Plan,,Single Family Residential,The Robin I Plan,Naperville,IL,60540,1379900,4,3.5,Naperville,3696,,,48,373,,Active,,,https://www.redfin.com/IL/Awcscw-North-Naperville/Naperville/The-Robin-I/home/196068068,Zillow,E9240917DA48,N,Y,41.7690459,-88.1510771
New Construction Plan,,Single Family Residential,The Scarlett II Plan,Naperville,IL,60540,1236900,3,3.0,Naperville,2568,,,48,482,,Active,,,https://www.redfin.com/IL/Naperville/Naperville/The-Scarlett-II/home/193745407,Zillow,BBF13CC59171,N,Y,41.7690631,-88.1510515
New Construction Plan,,Single Family Residential,The Sedona Plan,Naperville,IL,60540,1116900,3,2.5,Naperville,2057,,,48,543,,Active,,,https://www.redfin.com/IL/North-Naperville/Naperville/The-Sedona/home/196068074,Zillow,6FE630A62A21,N,Y,41.7690459,-88.1510771
New Construction Plan,,Single Family Residential,The Sonoma Plan,Naperville,IL,60540,1229900,4,3.0,Naperville,2548,,,48,483,,Active,,,https://www.redfin.com/IL/Mv8wvk-North-Naperville/Naperville/The-Sonoma/home/196068055,Zillow,28571496E409,N,Y,41.7690459,-88.1510771
New Construction Plan,,Single Family Residential,The Teton Plan,Naperville,IL,60540,1219900,3,2.5,Naperville,2772,,,48,440,,Active,,,https://www.redfin.com/IL/C72fdw-North-Naperville/Naperville/The-Teton/home/196067957,Zillow,48E495C6A551,N,Y,41.7690459,-88.1510771
New Construction Plan,,Single Family Residential,The Wellington Plan,Naperville,IL,60540,1351900,4,3.5,Naperville,3563,,,48,379,,Active,,,https://www.redfin.com/IL/W4h2au-North-Naperville/Naperville/The-Wellington/home/196068085,Zillow,98933D28106B,N,Y,41.7690459,-88.1510771
New Construction Plan,,Single Family Residential,The Madison Plan,Naperville,IL,60540,1229900,4,3.5,Naperville,3000,,,48,410,,Active,,,https://www.redfin.com/IL/North-Naperville/Naperville/The-Madison/home/196068097,Zillow,5B01205E9B48,N,Y,41.7690459,-88.1510771
New Construction Plan,,Single Family Residential,The Windermere Plan,Naperville,IL,60540,1470900,4,5.5,Naperville,4063,,,48,362,,Active,,,https://www.redfin.com/IL/H11lnu-North-Naperville/Naperville/The-Windermere/home/196067990,Zillow,4006A8E841A7,N,Y,41.7690459,-88.1510771
New Construction Plan,,Single Family Residential,The Blake Plan,Naperville,IL,60540,1164900,4,2.5,Naperville,2700,,,48,431,,Active,,,https://www.redfin.com/IL/North-Naperville/Naperville/The-Blake/home/196068117,Zillow,5E88A4D841D5,N,Y,41.7690459,-88.1510771
New Construction Plan,,Single Family Residential,The Jaxon I Plan,Naperville,IL,60540,1257900,4,3.5,Naperville,3104,,,48,405,,Active,,,https://www.redfin.com/IL/Jr9c65-North-Naperville/Naperville/The-Jaxon-I/home/196068105,Zillow,23112B10D519,N,Y,41.7690459,-88.1510771
New Construction Plan,,Single Family Residential,The Kristina Plan,Naperville,IL,60540,1482900,5,3.5,Naperville,4275,,,48,347,,Active,,,https://www.redfin.com/IL/North-Naperville/Naperville/The-Kristina/home/196068006,Zillow,89D2EE0BCC34,N,Y,41.7690459,-88.1510771
New Construction Plan,,Single Family Residential,The Camden II Plan,Naperville,IL,60540,1235900,3,2.5,Naperville,3044,,,48,406,,Active,,,https://www.redfin.com/IL/North-Naperville/Naperville/The-Camden-II/home/196068069,Zillow,D78495C1DD12,N,Y,41.7690459,-88.1510771
New Construction Plan,,Single Family Residential,The Logan I Plan,Naperville,IL,60540,1174900,4,3.5,Naperville,2856,,,48,411,,Active,,,https://www.redfin.com/IL/Ooe9tv-North-Naperville/Naperville/The-Logan-I/home/196067984,Zillow,4DD562BC25B8,N,Y,41.7690459,-88.1510771
New Construction Plan,,Single Family Residential,The Alpine Plan,Naperville,IL,60540,1232900,3,2.5,Naperville,3069,,,48,402,,Active,,,https://www.redfin.com/IL/North-Naperville/Naperville/The-Alpine/home/196068037,Zillow,98E8802424EC,N,Y,41.7690459,-88.1510771
New Construction Plan,,Single Family Residential,The Annabella Plan,Naperville,IL,60540,1349900,4,4.0,Naperville,3235,,,48,417,,Active,,,https://www.redfin.com/IL/Lopjye-North-Naperville/Naperville/The-Annabella/home/196068028,Zillow,6524D1126795,N,Y,41.7690459,-88.1510771
New Construction Plan,,Single Family Residential,The Laguna I Plan,Naperville,IL,60540,1130900,3,2.5,Naperville,2513,,,48,450,,Active,,,https://www.redfin.com/IL/Naperville/Naperville/The-Laguna-I/home/188406046,Zillow,C23286DA71E8,N,Y,41.7690496,-88.1510377
New Construction Plan,,Single Family Residential,The Bailey II Plan,Naperville,IL,60540,1327900,3,2.5,Naperville,3034,,,48,438,,Active,,,https://www.redfin.com/IL/Pbogxg-North-Naperville/Naperville/The-Bailey-II/home/196068102,Zillow,E817BE1FA4C4,N,Y,41.7690459,-88.1510771
New Construction Plan,,Single Family Residential,The Amelia III Plan,Naperville,IL,60540,1307900,4,3.5,Naperville,3511,,,48,373,,Active,,,https://www.redfin.com/IL/6y1r4t-North-Naperville/Naperville/The-Amelia-III/home/196068093,Zillow,13DE8F2394AE,N,Y,41.7690459,-88.1510771
New Construction Plan,,Single Family Residential,The Amelia I Plan,Naperville,IL,60540,1252900,4,3.5,Naperville,3214,,,48,390,,Active,,,https://www.redfin.com/IL/Y89jo3-North-Naperville/Naperville/The-Amelia-I/home/196067968,Zillow,6444D437B545,N,Y,41.7690459,-88.1510771
New Construction Plan,,Single Family Residential,The Addison I Plan,Naperville,IL,60540,1253900,4,3.5,Naperville,3095,,,48,405,,Active,,,https://www.redfin.com/IL/Naperville/Naperville/The-Addison-I/home/188382781,Zillow,157B61254BB2,N,Y,41.7690496,-88.1510377
New Construction Plan,,Single Family Residential,The Addison II Plan,Naperville,IL,60540,1301900,4,3.5,Naperville,3317,,,48,392,,Active,,,https://www.redfin.com/IL/Z763co-North-Naperville/Naperville/The-Addison-II/home/196068061,Zillow,43714ABBE785,N,Y,41.7690459,-88.1510771
New Construction Plan,,Single Family Residential,The Hampton Plan,Naperville,IL,60540,1306900,4,3.5,Naperville,3525,,,48,371,,Active,,,https://www.redfin.com/IL/7ds9gr-North-Naperville/Naperville/The-Hampton/home/196067963,Zillow,EF8A4E5EF101,N,Y,41.7690459,-88.1510771
New Construction Plan,,Single Family Residential,The Cameron I Plan,Naperville,IL,60540,1244900,4,3.5,Naperville,3020,,,48,412,,Active,,,https://www.redfin.com/IL/North-Naperville/Naperville/The-Cameron-I/home/196067999,Zillow,BBA910E54652,N,Y,41.7690459,-88.1510771
New Construction Plan,,Single Family Residential,The Kentwood Plan,Naperville,IL,60540,1253900,4,3.5,Naperville,3189,,,48,393,,Active,,,https://www.redfin.com/IL/Na9z1l-North-Naperville/Naperville/The-Kentwood/home/196068125,Zillow,0064B429C5E3,N,Y,41.7690459,-88.1510771
New Construction Plan,,Single Family Residential,The Addison IV Plan,Naperville,IL,60540,1432900,4,3.5,Naperville,3720,,,48,385,,Active,,,https://www.redfin.com/IL/Naperville/Naperville/The-Addison-IV/home/188396125,Zillow,7F46C1B083E4,N,Y,41.7690496,-88.1510377
New Construction Plan,,Single Family Residential,The Geneva Plan,Naperville,IL,60540,1326900,4,2.5,Naperville,3000,,,48,442,,Active,,,https://www.redfin.com/IL/North-Naperville/Naperville/The-Geneva/home/196068034,Zillow,844369054FB1,N,Y,41.7690459,-88.1510771
New Construction Plan,,Single Family Residential,The Evelyn I Plan,Naperville,IL,60540,1242900,3,2.5,Naperville,2758,,,48,451,,Active,,,https://www.redfin.com/IL/B21yx9-North-Naperville/Naperville/The-Evelyn-I/home/196068100,Zillow,C9911509ADBC,N,Y,41.7690459,-88.1510771
New Construction Plan,,Single Family Residential,The Harmony Plan,Naperville,IL,60540,1354900,4,3.5,Naperville,3583,,,48,378,,Active,,,https://www.redfin.com/IL/50w5m8-North-Naperville/Naperville/The-Harmony/home/196068110,Zillow,29A9621E80E0,N,Y,41.7690459,-88.1510771
New Construction Plan,,Single Family Residential,The Cameron II Plan,Naperville,IL,60540,1427900,4,4.5,Naperville,3965,,,48,360,,Active,,,https://www.redfin.com/IL/North-Naperville/Naperville/The-Cameron-II/home/196068066,Zillow,0D8C4E1CEB95,N,Y,41.7690459,-88.1510771
New Construction Plan,,Single Family Residential,The Laguna II Plan,Naperville,IL,60540,1175900,3,2.5,Naperville,2730,,,48,431,,Active,,,https://www.redfin.com/IL/Naperville/Naperville/The-Laguna-II/home/188378418,Zillow,7F073D7CB7C4,N,Y,41.7690496,-88.1510377
New Construction Plan,,Single Family Residential,The Bailey I Plan,Naperville,IL,60540,1306900,3,2.5,Naperville,2916,,,48,448,,Active,,,https://www.redfin.com/IL/Qt72yz-North-Naperville/Naperville/The-Bailey-I/home/196068064,Zillow,D1AC31951BCE,N,Y,41.7690459,-88.1510771
New Construction Plan,,Single Family Residential,The Arhaus I Plan,Naperville,IL,60540,1288900,5,4.5,Naperville,3006,,,48,429,,Active,,,https://www.redfin.com/IL/G3wlan-North-Naperville/Naperville/The-Arhaus-I/home/196068009,Zillow,6D1DEA5F659A,N,Y,41.7690459,-88.1510771
New Construction Plan,,Single Family Residential,The Abbey Plan,Naperville,IL,60540,1224900,4,2.5,Naperville,2959,,,48,414,,Active,,,https://www.redfin.com/IL/Naperville/Naperville/The-Abbey/home/188405151,Zillow,742B57070E88,N,Y,41.7690496,-88.1510377
New Construction Plan,,Single Family Residential,The Logan III Plan,Naperville,IL,60540,1304900,5,4.0,Naperville,3514,,,48,371,,Active,,,https://www.redfin.com/IL/North-Naperville/Naperville/The-Logan-III/home/196068094,Zillow,63A1630D01A4,N,Y,41.7690459,-88.1510771
New Construction Plan,,Single Family Residential,The Brentwood Plan,Naperville,IL,60540,1562900,4,4.5,Naperville,4057,,,48,385,,Active,,,https://www.redfin.com/IL/Naperville/Naperville/The-Brentwood/home/188386383,Zillow,E8755CB9E39B,N,Y,41.7690496,-88.1510377
New Construction Plan,,Single Family Residential,The Amelia II Plan,Naperville,IL,60540,1266900,5,3.5,Naperville,3295,,,48,384,,Active,,,https://www.redfin.com/IL/North-Naperville/Naperville/The-Amelia-II/home/196067976,Zillow,DE464061378F,N,Y,41.7690459,-88.1510771
New Construction Plan,,Single Family Residential,The Camden I Plan,Naperville,IL,60540,1212900,3,2.5,Naperville,2850,,,48,426,,Active,,,https://www.redfin.com/IL/North-Naperville/Naperville/The-Camden-I/home/196067970,Zillow,93CC47D10A1B,N,Y,41.7690459,-88.1510771
New Construction Plan,,Single Family Residential,The Auburn Plan,Naperville,IL,60540,1305900,3,3.5,Naperville,3341,,,48,391,,Active,,,https://www.redfin.com/IL/Cxm0g3-North-Naperville/Naperville/The-Auburn/home/196067953,Zillow,19C0A3F48248,N,Y,41.7690459,-88.1510771
New Construction Plan,,Single Family Residential,The Arhaus II Plan,Naperville,IL,60540,1437900,5,4.5,Naperville,3485,,,48,413,,Active,,,https://www.redfin.com/IL/North-Naperville/Naperville/The-Arhaus-II/home/196068103,Zillow,F64D8FBA0BCA,N,Y,41.7690459,-88.1510771
New Construction Plan,,Single Family Residential,The Austin Plan,Naperville,IL,60540,1353900,4,4.5,Naperville,3081,,,48,439,,Active,,,https://www.redfin.com/IL/Ud2xuk-North-Naperville/Naperville/The-Austin/home/196068121,Zillow,005E42752B87,N,Y,41.7690459,-88.1510771
New Construction Plan,,Single Family Residential,The Danielle Plan,Naperville,IL,60540,1194900,4,2.5,Naperville,2693,,,48,444,,Active,,,https://www.redfin.com/IL/North-Naperville/Naperville/The-Danielle/home/196067991,Zillow,AC67836F04FE,N,Y,41.7690459,-88.1510771
New Construction Plan,,Single Family Residential,The Bolton Plan,Naperville,IL,60540,1206900,3,2.5,Naperville,2500,,,48,483,,Active,,,https://www.redfin.com/IL/4k8knw-North-Naperville/Naperville/The-Bolton/home/196068046,Zillow,E1C8C832FA7C,N,Y,41.7690459,-88.1510771
New Construction Plan,,Single Family Residential,The Charlotte Plan,Naperville,IL,60540,1176900,3,3.5,Naperville,2592,,,48,454,,Active,,,https://www.redfin.com/IL/Hdm1g4-North-Naperville/Naperville/The-Charlotte/home/196068012,Zillow,EE8C86F089FC,N,Y,41.7690459,-88.1510771
New Construction Plan,,Single Family Residential,The Evelyn II Plan,Naperville,IL,60540,1287900,3,2.5,Naperville,2834,,,48,454,,Active,,,https://www.redfin.com/IL/North-Naperville/Naperville/The-Evelyn-II/home/196068108,Zillow,9BA96B4DF69D,N,Y,41.7690459,-88.1510771
New Construction Plan,,Single Family Residential,The Bayfield Plan,Naperville,IL,60540,1169900,4,2.5,Naperville,2770,,,48,422,,Active,,,https://www.redfin.com/IL/Bbfftt-North-Naperville/Naperville/The-Bayfield/home/196068058,Zillow,39437C83DC20,N,Y,41.7690459,-88.1510771
New Construction Plan,,Single Family Residential,The Jonathan II Plan,Naperville,IL,60540,1345900,4,4.5,Naperville,3709,,,48,363,,Active,,,https://www.redfin.com/IL/2f2mxe-North-Naperville/Naperville/The-Jonathan-II/home/196068026,Zillow,179ACFC91329,N,Y,41.7690459,-88.1510771
New Construction Plan,,Single Family Residential,The Jonathan I Plan,Naperville,IL,60540,1269900,4,3.5,Naperville,3307,,,48,384,,Active,,,https://www.redfin.com/IL/4i5yuy-North-Naperville/Naperville/The-Jonathan-I/home/196068082,Zillow,E1685FEF16DE,N,Y,41.7690459,-88.1510771
New Construction Plan,,Single Family Residential,The Logan II Plan,Naperville,IL,60540,1231900,4,3.5,Naperville,3031,,,48,406,,Active,,,https://www.redfin.com/IL/Gbyiht-North-Naperville/Naperville/The-Logan-II/home/196067964,Zillow,06C8A87750D0,N,Y,41.7690459,-88.1510771
