SALE TYPE,SOLD DATE,PROPERTY TYPE,ADDRESS,CITY,STATE OR PROVINCE,ZIP OR POSTAL CODE,PRICE,BEDS,BATHS,LOCATION,SQUARE FEET,LOT SIZE,YEAR BUILT,DAYS ON MARKET,$/SQUARE FEET,HOA/MONTH,STATUS,NEXT OPEN HOUSE START TIME,NEXT OPEN HOUSE END TIME,URL (SEE https://www.redfin.com/buy-a-home/comparative-market-analysis FOR INFO ON PRICING),SOURCE,MLS#,FAVORITE,INTERESTED,LATITUDE,LONGITUDE
"In accordance with local MLS rules, some MLS listings are not included in the download"
MLS Listing,,Single Family Residential,7756 Via Del Sogno-92,Fort Wayne,IN,46818,375000,3,2.5,Bel Sogno,2042,16553,2008,1,184,3,Active,,,https://www.redfin.com/IN/Fort-Wayne/7756-Via-del-Sogno-92-46818/home/142348409,IRMLS,202530285,N,Y,41.0802897,-85.3413159
MLS Listing,,Single Family Residential,1622 Briar Fence Ln,Fort Wayne,IN,46814,234000,3,2.0,Breconshire,1335,13068,1987,1,175,,Active,,,https://www.redfin.com/IN/Fort-Wayne/1622-Briar-Fence-Ln-46804/home/116271910,IRMLS,202530273,N,Y,41.0700833,-85.2150908
MLS Listing,,Single Family Residential,6027 Midwood Dr,Fort Wayne,IN,46835,259900,4,2.0,Bohde Grove,2364,21780,1963,1,110,2,Active,,,https://www.redfin.com/IN/Fort-Wayne/6027-Midwood-Dr-46835/home/116157973,IRMLS,202530272,N,Y,41.1263703,-85.0649691
MLS Listing,,Single Family Residential,1215 Sheridan Ct,Fort Wayne,IN,46807,275000,4,2.5,Park View Terrace,2110,5227,1940,1,130,,Active,August-2-2025 01:00 PM,August-2-2025 03:00 PM,https://www.redfin.com/IN/Fort-Wayne/1215-Sheridan-Ct-46807/home/115311825,IRMLS,202530269,N,Y,41.0478032,-85.1542562
MLS Listing,,Single Family Residential,6603 Sunland Dr,Fort Wayne,IN,46815,219900,4,1.5,Maplewood Park,1280,13504,1960,1,172,,Active,,,https://www.redfin.com/IN/Fort-Wayne/6603-Sunland-Dr-46815/home/115716194,IRMLS,202530263,N,Y,41.1145859,-85.057265
MLS Listing,,Single Family Residential,6616 Arnel Ave,Fort Wayne,IN,46835,224900,3,2.0,Golden Acres,1360,21344,1959,1,165,,Active,,,https://www.redfin.com/IN/Fort-Wayne/6616-Arnel-Ave-46835/home/115695790,IRMLS,202530260,N,Y,41.1281265,-85.0577182
MLS Listing,,Condo/Co-op,1618 Autumn Run,Fort Wayne,IN,46845,1050000,3,3.5,Autumn Run,5468,18731,2009,1,192,247,Active,,,https://www.redfin.com/IN/Fort-Wayne/1618-Autumn-Run-46845/home/115393221,IRMLS,202530243,N,Y,41.1904274,-85.1216084
MLS Listing,,Single Family Residential,6506 Oak Forest Trl,Fort Wayne,IN,46835,324900,4,2.5,Jonathon Oaks,2506,14810,1991,1,130,16,Active,,,https://www.redfin.com/IN/Fort-Wayne/6506-Oak-Forest-Trl-46835/home/116624047,IRMLS,202529794,N,Y,41.1367663,-85.0593623
MLS Listing,,Single Family Residential,3929 Wawonaissa Trl,Fort Wayne,IN,46809,218900,3,1.0,Indian Village,1562,14810,1950,1,140,,Active,August-2-2025 01:00 PM,August-2-2025 03:00 PM,https://www.redfin.com/IN/Fort-Wayne/3929-Wawonaissa-Trl-46809/home/115784640,IRMLS,202530059,N,Y,41.0475362,-85.1712942
MLS Listing,,Single Family Residential,1819 Clifty Pkwy,Fort Wayne,IN,46808,289000,3,2.5,Hickory Pointe,1820,10454,2006,1,159,20,Active,,,https://www.redfin.com/IN/Fort-Wayne/1819-Clifty-Pkwy-46808/home/116346348,IRMLS,202529375,N,Y,41.0909303,-85.2144053
MLS Listing,,Single Family Residential,2521 Dodge Ave,Fort Wayne,IN,46805,247500,3,2.0,Grasmere Heights,1628,9583,1926,1,152,,Active,,,https://www.redfin.com/IN/Fort-Wayne/2521-Dodge-Ave-46805/home/115328986,IRMLS,202529812,N,Y,41.0992172,-85.1063514
MLS Listing,,Single Family Residential,2910 Water Wheel Run,Fort Wayne,IN,46818,319900,4,2.5,Seven Oaks,2244,8276,2004,1,143,14,Active,,,https://www.redfin.com/IN/Fort-Wayne/2910-Water-Wheel-Run-46818/home/116182143,IRMLS,202529924,N,Y,41.1859808,-85.1828511
MLS Listing,,Single Family Residential,7201 Allenbrook Blvd,Fort Wayne,IN,46835,359900,4,2.5,Valencia,2122,11064,2011,1,170,28,Active,,,https://www.redfin.com/IN/Fort-Wayne/7201-Allenbrook-Blvd-46835/home/116093070,IRMLS,202529850,N,Y,41.1475789,-85.0507067
MLS Listing,,Single Family Residential,2517 Loganberry Cv,Fort Wayne,IN,46818,338900,3,2.5,Laurel Ridge,2128,9583,1999,1,159,13,Active,,,https://www.redfin.com/IN/Fort-Wayne/2517-Loganberry-Cv-46818/home/115606595,IRMLS,202530225,N,Y,41.1879156,-85.1778778
MLS Listing,,Single Family Residential,2605 Florida Dr,Fort Wayne,IN,46805,259000,3,1.5,Driving Park,1332,4356,1940,1,194,,Active,,,https://www.redfin.com/IN/Fort-Wayne/2605-Florida-Dr-46805/home/114882237,IRMLS,202530223,N,Y,41.0998811,-85.1200293
MLS Listing,,Vacant Land,4796 Whittlebury Dr,Fort Wayne,IN,46818,82900,,,Silverstone,,9148,,1,,38,Active,,,https://www.redfin.com/IN/Fort-Wayne/4796-Whittlebury-Dr-46818/home/196762747,IRMLS,202530215,N,Y,41.200536,-85.205386
MLS Listing,,Single Family Residential,5724 Thornbriar Ln,Fort Wayne,IN,46835,179900,1,1.5,Springfield Glen,1115,,1999,1,161,89,Active,,,https://www.redfin.com/IN/Fort-Wayne/5724-Thornbriar-Ln-46835/home/115230945,IRMLS,202530212,N,Y,41.1336325,-85.0493356
MLS Listing,,Single Family Residential,5675 Tranquilo Way,Fort Wayne,IN,46818,313720,4,2.0,Grasslands at Broad Acres,1771,11282,2025,1,177,46,Active,,,https://www.redfin.com/IN/Fort-Wayne/5675-Tranquilo-Way-46818/home/196673750,IRMLS,202530203,N,Y,41.194518,-85.215467
MLS Listing,,Single Family Residential,12827 Watts Dr,Fort Wayne,IN,46818,319900,4,2.0,Farmstead at Carroll Creek,1771,8451,2025,1,181,38,Active,,,https://www.redfin.com/IN/Fort-Wayne/12827-Watts-Dr-46818/home/196019960,IRMLS,202530198,N,Y,41.200305,-85.202181
MLS Listing,,Single Family Residential,6509 Redbud Dr,Fort Wayne,IN,46825,195000,4,1.0,Crest Wood Colony / Crestwood Co,1305,8276,1962,1,149,,Active,,,https://www.redfin.com/IN/Fort-Wayne/6509-Redbud-Dr-46825/home/114893246,IRMLS,202530197,N,Y,41.1394051,-85.1216754
MLS Listing,,Single Family Residential,12819 Watts Dr,Fort Wayne,IN,46818,349900,5,3.0,Farmstead at Carroll Creek,2600,8581,2025,1,135,32,Active,,,https://www.redfin.com/IN/Fort-Wayne/12819-Watts-Dr-46818/home/195979941,IRMLS,202530196,N,Y,41.200302,-85.202411
MLS Listing,,Single Family Residential,642 Barnsley Cv,Fort Wayne,IN,46845,349900,4,2.5,Fox Hollow,1998,8712,2017,1,175,27,Active,August-4-2025 04:00 PM,August-4-2025 06:00 PM,https://www.redfin.com/IN/Fort-Wayne/642-Barnsley-Cv-46845/home/142626763,IRMLS,202530187,N,Y,41.2119746,-85.1347239
MLS Listing,,Single Family Residential,4421 Sanford Ln,Fort Wayne,IN,46816,225000,3,2.0,Crown Colony,1360,10454,1973,1,165,,Active,,,https://www.redfin.com/IN/Fort-Wayne/4421-Sanford-Ln-46816/home/116507423,IRMLS,202530185,N,Y,41.019758,-85.0808391
MLS Listing,,Vacant Land,1630 Kelly Dr,Fort Wayne,IN,46808,9400,,,Huffman(s),,3049,,1,,,Active,,,https://www.redfin.com/IN/Fort-Wayne/1630-Kelly-Dr-46808/home/116656033,IRMLS,202530181,N,Y,41.0897172,-85.149222
MLS Listing,,Single Family Residential,6427 Londonderry Ln,Fort Wayne,IN,46835,349900,5,3.5,Hillsboro,2402,10454,1978,1,146,13,Active,,,https://www.redfin.com/IN/Fort-Wayne/6427-Londonderry-Ln-46835/home/115532118,IRMLS,202530175,N,Y,41.1429905,-85.0603805
MLS Listing,,Single Family Residential,12325 Lanai Dr,Fort Wayne,IN,46818,319900,4,2.5,Lakes of Carroll Creek,2009,8276,2009,1,159,24,Active,,,https://www.redfin.com/IN/Fort-Wayne/12325-Lanai-Dr-46818/home/114794351,IRMLS,202530158,N,Y,41.1963234,-85.1829516
MLS Listing,,Single Family Residential,335 Marcelle Dr,Fort Wayne,IN,46845,269900,4,2.0,Mardego Hills,1824,23958,1965,1,148,,Active,,,https://www.redfin.com/IN/Fort-Wayne/335-Marcelle-Dr-46845/home/115284436,IRMLS,202530153,N,Y,41.1848016,-85.1362142
MLS Listing,,Single Family Residential,4816 Hessen Cassel Rd,Fort Wayne,IN,46806,225000,4,2.0,Anthony Wayne Village,1500,11326,1960,1,150,,Active,,,https://www.redfin.com/IN/Fort-Wayne/4816-Hessen-Cassel-Rd-46806/home/116111533,IRMLS,202530148,N,Y,41.0398311,-85.0967659
MLS Listing,,Single Family Residential,1227 W Berry St,Fort Wayne,IN,46802,439900,3,3.0,West Central,2200,3920,1920,1,200,,Active,,,https://www.redfin.com/IN/Fort-Wayne/1227-W-Berry-St-46802/home/143837073,IRMLS,202530145,N,Y,41.0766147,-85.1553594
MLS Listing,,Single Family Residential,1132 Fox Orchard Run,Fort Wayne,IN,46825,260000,3,2.0,Millstone Village,1329,10890,1991,1,196,13,Active,,,https://www.redfin.com/IN/Fort-Wayne/1132-Fox-Orchard-Run-46825/home/115053315,IRMLS,202530139,N,Y,41.1577835,-85.156874
MLS Listing,,Single Family Residential,904 Pelham Dr,Fort Wayne,IN,46825,349000,3,2.0,Rodenbeck(s),2164,24829,1959,1,161,,Active,,,https://www.redfin.com/IN/Fort-Wayne/904-Pelham-Dr-46825/home/115057364,IRMLS,202530128,N,Y,41.13556,-85.1514947
MLS Listing,,Single Family Residential,445 E Wildwood Ave,Fort Wayne,IN,46806,115000,3,1.0,Bernard Hiblers,1352,3049,1920,1,85,,Active,,,https://www.redfin.com/IN/Fort-Wayne/445-E-Wildwood-Ave-46806/home/116190358,IRMLS,202530103,N,Y,41.0573213,-85.1313256
MLS Listing,,Single Family Residential,914 Kinnaird Ave,Fort Wayne,IN,46807,243000,3,1.5,Zollars Park,1613,5227,1890,1,151,,Active,,,https://www.redfin.com/IN/Fort-Wayne/914-Kinnaird-Ave-46807/home/115183090,IRMLS,202530097,N,Y,41.0562148,-85.1502519
MLS Listing,,Vacant Land,12408 Blue Jay Trl,Fort Wayne,IN,46814,154900,,,Mercato,,13939,,1,,,Active,,,https://www.redfin.com/IN/Fort-Wayne/12408-Blue-Jay-Trl-46814/home/196751192,IRMLS,202530087,N,Y,41.067604,-85.3038909
MLS Listing,,Single Family Residential,4046 Shadowood Lakes Trl,Fort Wayne,IN,46818,324900,4,2.5,Shadowood Lakes,1767,8886,2025,1,184,42,Active,,,https://www.redfin.com/IN/Fort-Wayne/4046-Shadowood-Lakes-Trl-46818/home/196750737,IRMLS,202530076,N,Y,41.1570506,-85.1957758
MLS Listing,,Single Family Residential,4224 Live Oak Blvd,Fort Wayne,IN,46804,,4,2.5,Plantation of Aboite,1888,20038,1984,1,,,Active,,,https://www.redfin.com/IN/Fort-Wayne/4224-Live-Oak-Blvd-46804/home/115434428,IRMLS,202530070,N,Y,41.0442269,-85.274435
MLS Listing,,Single Family Residential,921 Thieme Dr,Fort Wayne,IN,46802,259900,3,1.0,West Central,1400,2614,1920,1,186,,Active,,,https://www.redfin.com/IN/Fort-Wayne/921-Thieme-Dr-46802/home/115512531,IRMLS,202530055,N,Y,41.0748964,-85.1571615
MLS Listing,,Single Family Residential,14198 Escondida Cv,Fort Wayne,IN,46845,359900,3,2.0,Grand Pointe at Copper Creek,1764,13286,2025,1,204,46,Active,,,https://www.redfin.com/IN/Fort-Wayne/14198-Escondida-Cv-46845/home/185684432,IRMLS,202530053,N,Y,41.2133374,-85.166441
MLS Listing,,Single Family Residential,3111 Thompson Ave,Fort Wayne,IN,46807,150000,3,1.5,Broadway Park,1652,13068,1915,1,91,,Active,,,https://www.redfin.com/IN/Fort-Wayne/3111-Thompson-Ave-46807/home/116081731,IRMLS,202530050,N,Y,41.0570156,-85.1561506
MLS Listing,,Single Family Residential,9619 Creek Bed Pl,Fort Wayne,IN,46804,236300,4,2.0,Haverhill,1776,9148,1974,1,133,15,Active,,,https://www.redfin.com/IN/Fort-Wayne/9619-Creek-Bed-Pl-46804/home/114870182,IRMLS,202530040,N,Y,41.0435452,-85.268706
MLS Listing,,Single Family Residential,2629 Dodge Ave,Fort Wayne,IN,46805,109900,2,1.0,Grasmere Heights,1146,4792,1949,1,96,,Active,,,https://www.redfin.com/IN/Fort-Wayne/2629-Dodge-Ave-46805/home/116124171,IRMLS,202530028,N,Y,41.0993312,-85.1049596
MLS Listing,,Vacant Land,4731 Evard Rd,Fort Wayne,IN,46835,350000,,,Fort Wayne,,542453,,1,,,Active,,,https://www.redfin.com/IN/Fort-Wayne/4731-Evard-Rd-46835/home/116543942,IRMLS,202530022,N,Y,41.1428308,-85.0801702
MLS Listing,,Single Family Residential,5200 N Washington Rd,Fort Wayne,IN,46804,515000,4,2.0,Fort Wayne,2628,43996,1960,1,196,,Active,,,https://www.redfin.com/IN/Fort-Wayne/5200-N-Washington-Rd-46804/home/115009880,IRMLS,202530020,N,Y,41.0604884,-85.2053383
MLS Listing,,Single Family Residential,4128 Wedgewood Dr,Fort Wayne,IN,46815,234900,3,2.5,Maplewood Park,1809,13983,1961,1,130,,Active,,,https://www.redfin.com/IN/Fort-Wayne/4128-Wedgewood-Dr-46815/home/116199788,IRMLS,202530015,N,Y,41.1172717,-85.0571935
MLS Listing,,Single Family Residential,2247 Mercato Bay,Fort Wayne,IN,46814,775000,4,3.0,Mercato,2810,13504,2022,1,276,42,Active,,,https://www.redfin.com/IN/Fort-Wayne/2247-Mercato-Bay-46814/home/175210381,IRMLS,202530013,N,Y,41.0638221,-85.3088612
MLS Listing,,Single Family Residential,11028 Oak Briar Ct,Fort Wayne,IN,46845,399000,4,2.5,The Oaks,2116,19166,1995,1,189,,Active,,,https://www.redfin.com/IN/Fort-Wayne/11028-Oakbriar-Ct-46845/home/114534050,IRMLS,202530007,N,Y,41.1855356,-85.0819739
MLS Listing,,Single Family Residential,12594 Gondola Pkwy,Fort Wayne,IN,46845,475000,4,3.5,Tuscany,3526,9148,2014,1,135,35,Active,,,https://www.redfin.com/IN/Fort-Wayne/12594-Gondola-Pkwy-46845/home/115006310,IRMLS,202529835,N,Y,41.1990253,-85.1466218
MLS Listing,,Vacant Land,5059 Whittlebury Dr,Fort Wayne,IN,46818,69900,,,Silverstone,,8712,,2,,38,Active,,,https://www.redfin.com/IN/Fort-Wayne/5059-Whittlebury-Dr-46818/home/196725473,IRMLS,202529999,N,Y,41.201326,-85.20898
MLS Listing,,Condo/Co-op,2025 Blue Sage Cove Cv,Fort Wayne,IN,46808,199900,2,2.0,Coves of Morgan Creek,1110,8276,2003,2,180,,Active,,,https://www.redfin.com/IN/Fort-Wayne/2025-Blue-Sage-Cv-46808/home/114707736,IRMLS,202529987,N,Y,41.0929153,-85.2024921
MLS Listing,,Single Family Residential,4429 Pembroke Ln,Fort Wayne,IN,46807,248965,2,1.0,South Wood / Southwood,1030,4356,1926,2,242,,Active,,,https://www.redfin.com/IN/Fort-Wayne/4429-Pembroke-Ln-46807/home/116506612,IRMLS,202529964,N,Y,41.0435851,-85.1506506
MLS Listing,,Single Family Residential,5719 Homewood Dr,Fort Wayne,IN,46825,199000,2,1.5,Fort Wayne,1705,40075,1954,2,117,,Active,,,https://www.redfin.com/IN/Fort-Wayne/5719-Homewood-Dr-46825/home/114994875,IRMLS,202529959,N,Y,41.1313291,-85.1445321
MLS Listing,,Vacant Land,7707 Haven Blvd,Fort Wayne,IN,46804,97900,,,The Haven,,14375,,2,,41,Active,,,https://www.redfin.com/IN/Fort-Wayne/7707-Haven-Blvd-46804/home/185690681,IRMLS,202529940,N,Y,41.08536,-85.241335
MLS Listing,,Vacant Land,7581 Haven Blvd,Fort Wayne,IN,46804,97900,,,The Haven,,18295,,2,,41,Active,,,https://www.redfin.com/IN/Fort-Wayne/7581-Haven-Blvd-46804/home/185690829,IRMLS,202529937,N,Y,41.0817123,-85.2418094
MLS Listing,,Vacant Land,7603 Haven Blvd,Fort Wayne,IN,46804,97900,,,The Haven,,13504,,2,,41,Active,,,https://www.redfin.com/IN/Fort-Wayne/7603-Haven-Blvd-46804/home/185690688,IRMLS,202529938,N,Y,41.08536,-85.241335
MLS Listing,,Vacant Land,7665 Haven Blvd,Fort Wayne,IN,46804,97900,,,The Haven,,9583,,2,,41,Active,,,https://www.redfin.com/IN/Fort-Wayne/7665-Haven-Blvd-46804/home/185690682,IRMLS,202529939,N,Y,41.08536,-85.241335
MLS Listing,,Vacant Land,7440 Haven Blvd,Fort Wayne,IN,46804,79900,,,The Haven,,39640,,2,,41,Active,,,https://www.redfin.com/IN/Fort-Wayne/7440-Haven-Blvd-46804/home/185690697,IRMLS,202529935,N,Y,41.08536,-85.241335
MLS Listing,,Single Family Residential,407 W Lexington Ave,Fort Wayne,IN,46807,109900,2,1.0,Harrison Hill,706,2178,1925,2,156,,Active,,,https://www.redfin.com/IN/Fort-Wayne/407-Lexington-Ave-46807/home/115781777,IRMLS,202529927,N,Y,41.0462761,-85.1424974
MLS Listing,,Single Family Residential,6219 Birchdale Dr,Fort Wayne,IN,46815,225000,3,2.0,Maplewood Gardens,2064,10890,1965,2,109,7,Active,,,https://www.redfin.com/IN/Fort-Wayne/6219-Birchdale-Dr-46815/home/116216460,IRMLS,202529926,N,Y,41.1187917,-85.0620339
MLS Listing,,Vacant Land,2275 Banyan Hill Ct,Fort Wayne,IN,46814,129900,,,Mercato,,13068,,2,,44,Active,,,https://www.redfin.com/IN/Fort-Wayne/2275-Banyan-Hill-Ct-46814/home/185691288,IRMLS,202529920,N,Y,41.063927,-85.302738
MLS Listing,,Vacant Land,2241 Banyan Hill Ct,Fort Wayne,IN,46814,129900,,,Mercato,,13504,,2,,44,Active,,,https://www.redfin.com/IN/Fort-Wayne/2241-Banyan-Hill-Ct-46814/home/185691289,IRMLS,202529887,N,Y,41.0641387,-85.3029872
MLS Listing,,Single Family Residential,2317 Weather Wood Pl,Fort Wayne,IN,46818,339900,4,2.5,Rapids of Keefer Creek,1822,10019,1998,2,187,12,Active,August-3-2025 02:00 PM,August-3-2025 04:00 PM,https://www.redfin.com/IN/Fort-Wayne/2317-Weather-Wood-Pl-46818/home/115259644,IRMLS,202529877,N,Y,41.1825099,-85.174391
MLS Listing,,Single Family Residential,9102 Almond Tree Ct,Fort Wayne,IN,46804,354700,4,2.5,Shorewood,2617,10890,1991,2,136,14,Active,,,https://www.redfin.com/IN/Fort-Wayne/9102-Almond-Tree-Ct-46804/home/115188395,IRMLS,202529866,N,Y,41.07662,-85.2609007
MLS Listing,,Single Family Residential,7717 Frontier Ave,Fort Wayne,IN,46835,199900,3,2.0,Arlington Heights,1216,9583,1998,2,164,10,Active,,,https://www.redfin.com/IN/Fort-Wayne/7717-Frontier-Ave-46835/home/114523009,IRMLS,202529861,N,Y,41.1323221,-85.0431644
MLS Listing,,Single Family Residential,2039 Medford Dr,Fort Wayne,IN,46803,179900,4,2.0,Sunnymede,1584,8712,1947,2,114,,Active,,,https://www.redfin.com/IN/Fort-Wayne/2039-Medford-Dr-46803/home/114558531,IRMLS,202529848,N,Y,41.0670228,-85.0671684
MLS Listing,,Single Family Residential,1819 Hollow Creek Ct,Fort Wayne,IN,46814,599990,5,4.0,Westchester Glens,4475,13939,1991,2,134,400,Active,,,https://www.redfin.com/IN/Fort-Wayne/1819-Hollow-Creek-Ct-46814/home/116004990,IRMLS,202529847,N,Y,41.0676841,-85.2768876
MLS Listing,,Single Family Residential,3905 Nantucket Dr,Fort Wayne,IN,46815,348900,4,2.5,Windswept,3472,9583,1986,2,100,12,Active,August-3-2025 12:00 PM,August-3-2025 02:00 PM,https://www.redfin.com/IN/Fort-Wayne/3905-Nantucket-Dr-46815/home/114782239,IRMLS,202529821,N,Y,41.1152364,-85.0426664
MLS Listing,,Single Family Residential,10914 Spring Oak Rd,Fort Wayne,IN,46845,269000,4,2.5,Oak Grove / Oakgrove,2294,12197,1980,2,117,,Active,August-3-2025 03:30 PM,August-3-2025 05:00 PM,https://www.redfin.com/IN/Fort-Wayne/10914-Spring-Oak-Rd-46845/home/116660552,IRMLS,202529815,N,Y,41.1851937,-85.0705904
MLS Listing,,Vacant Land,5298 Broad Fields Cv,Fort Wayne,IN,46818,67900,,,The Ranch at Broad Acres,,9583,,3,,46,Active,,,https://www.redfin.com/IN/Fort-Wayne/5298-Broad-Fields-CV-46818/home/191954938,IRMLS,202529807,N,Y,41.20526,-85.212777
MLS Listing,,Vacant Land,6464 West Hamilton Rd S,Fort Wayne,IN,46814,449900,,,Fort Wayne,,238447,,3,,,Active,,,https://www.redfin.com/IN/Fort-Wayne/6464-W-Hamilton-Rd-S-46814/home/175211063,IRMLS,202529805,N,Y,41.0235951,-85.3131998
MLS Listing,,Single Family Residential,815 3rd St,Fort Wayne,IN,46808,81900,3,1.0,Sweetzer(s),1170,6970,1900,3,70,,Active,,,https://www.redfin.com/IN/Fort-Wayne/815-3rd-St-46808/home/114500733,IRMLS,202529800,N,Y,41.0865549,-85.1528243
MLS Listing,,Single Family Residential,805 Edgewater Ave,Fort Wayne,IN,46805,170000,4,2.0,Lakeside Park,2144,6534,1920,3,79,,Active,,,https://www.redfin.com/IN/Fort-Wayne/805-Edgewater-Ave-46805/home/115094120,IRMLS,202529777,N,Y,41.0821846,-85.1294399
MLS Listing,,Single Family Residential,2808 Shady Hollow Pl,Fort Wayne,IN,46818,270000,3,2.0,Seven Oaks,1323,13939,1998,3,204,15,Active,,,https://www.redfin.com/IN/Fort-Wayne/2808-Shady-Hollow-Pl-46818/home/115922571,IRMLS,202529776,N,Y,41.1781504,-85.1810041
MLS Listing,,Condo/Co-op,8289 Caverango Blvd,Fort Wayne,IN,46815,469900,3,2.0,Paso Fino,1945,13600,2025,3,242,38,Active,August-2-2025 01:00 PM,August-2-2025 03:00 PM,https://www.redfin.com/IN/Fort-Wayne/8289-Caverango-Blvd-46815/home/196685929,IRMLS,202529769,N,Y,41.091912,-85.033609
MLS Listing,,Single Family Residential,4615 S Calhoun St,Fort Wayne,IN,46807,209000,3,1.5,Lafayette Place,1544,4792,1955,3,135,,Active,,,https://www.redfin.com/IN/Fort-Wayne/4615-S-Calhoun-St-46807/home/116202519,IRMLS,202529763,N,Y,41.041761,-85.136666
MLS Listing,,Single Family Residential,891 Lagonda Trl,Fort Wayne,IN,46818,374900,3,2.0,Bentley Estates,1536,11761,2024,3,244,41,Active,,,https://www.redfin.com/IN/Fort-Wayne/891-Lagonda-Trl-46818/home/191586271,IRMLS,202529754,N,Y,41.085459,-85.330498
MLS Listing,,Single Family Residential,6615 Cherry Hill Pkwy,Fort Wayne,IN,46835,517900,4,3.5,Cherry Hill(s),4146,13939,1998,3,125,78,Active,,,https://www.redfin.com/IN/Fort-Wayne/6615-Cherry-Hill-Pkwy-46835/home/116598200,IRMLS,202529738,N,Y,41.142741,-85.0332742
MLS Listing,,Single Family Residential,455 Calabria Way,Fort Wayne,IN,46814,369900,4,2.5,Verona Lakes,2125,9365,2025,3,174,38,Active,,,https://www.redfin.com/IN/Fort-Wayne/455-Calabria-Way-46814/home/196684811,IRMLS,202529737,N,Y,41.082272,-85.330985
MLS Listing,,Vacant Land,7746 Tumnus Trl,Fort Wayne,IN,46835,65900,,,Lakes at Woodfield,,8276,,3,,41,Active,,,https://www.redfin.com/IN/Fort-Wayne/7746-Tumnus-Trl-46835/home/185688670,IRMLS,202529731,N,Y,41.153713,-85.0081019
MLS Listing,,Single Family Residential,11939 Turtle Creek Ct,Fort Wayne,IN,46818,456900,4,2.5,Bluffs of Carroll Creek,2236,8276,2025,3,204,33,Active,,,https://www.redfin.com/IN/Fort-Wayne/11939-Turtle-Creek-Ct-46818/home/181856717,IRMLS,202529732,N,Y,41.1932868,-85.1852418
MLS Listing,,Single Family Residential,3722 S Harrison St,Fort Wayne,IN,46807,127500,3,1.5,Dreibelbiss,1328,5227,1925,3,96,,Active,,,https://www.redfin.com/IN/Fort-Wayne/3722-S-Harrison-St-46807/home/116675293,IRMLS,202529726,N,Y,41.0512163,-85.1390483
MLS Listing,,Single Family Residential,6911 Creekwood Trl,Fort Wayne,IN,46835,230000,2,2.0,Creekwood Villas,1274,6534,2003,3,181,18,Active,,,https://www.redfin.com/IN/Fort-Wayne/6911-Creekwood-Trl-46835/home/115213574,IRMLS,202529700,N,Y,41.1337095,-85.0528357
MLS Listing,,Vacant Land,12835 S Lonoke Dr,Fort Wayne,IN,46818,45000,,,Fort Wayne,,10019,,3,,,Active,,,https://www.redfin.com/IN/Fort-Wayne/12835-S-Lonoke-Dr-46818/home/114861412,IRMLS,202529665,N,Y,41.1570486,-85.3106172
MLS Listing,,Condo/Co-op,6819 Creekwood Trl,Fort Wayne,IN,46835,275000,3,2.0,Creekwood Villas,1552,7405,2004,3,177,20,Active,,,https://www.redfin.com/IN/Fort-Wayne/6819-Creekwood-Trl-46835/home/115974788,IRMLS,202529659,N,Y,41.1348333,-85.054268
MLS Listing,,Single Family Residential,12693 Pentolina Cv,Fort Wayne,IN,46845,525000,4,3.5,Tuscany,3708,12523,2013,3,142,35,Active,,,https://www.redfin.com/IN/Fort-Wayne/12693-Pentolina-Cv-46845/home/115038916,IRMLS,202529646,N,Y,41.1993336,-85.1449065
MLS Listing,,Single Family Residential,8811 Nicole Dr,Fort Wayne,IN,46806,355000,3,2.5,Fort Wayne,3290,52708,1974,4,108,,Active,,,https://www.redfin.com/IN/Fort-Wayne/8811-Nicole-Dr-46806/home/116248729,IRMLS,202529628,N,Y,41.0520632,-85.0256754
MLS Listing,,Single Family Residential,12527 Wandering Way,Fort Wayne,IN,46818,259900,3,2.5,Lakes of Carroll Creek,1588,6970,2005,4,164,24,Active,,,https://www.redfin.com/IN/Fort-Wayne/12527-Wandering-Way-46818/home/115604451,IRMLS,202525947,N,Y,41.1979612,-85.1899105
MLS Listing,,Single Family Residential,817 Wilt St,Fort Wayne,IN,46802,495000,3,3.0,Hanna(s),2304,4792,1866,4,215,,Active,,,https://www.redfin.com/IN/Fort-Wayne/817-Wilt-St-46802/home/116646858,IRMLS,202529609,N,Y,41.0734522,-85.1493703
MLS Listing,,Single Family Residential,5639 Tranquilo Way,Fort Wayne,IN,46818,323130,4,2.5,Grasslands at Broad Acres,2053,8276,2025,4,157,46,Active,,,https://www.redfin.com/IN/Fort-Wayne/5639-Tranquilo-Way-46818/home/196542993,IRMLS,202529567,N,Y,41.194424,-85.214854
MLS Listing,,Single Family Residential,12951 Solo Ln,Fort Wayne,IN,46818,349900,4,2.5,Sonora,2346,9670,2025,4,149,27,Active,,,https://www.redfin.com/IN/Fort-Wayne/12951-Solo-Ln-46818/home/191588908,IRMLS,202529548,N,Y,41.200842,-85.189552
MLS Listing,,Single Family Residential,2994 Skywalker Pass,Fort Wayne,IN,46818,359900,5,3.0,Sonora,2415,14505,2025,4,149,27,Active,,,https://www.redfin.com/IN/Fort-Wayne/2994-Skywalker-Pass-46818/home/196176654,IRMLS,202529541,N,Y,41.2012824,-85.1888289
MLS Listing,,Single Family Residential,7348 Linda Dr,Fort Wayne,IN,46835,209000,3,1.0,Green View / Greenview,1008,12001,1958,4,207,,Active,,,https://www.redfin.com/IN/Fort-Wayne/7348-Linda-Dr-46835/home/114535586,IRMLS,202529524,N,Y,41.1492243,-85.0750014
MLS Listing,,Condo/Co-op,8041 Harrisburg Ln,Fort Wayne,IN,46835,199900,2,2.0,Concord Place,1300,3280,1994,4,154,249,Active,,,https://www.redfin.com/IN/Fort-Wayne/8041-Harrisburg-Ln-46835/home/114612673,IRMLS,202529495,N,Y,41.1556514,-85.0640164
MLS Listing,,Single Family Residential,13325 Della Furba Ct,Fort Wayne,IN,46845,495000,5,3.5,Sorrento,3500,11761,2012,4,141,24,Active,August-3-2025 02:00 PM,August-3-2025 04:00 PM,https://www.redfin.com/IN/Fort-Wayne/13325-Della-Furba-Ct-46845/home/115080106,IRMLS,202529485,N,Y,41.2066579,-85.0835084
MLS Listing,,Single Family Residential,3233 Broadway St,Fort Wayne,IN,46807,145000,3,1.5,Vesey(s),1472,3049,1910,4,99,,Active,August-3-2025 02:00 PM,August-3-2025 04:00 PM,https://www.redfin.com/IN/Fort-Wayne/3233-Broadway-46807/home/115904170,IRMLS,202529482,N,Y,41.0552808,-85.1551953
MLS Listing,,Single Family Residential,4101 Darby Dr,Fort Wayne,IN,46815,259900,3,2.0,Oakhurst Park,1424,10454,1970,4,183,,Active,,,https://www.redfin.com/IN/Fort-Wayne/4101-Darby-Dr-46815/home/116290640,IRMLS,202529155,N,Y,41.1162739,-85.069219
MLS Listing,,Single Family Residential,3929 Plaza Dr,Fort Wayne,IN,46806,220000,3,2.0,South Walton Ave Acres,1700,13517,1955,5,129,,Active,,,https://www.redfin.com/IN/Fort-Wayne/3929-Plaza-Dr-46806/home/116002461,IRMLS,202529480,N,Y,41.0491384,-85.1088411
MLS Listing,,Single Family Residential,607 Riverside Ave,Fort Wayne,IN,46805,162900,3,1.0,L M Jones,1280,5663,1940,5,127,,Active,,,https://www.redfin.com/IN/Fort-Wayne/607-Riverside-Ave-46805/home/115110091,IRMLS,202529471,N,Y,41.0907001,-85.1331867
MLS Listing,,Single Family Residential,4408 Avondale Dr,Fort Wayne,IN,46806,130000,3,1.0,McKinnie Park Place,1050,6098,1950,5,124,,Active,,,https://www.redfin.com/IN/Fort-Wayne/4408-Avondale-Dr-46806/home/116125266,IRMLS,202529459,N,Y,41.0448319,-85.1313203
MLS Listing,,Single Family Residential,222 E Concord Ln,Fort Wayne,IN,46816,160000,3,1.0,Hill Crest / Hillcrest,1125,9622,1955,5,142,,Active,,,https://www.redfin.com/IN/Fort-Wayne/222-E-Concord-Ln-46816/home/115077201,IRMLS,202522818,N,Y,41.0256752,-85.1337718
MLS Listing,,Single Family Residential,6322 Allenwood Dr,Fort Wayne,IN,46835,210000,3,1.5,Centerhurst,1424,20038,1960,5,147,,Active,,,https://www.redfin.com/IN/Fort-Wayne/6322-Allenwood-Dr-46835/home/114790729,IRMLS,202526402,N,Y,41.1397172,-85.0676457
MLS Listing,,Single Family Residential,4430 Buell Dr,Fort Wayne,IN,46807,160000,3,1.0,Fairmont Place,1264,6098,1918,5,127,,Active,,,https://www.redfin.com/IN/Fort-Wayne/4430-Buell-Dr-46807/home/115755094,IRMLS,202529446,N,Y,41.043326,-85.1433343
MLS Listing,,Single Family Residential,3215 S Anthony Blvd,Fort Wayne,IN,46806,239900,3,1.5,Pontiac Place,1612,8712,1925,6,149,,Active,,,https://www.redfin.com/IN/Fort-Wayne/3215-S-Anthony-Blvd-46806/home/115378909,IRMLS,202529425,N,Y,41.0555174,-85.1134135
MLS Listing,,Condo/Co-op,6251 Sawmill Woods Dr,Fort Wayne,IN,46835,199900,3,2.0,Sawmill Woods,1378,,1986,6,145,207,Active,,,https://www.redfin.com/IN/Fort-Wayne/6251-Sawmill-Woods-Dr-46835/home/114537287,IRMLS,202529404,N,Y,41.138492,-85.0866991
MLS Listing,,Single Family Residential,12624 Memory Ln,Fort Wayne,IN,46818,316705,3,2.0,Lakes at Broad Acres,1415,12023,2025,6,224,550,Active,,,https://www.redfin.com/IN/Fort-Wayne/12624-Memory-Ln-46818/home/196623354,IRMLS,202529403,N,Y,41.197742,-85.210921
MLS Listing,,Single Family Residential,2222 Drexel Ave,Fort Wayne,IN,46806,138900,4,1.0,Pontiac Place,1616,5663,1924,6,86,,Active,,,https://www.redfin.com/IN/Fort-Wayne/2222-Drexel-Ave-46806/home/116477296,IRMLS,202529397,N,Y,41.0552011,-85.1079981
MLS Listing,,Single Family Residential,4141 Shadowood Lakes Trl,Fort Wayne,IN,46818,319900,3,2.0,Shadowood Lakes,1509,8407,2025,6,212,42,Active,,,https://www.redfin.com/IN/Fort-Wayne/4141-Shadowood-Lakes-Trl-46818/home/196623043,IRMLS,202529394,N,Y,41.1562842,-85.1969775
MLS Listing,,Single Family Residential,208 Cabrillo Ct,Fort Wayne,IN,46818,339400,4,2.5,Cypress Pointe,2158,12197,2014,6,157,18,Active,,,https://www.redfin.com/IN/Fort-Wayne/208-Cabrillo-Ct-46818/home/115852250,IRMLS,202529392,N,Y,41.0802041,-85.3362554
MLS Listing,,Single Family Residential,4209 Lafayette St,Fort Wayne,IN,46806,119900,1,1.0,Fort Wayne,432,5227,1950,6,278,,Active,,,https://www.redfin.com/IN/Fort-Wayne/4209-Lafayette-St-46806/home/115394085,IRMLS,202529384,N,Y,41.046701,-85.1319645
MLS Listing,,Single Family Residential,8825 Gateview Dr,Fort Wayne,IN,46835,484900,4,2.5,Arlington Park,4003,16988,1987,6,121,67,Active,,,https://www.redfin.com/IN/Fort-Wayne/8825-Gateview-Dr-46835/home/116138885,IRMLS,202529380,N,Y,41.1297043,-85.0296156
MLS Listing,,Single Family Residential,13108 Passerine Blvd,Fort Wayne,IN,46845,679000,4,3.5,Eagle Rock,3056,25700,2022,6,222,,Active,,,https://www.redfin.com/IN/Fort-Wayne/13108-Passerine-Blvd-46845/home/185685769,IRMLS,202529361,N,Y,41.203816,-85.068313
MLS Listing,,Single Family Residential,1414 Turnberry Ct,Fort Wayne,IN,46814,599990,5,3.5,Sycamore Hill(s),4172,22651,1995,6,144,129,Active,,,https://www.redfin.com/IN/Fort-Wayne/1414-Turnberry-Ct-46814/home/116556295,IRMLS,202529362,N,Y,41.0726252,-85.2876523
MLS Listing,,Single Family Residential,3836 W State Blvd,Fort Wayne,IN,46808,300000,3,2.5,Fort Wayne,2068,20909,1965,6,145,,Active,,,https://www.redfin.com/IN/Fort-Wayne/3836-W-State-Blvd-46808/home/116555596,IRMLS,202524953,N,Y,41.0960886,-85.1934901
MLS Listing,,Single Family Residential,310 W Pettit Ave,Fort Wayne,IN,46807,134900,3,1.0,McKinnieville,1620,7405,1950,6,83,,Active,,,https://www.redfin.com/IN/Fort-Wayne/310-W-Pettit-Ave-46807/home/116581829,IRMLS,202529341,N,Y,41.0394415,-85.1400373
MLS Listing,,Single Family Residential,13432 Veracruz Dr,Fort Wayne,IN,46814,474900,4,3.0,Veracruz,3149,12197,2004,6,151,34,Active,,,https://www.redfin.com/IN/Fort-Wayne/13432-Veracruz-Dr-46814/home/116098855,IRMLS,202529340,N,Y,41.0657757,-85.3161111
MLS Listing,,Single Family Residential,10109 Goshen Rd,Fort Wayne,IN,46818,465000,3,2.0,Fort Wayne,2608,307098,1956,6,178,,Active,August-3-2025 12:00 PM,August-3-2025 02:00 PM,https://www.redfin.com/IN/Fort-Wayne/10109-Goshen-Rd-46818/home/164294275,IRMLS,202529337,N,Y,41.174702,-85.275147
MLS Listing,,Single Family Residential,2832 Abbott St,Fort Wayne,IN,46806,225000,3,3.0,Huestis & Taylor,1856,7841,1930,6,121,,Active,,,https://www.redfin.com/IN/Fort-Wayne/2832-Abbott-St-46806/home/115860745,IRMLS,202529335,N,Y,41.058779,-85.1080792
MLS Listing,,Single Family Residential,4326 Winterfield Run,Fort Wayne,IN,46804,295000,4,2.5,Haverhill,1960,9583,1977,6,151,15,Active,,,https://www.redfin.com/IN/Fort-Wayne/4326-Winterfield-Run-46804/home/116121220,IRMLS,202528713,N,Y,41.0435287,-85.2616661
MLS Listing,,Single Family Residential,405 Inwood Dr,Fort Wayne,IN,46815,350000,4,3.5,Curdes Homewood Acre,2678,32670,1986,6,131,,Active,August-1-2025 05:00 PM,August-1-2025 07:00 PM,https://www.redfin.com/IN/Fort-Wayne/405-Inwood-Dr-46815/home/115129508,IRMLS,202529307,N,Y,41.0855133,-85.0838987
MLS Listing,,Single Family Residential,5355 Woodlea Ave,Fort Wayne,IN,46835,215000,3,2.0,Royal Oak(s),1540,17001,1957,7,140,,Active,,,https://www.redfin.com/IN/Fort-Wayne/5355-Woodlea-Ave-46835/home/115835763,IRMLS,202529322,N,Y,41.1269331,-85.0734692
MLS Listing,,Single Family Residential,15417 Timber Hollow Trl,Fort Wayne,IN,46845,499900,5,3.5,Woodcliffe Estates,3532,40946,1978,7,142,8,Active,,,https://www.redfin.com/IN/Fort-Wayne/15417-Timber-Hollow-Trl-46845/home/115727964,IRMLS,202529302,N,Y,41.2272102,-85.1144951
MLS Listing,,Single Family Residential,3419 E Pontiac St,Fort Wayne,IN,46803,119900,2,1.0,Harvester Park,649,10890,1949,7,185,,Active,,,https://www.redfin.com/IN/Fort-Wayne/3419-E-Pontiac-St-46803/home/116186442,IRMLS,202529300,N,Y,41.061793,-85.093691
MLS Listing,,Single Family Residential,1120 Elm St,Fort Wayne,IN,46808,109900,3,1.5,Herbert E Eckarts,1640,5227,1935,7,67,,Active,,,https://www.redfin.com/IN/Fort-Wayne/1120-Elm-St-46808/home/115631864,IRMLS,202529285,N,Y,41.0778325,-85.1565598
MLS Listing,,Single Family Residential,415 Huffman St,Fort Wayne,IN,46808,137000,3,1.0,Huffmans,1400,1600,1925,7,98,,Active,,,https://www.redfin.com/IN/Fort-Wayne/415-Huffman-St-46808/home/116475422,MIBOR as Distributed by MLS Grid,22053030,N,Y,41.0902349,-85.1462552
MLS Listing,,Single Family Residential,10832 Lone Eagle Way,Fort Wayne,IN,46845,449900,4,2.5,Eagle Lake,3437,13939,1993,7,131,25,Active,August-3-2025 01:00 PM,August-3-2025 03:00 PM,https://www.redfin.com/IN/Fort-Wayne/10832-Lone-Eagle-Way-46845/home/115483085,IRMLS,202529272,N,Y,41.182602,-85.1410258
MLS Listing,,Single Family Residential,2617 Covington Woods Blvd,Fort Wayne,IN,46804,459900,4,2.5,Covington Woods,4221,23087,1987,7,109,,Active,,,https://www.redfin.com/IN/Fort-Wayne/2617-Covington-Woods-Blvd-46804/home/115732787,IRMLS,202529271,N,Y,41.0603209,-85.2622625
MLS Listing,,Single Family Residential,6504 Owl Tree Pl,Fort Wayne,IN,46825,195000,4,2.0,Summerfield,1484,10454,1992,7,131,,Active,,,https://www.redfin.com/IN/Fort-Wayne/6504-Owl-Tree-Pl-46825/home/115978496,IRMLS,202529257,N,Y,41.1386181,-85.1271502
MLS Listing,,Single Family Residential,3521 Utah Dr,Fort Wayne,IN,46815,214900,3,1.0,Park State East,1156,13068,1967,7,186,2,Active,,,https://www.redfin.com/IN/Fort-Wayne/3521-Utah-Dr-46815/home/115344372,IRMLS,202529256,N,Y,41.1114278,-85.0362111
MLS Listing,,Single Family Residential,2431 Saint Marys Ave,Fort Wayne,IN,46808,154900,3,1.0,Lillie Place,1460,3920,1936,7,106,,Active,August-3-2025 01:00 PM,August-3-2025 03:00 PM,https://www.redfin.com/IN/Fort-Wayne/2431-Saint-Marys-Ave-46808/home/114774503,IRMLS,202529234,N,Y,41.0973453,-85.1564641
MLS Listing,,Single Family Residential,439 E Wayne St,Fort Wayne,IN,46802,599900,5,4.0,Fort Wayne,3335,6534,1900,7,180,,Active,August-2-2025 10:00 AM,August-2-2025 02:00 PM,https://www.redfin.com/IN/Fort-Wayne/439-E-Wayne-St-46802/home/115139105,IRMLS,202529232,N,Y,41.0794366,-85.133137
MLS Listing,,Single Family Residential,4522 S Calhoun St,Fort Wayne,IN,46807,186400,4,1.5,Harrison Hill,1647,4792,1940,7,113,,Active,,,https://www.redfin.com/IN/Fort-Wayne/4522-S-Calhoun-St-46807/home/116314441,IRMLS,202529229,N,Y,41.043077,-85.137367
MLS Listing,,Vacant Land,442 Colerick St,Fort Wayne,IN,46806,9000,,,Lasalles,,3049,,7,,,Active,,,https://www.redfin.com/IN/Fort-Wayne/442-Colerick-St-46806/home/114693407,IRMLS,202529215,N,Y,41.057691,-85.1312592
MLS Listing,,Single Family Residential,8213 Catberry Trl,Fort Wayne,IN,46804,409900,4,2.5,The Haven,2393,13068,2025,7,171,41,Active,,,https://www.redfin.com/IN/Fort-Wayne/8213-Catberry-Trl-46804/home/183539387,IRMLS,202529195,N,Y,41.081999,-85.249636
MLS Listing,,Single Family Residential,4828 E State Blvd,Fort Wayne,IN,46815,259900,4,1.5,Statewood Park,1768,15246,1955,7,147,,Active,,,https://www.redfin.com/IN/Fort-Wayne/4828-E-State-Blvd-46815/home/114825469,IRMLS,202529181,N,Y,41.0977097,-85.0782671
MLS Listing,,Single Family Residential,7606 Bass Rd,Fort Wayne,IN,46818,400000,4,1.0,Fort Wayne,1568,567848,1868,7,255,,Active,,,https://www.redfin.com/IN/Fort-Wayne/7606-Bass-Rd-46818/home/196612414,IRMLS,202529176,N,Y,41.0891125,-85.2421427
MLS Listing,,Single Family Residential,1312 Kayenta Trl,Fort Wayne,IN,46815,529900,3,2.5,Paso Fino,2289,11326,2025,7,231,41,Active,August-3-2025 01:00 PM,August-3-2025 03:00 PM,https://www.redfin.com/IN/Fort-Wayne/1312-Kayenta-Trl-46815/home/196611051,IRMLS,202529147,N,Y,41.090874,-85.032414
MLS Listing,,Single Family Residential,12019 Turtle Creek Ct,Fort Wayne,IN,46818,349900,4,2.5,Lakes of Carroll Creek,2759,10019,2005,7,127,22,Active,August-2-2025 12:00 PM,August-2-2025 02:00 PM,https://www.redfin.com/IN/Fort-Wayne/12019-Turtle-Creek-Ct-46818/home/116416611,IRMLS,202529145,N,Y,41.1936784,-85.1854842
MLS Listing,,Condo/Co-op,2704 Grenadier Ct,Fort Wayne,IN,46804,599990,4,3.0,The Parke,2229,,2014,7,269,400,Active,,,https://www.redfin.com/IN/Fort-Wayne/2704-Grenadier-Ct-46804/home/116684429,IRMLS,202529121,N,Y,41.0593201,-85.2746153
MLS Listing,,Single Family Residential,6322 Eagle Nest Ct,Fort Wayne,IN,46814,437500,4,2.5,Eagle Creek,2805,23087,1993,7,156,19,Active,,,https://www.redfin.com/IN/Fort-Wayne/6322-Eagle-Nest-Ct-46814/home/116624793,IRMLS,202529122,N,Y,41.0250965,-85.2981534
MLS Listing,,Single Family Residential,3017 S Clinton St,Fort Wayne,IN,46806,229999,4,2.0,Fort Wayne,1560,6534,1925,7,147,,Active,,,https://www.redfin.com/IN/Fort-Wayne/3017-S-Clinton-St-46806/home/114926954,IRMLS,202529119,N,Y,41.05766,-85.1353589
MLS Listing,,Single Family Residential,1421 Holly Ridge Run,Fort Wayne,IN,46845,340000,4,3.5,Holly Ridge,2943,10019,1994,8,116,31,Active,,,https://www.redfin.com/IN/Fort-Wayne/1421-Holly-Ridge-Run-46845/home/114744224,IRMLS,202529112,N,Y,41.1866366,-85.1633017
MLS Listing,,Single Family Residential,7803 Tendall Ct,Fort Wayne,IN,46825,299900,3,3.0,Wheatridge,2840,11761,1981,8,106,,Active,,,https://www.redfin.com/IN/Fort-Wayne/7803-Tendall-Ct-46825/home/114768957,IRMLS,202529109,N,Y,41.1508642,-85.1303472
MLS Listing,,Single Family Residential,4533 E Lafayette Esplanade Ave,Fort Wayne,IN,46806,265000,4,3.0,Lafayette Place,2680,5227,1940,8,99,,Active,,,https://www.redfin.com/IN/Fort-Wayne/4533-E-Lafayette-Esplanade-46806/home/115258905,IRMLS,202529108,N,Y,41.042788,-85.1340294
MLS Listing,,Single Family Residential,2224 Otsego Dr,Fort Wayne,IN,46825,219900,3,1.5,Concord Gardens,1526,16117,1958,8,144,,Active,,,https://www.redfin.com/IN/Fort-Wayne/2224-Otsego-Dr-46825/home/115544647,IRMLS,202529098,N,Y,41.1464462,-85.1105521
MLS Listing,,Single Family Residential,5511 Hoagland Ave,Fort Wayne,IN,46807,139500,3,1.0,Belmont,960,4792,1977,8,145,,Active,,,https://www.redfin.com/IN/Fort-Wayne/5511-Hoagland-Ave-46807/home/116468738,IRMLS,202529074,N,Y,41.033421,-85.1411504
MLS Listing,,Condo/Co-op,1704 Savona Ct,New Haven,IN,46774,382900,3,2.0,Landin Parke,1544,12467,2024,8,248,300,Active,,,https://www.redfin.com/IN/New-Haven/1704-Savona-Ct-46774/home/117947409,IRMLS,202529052,N,Y,41.0945529,-85.0244419
MLS Listing,,Single Family Residential,4326 Hatcher Pass,Fort Wayne,IN,46845,749000,5,3.5,Hawthorne Park,4870,18731,2004,8,154,83,Active,August-3-2025 01:00 PM,August-3-2025 04:00 PM,https://www.redfin.com/IN/Fort-Wayne/4326-Hatcher-Pass-46845/home/116320314,IRMLS,202529037,N,Y,41.204909,-85.0907252
MLS Listing,,Single Family Residential,6507 Arnel Ave,Fort Wayne,IN,46835,265000,3,2.0,Golden Acres,1334,19602,1968,8,199,,Active,,,https://www.redfin.com/IN/Fort-Wayne/6507-Arnel-Ave-46835/home/114774434,IRMLS,202529021,N,Y,41.1285848,-85.0591552
MLS Listing,,Single Family Residential,8918 Orchard View Ct,Fort Wayne,IN,46835,334900,3,2.5,Arlington Park,3087,20909,1986,8,108,67,Active,,,https://www.redfin.com/IN/Fort-Wayne/8918-Orchard-View-Ct-46835/home/115170213,IRMLS,202529018,N,Y,41.1281701,-85.0274291
MLS Listing,,Single Family Residential,240 E Butler St,Fort Wayne,IN,46803,142000,4,2.0,Fort Wayne,1816,7405,1910,8,78,,Active,,,https://www.redfin.com/IN/Fort-Wayne/240-E-Butler-St-46803/home/115961117,IRMLS,202529006,N,Y,41.0661737,-85.1352795
MLS Listing,,Single Family Residential,983 Bingham Pass,Fort Wayne,IN,46845,381500,3,2.5,Ridgewood at Copper Creek,2047,13068,2023,8,186,50,Active,,,https://www.redfin.com/IN/Fort-Wayne/983-Bingham-Pass-46845/home/184686973,IRMLS,202529001,N,Y,41.2160307,-85.1560739
MLS Listing,,Condo/Co-op,2127 Bayside Ct,Fort Wayne,IN,46804,179900,3,1.5,Colony Bay Condo,2310,9148,1975,8,78,336,Active,,,https://www.redfin.com/IN/Fort-Wayne/2127-Bayside-Ct-46804/home/114756168,IRMLS,202528997,N,Y,41.063682,-85.224037
MLS Listing,,Single Family Residential,1236 W Rudisill Blvd,Fort Wayne,IN,46807,319900,4,2.0,Bellevue Terrace,2048,13199,1945,8,156,20,Active,August-2-2025 02:00 PM,August-2-2025 04:00 PM,https://www.redfin.com/IN/Fort-Wayne/1236-W-Rudisill-Blvd-46807/home/115743039,IRMLS,202528994,N,Y,41.0503978,-85.1546748
MLS Listing,,Single Family Residential,5311 Gadwall Pass,Fort Wayne,IN,46818,435900,3,2.0,Cobble Creek,2084,11761,2021,8,209,50,Active,,,https://www.redfin.com/IN/Fort-Wayne/5311-Gadwall-Pass-46818/home/175204963,IRMLS,202528983,N,Y,41.1882274,-85.2134762
MLS Listing,,Multi-Family (2-4 Unit),917 W Washington Blvd,Fort Wayne,IN,46802,140000,6,2.0,Rock Hill(s) / Rockhill(s),2088,1742,1910,8,67,,Active,,,https://www.redfin.com/IN/Fort-Wayne/917-W-Washington-Blvd-46802/home/116197879,IRMLS,202528968,N,Y,41.0751736,-85.1512158
MLS Listing,,Vacant Land,1607 Billy Dr,Fort Wayne,IN,46825,32900,,,Lima Meadows,,6970,,8,,,Active,,,https://www.redfin.com/IN/Fort-Wayne/1607-Billy-Dr-46825/home/114594059,IRMLS,202528966,N,Y,41.171638,-85.164998
MLS Listing,,Single Family Residential,11427 Red Fern Pl,Fort Wayne,IN,46845,474900,3,2.5,Cedar Springs,2605,12632,2012,8,182,,Active,,,https://www.redfin.com/IN/Fort-Wayne/11427-Red-Fern-Pl-46845/home/114850980,IRMLS,202528600,N,Y,41.1898699,-85.0838769
MLS Listing,,Single Family Residential,7627 Wynnewood Ln,Fort Wayne,IN,46835,279900,3,2.5,Waterford,1702,9361,2004,8,164,18,Active,August-3-2025 01:00 PM,August-3-2025 03:00 PM,https://www.redfin.com/IN/Fort-Wayne/7627-Wynnewood-Ln-46835/home/116050700,IRMLS,202528928,N,Y,41.1529861,-85.0223803
MLS Listing,,Single Family Residential,1014 Oak Bay Run,Fort Wayne,IN,46825,244900,2,2.0,Millstone Village,1212,8712,1992,8,202,156,Active,,,https://www.redfin.com/IN/Fort-Wayne/1014-Oak-Bay-Run-46825/home/115147052,IRMLS,202528921,N,Y,41.1559167,-85.1548984
MLS Listing,,Single Family Residential,7221 Wood Meadows Ln,Fort Wayne,IN,46835,274900,3,2.5,Wedgewood Place,1962,9714,1990,8,140,10,Active,,,https://www.redfin.com/IN/Fort-Wayne/7221-Wood-Meadows-Ln-46835/home/115179715,IRMLS,202528894,N,Y,41.1415612,-85.0496916
MLS Listing,,Vacant Land,1550 Edsall Ave,Fort Wayne,IN,46803,30000,,,Fort Wayne,,25700,,8,,,Active,,,https://www.redfin.com/IN/Fort-Wayne/1550-Edsall-Ave-46803/home/196570237,IRMLS,202528874,N,Y,41.0716836,-85.0997984
MLS Listing,,Single Family Residential,15520 Woodbrook Trl,Fort Wayne,IN,46845,698900,4,3.0,Woodcliffe Estates,4393,40511,1976,9,159,,Active,,,https://www.redfin.com/IN/Fort-Wayne/15520-Woodbrook-Trl-46845/home/114969462,IRMLS,202528835,N,Y,41.2278219,-85.1095655
MLS Listing,,Single Family Residential,10909 Bittersweet Dells Ln,Fort Wayne,IN,46814,385000,4,2.5,Dells of Bittersweet,3026,25265,1992,9,127,51,Active,,,https://www.redfin.com/IN/Fort-Wayne/10909-Bittersweet-Dells-Ln-46814/home/116020413,IRMLS,202528774,N,Y,41.02115,-85.2847858
MLS Listing,,Single Family Residential,6309 Becker Dr,Fort Wayne,IN,46835,304900,3,2.0,Hoffman(s),1674,8712,2025,9,182,,Active,,,https://www.redfin.com/IN/Fort-Wayne/6309-Becker-Dr-46835/home/196552640,IRMLS,202528769,N,Y,41.138869,-85.09344
MLS Listing,,Single Family Residential,9729 White Hill Ct,Fort Wayne,IN,46804,355000,4,2.5,Shorewood,3497,15246,1991,9,102,14,Active,,,https://www.redfin.com/IN/Fort-Wayne/9729-White-Hill-Ct-46804/home/114682224,IRMLS,202528746,N,Y,41.0768382,-85.2689933
MLS Listing,,Single Family Residential,4728 Ridgelane Dr,Fort Wayne,IN,46804,189900,3,1.0,Flecks,1280,11326,1947,9,148,,Active,August-2-2025 12:00 PM,August-2-2025 02:00 PM,https://www.redfin.com/IN/Fort-Wayne/4728-Ridgelane-Dr-46804/home/116215269,IRMLS,202528742,N,Y,41.0680304,-85.2040364
MLS Listing,,Single Family Residential,1224 Breaker Bay,Fort Wayne,IN,46845,344900,4,2.5,Falcon Creek,2192,12632,2005,9,157,25,Active,,,https://www.redfin.com/IN/Fort-Wayne/1224-Breaker-Bay-46845/home/114902217,IRMLS,202528734,N,Y,41.207348,-85.1256087
MLS Listing,,Single Family Residential,2308 Broken Oak Rd,Fort Wayne,IN,46818,310000,3,2.5,The Rapids of Keefer Creek,1969,8276,1998,9,157,14,Active,,,https://www.redfin.com/IN/Fort-Wayne/2308-Broken-Oak-Rd-46818/home/115550359,IRMLS,202528714,N,Y,41.1799709,-85.1739183
MLS Listing,,Single Family Residential,5418 N Stony Run Ln,Fort Wayne,IN,46825,179000,3,1.0,North Crest / Northcrest,1073,8276,1958,9,167,,Active,,,https://www.redfin.com/IN/Fort-Wayne/5418-N-Stony-Run-Ln-46825/home/116463741,IRMLS,202528712,N,Y,41.128522,-85.1290372
MLS Listing,,Single Family Residential,1305 Sinclair St,Fort Wayne,IN,46808,144995,2,1.0,Dreier William & Bashs,770,4356,1925,9,188,,Active,,,https://www.redfin.com/IN/Fort-Wayne/1305-Sinclair-St-46808/home/115573024,IRMLS,202528707,N,Y,41.0857292,-85.1587103
MLS Listing,,Single Family Residential,3110 Central Dr,Fort Wayne,IN,46806,145900,3,1.0,Pontiac Place,1224,5227,1925,10,119,,Active,,,https://www.redfin.com/IN/Fort-Wayne/3110-Central-Dr-46806/home/116476006,IRMLS,202528704,N,Y,41.0563351,-85.1115535
MLS Listing,,Single Family Residential,4903 Forest Grove Dr,Fort Wayne,IN,46835,298500,3,2.5,Bohde Grove,1948,23522,1968,10,153,2,Active,,,https://www.redfin.com/IN/Fort-Wayne/4903-Forest-Grove-Dr-46835/home/114882299,IRMLS,202528703,N,Y,41.1251156,-85.0662218
MLS Listing,,Single Family Residential,1830 Romane Dr,Fort Wayne,IN,46808,199900,3,1.0,Tower Heights,1040,10890,1975,10,192,,Active,,,https://www.redfin.com/IN/Fort-Wayne/1830-Romane-Dr-46808/home/115855283,IRMLS,202528667,N,Y,41.0921505,-85.1766594
MLS Listing,,Single Family Residential,2515 Hubertus Ave,Fort Wayne,IN,46805,254000,2,3.0,Norwood Heights,1324,5663,1925,10,192,,Active,,,https://www.redfin.com/IN/Fort-Wayne/2515-Hubertus-Ave-46805/home/115522395,IRMLS,202528661,N,Y,41.099523,-85.1096446
MLS Listing,,Single Family Residential,206 Landau Run,Fort Wayne,IN,46845,464900,4,3.5,La Cabreah,3250,12785,1994,10,143,40,Active,,,https://www.redfin.com/IN/Fort-Wayne/206-Landau-Run-46845/home/114917466,IRMLS,202528613,N,Y,41.1845134,-85.1429932
MLS Listing,,Single Family Residential,902 Lake Ave,Fort Wayne,IN,46805,185500,3,1.5,Lakeside Park,1443,4356,1925,10,129,,Active,,,https://www.redfin.com/IN/Fort-Wayne/902-Lake-Ave-46805/home/115354635,IRMLS,202528595,N,Y,41.0844056,-85.1283293
MLS Listing,,Single Family Residential,2325 Elyetta St,Fort Wayne,IN,46802,239900,3,1.5,Interurban,1932,15246,1960,10,124,,Active,,,https://www.redfin.com/IN/Fort-Wayne/2325-Elyetta-St-46802/home/115143055,IRMLS,202528593,N,Y,41.0635829,-85.1835476
MLS Listing,,Single Family Residential,1402 3rd St,Fort Wayne,IN,46808,102000,2,1.5,Fort Wayne,1440,4356,1900,10,71,,Active,,,https://www.redfin.com/IN/Fort-Wayne/1402-3rd-St-46808/home/116595193,IRMLS,202528586,N,Y,41.0869803,-85.1598792
MLS Listing,,Single Family Residential,12017 Swather Ct,Fort Wayne,IN,46818,369900,3,2.0,Majestic Pointe,1819,12197,2025,10,203,,Active,,,https://www.redfin.com/IN/Huntertown/12017-Swather-Ct-46818/home/196534681,IRMLS,202528584,N,Y,41.192167,-85.205861
MLS Listing,,Single Family Residential,7789 Fawn Mallow Cv,Fort Wayne,IN,46835,669000,4,3.0,River Hollow,3254,44867,2015,10,206,42,Active,,,https://www.redfin.com/IN/Fort-Wayne/7789-Fawn-Mallow-Cv-46835/home/117942102,IRMLS,202528558,N,Y,41.1668478,-85.0450438
MLS Listing,,Single Family Residential,3605 E Saddle Dr,Fort Wayne,IN,46804,258300,3,2.0,Aboite Meadows,1568,19602,1973,10,165,,Active,August-1-2025 05:00 PM,August-1-2025 07:00 PM,https://www.redfin.com/IN/Fort-Wayne/3605-E-Saddle-Dr-46804/home/114727274,IRMLS,202528522,N,Y,41.0507794,-85.265744
MLS Listing,,Single Family Residential,1301 Home Ave,Fort Wayne,IN,46807,164995,3,1.0,Lambert(s),1415,4356,1930,10,117,,Active,,,https://www.redfin.com/IN/Fort-Wayne/1301-Home-Ave-46807/home/115796993,IRMLS,202528520,N,Y,41.0581349,-85.154883
MLS Listing,,Single Family Residential,2402 Cambridge Blvd,Fort Wayne,IN,46808,229900,3,2.0,Cambridge Hills,2008,6098,1926,11,114,,Active,,,https://www.redfin.com/IN/Fort-Wayne/2402-Cambridge-Blvd-46808/home/115533231,IRMLS,202528494,N,Y,41.0970394,-85.1639848
MLS Listing,,Single Family Residential,551 Persimmon Cv,Fort Wayne,IN,46814,399900,4,2.5,Magnolia Meadows,1698,8276,2025,11,236,41,Active,,,https://www.redfin.com/IN/Fort-Wayne/551-Persimmon-Cv-46814/home/180855592,IRMLS,202528469,N,Y,41.0788152,-85.3142929
MLS Listing,,Single Family Residential,1519 Glenwood Ave,Fort Wayne,IN,46805,269700,4,2.5,North Side / Northside,2052,11326,1965,11,131,,Active,,,https://www.redfin.com/IN/Fort-Wayne/1519-Glenwood-Ave-46805/home/115676789,IRMLS,202528451,N,Y,41.1033131,-85.1193665
MLS Listing,,Single Family Residential,3512 Ramsey Ave,Fort Wayne,IN,46807,175500,3,1.5,Nindes,1312,5227,1930,11,134,,Active,,,https://www.redfin.com/IN/Fort-Wayne/3512-Ramsey-Ave-46807/home/114627193,IRMLS,202528449,N,Y,41.0529551,-85.1485708
MLS Listing,,Single Family Residential,805 W Wildwood Ave,Fort Wayne,IN,46807,269500,4,2.0,Fort Wayne,1786,5227,1910,11,151,,Active,,,https://www.redfin.com/IN/Fort-Wayne/805-W-Wildwood-Ave-46807/home/115539772,IRMLS,202528445,N,Y,41.0567036,-85.1487543
MLS Listing,,Single Family Residential,2707 N Clinton St,Fort Wayne,IN,46805,228500,3,1.5,Fort Wayne,1620,10019,1925,11,141,,Active,,,https://www.redfin.com/IN/Fort-Wayne/2707-N-Clinton-St-46805/home/115085303,IRMLS,202528442,N,Y,41.1002621,-85.1387396
MLS Listing,,Single Family Residential,819 Eckart St,Fort Wayne,IN,46806,149500,3,1.0,Echarts,1440,8712,1925,11,104,,Active,,,https://www.redfin.com/IN/Fort-Wayne/819-Eckart-St-46806/home/114502750,IRMLS,202528437,N,Y,41.0567687,-85.1259953
MLS Listing,,Single Family Residential,2613 Indiana Ave,Fort Wayne,IN,46807,138500,3,2.0,Zollars & Swaynes,1386,4356,1915,11,100,,Active,,,https://www.redfin.com/IN/Fort-Wayne/2613-Indiana-Ave-46807/home/116235078,IRMLS,202521907,N,Y,41.0611649,-85.149593
MLS Listing,,Single Family Residential,1104 Larch Ln,Fort Wayne,IN,46825,187000,3,1.0,Crest Wood Colony / Crestwood Co,1025,9148,1962,11,182,,Active,,,https://www.redfin.com/IN/Fort-Wayne/1104-Larch-Ln-46825/home/115757166,IRMLS,202528407,N,Y,41.1362483,-85.1261168
MLS Listing,,Condo/Co-op,10638 Lantern Bay Cv,Fort Wayne,IN,46845,529900,4,3.5,La Cabreah Villas,3000,12632,1999,11,177,208,Active,,,https://www.redfin.com/IN/Fort-Wayne/10638-Lantern-Bay-Cv-46845/home/114801105,IRMLS,202528402,N,Y,41.1811124,-85.1455462
MLS Listing,,Single Family Residential,5912 Monarch Dr,Fort Wayne,IN,46815,237900,3,1.5,Monarch Park,1340,12632,1968,11,178,,Active,,,https://www.redfin.com/IN/Fort-Wayne/5912-Monarch-Dr-46815/home/115300304,IRMLS,202528385,N,Y,41.0970048,-85.0650055
MLS Listing,,Single Family Residential,14659 Marlin Cv,Fort Wayne,IN,46814,669900,5,4.5,Bridgewater,4186,13504,2011,11,160,42,Active,,,https://www.redfin.com/IN/Fort-Wayne/14659-Marlin-Cv-46814/home/116603111,IRMLS,202528380,N,Y,41.0670759,-85.3284403
MLS Listing,,Single Family Residential,3701 Smith St,Fort Wayne,IN,46806,125000,2,1.0,Skinners,872,4792,1930,11,143,,Active,,,https://www.redfin.com/IN/Fort-Wayne/3701-Smith-St-46806/home/115089294,IRMLS,202528377,N,Y,41.0515967,-85.1221449
MLS Listing,,Single Family Residential,1043 Arthur Heights Dr,Fort Wayne,IN,46818,399000,4,2.5,Arthur Heights,2365,10890,2022,12,169,41,Active,August-2-2025 01:00 PM,August-2-2025 03:00 PM,https://www.redfin.com/IN/Fort-Wayne/1043-Arthur-Heights-Dr-46818/home/191586184,IRMLS,202528359,N,Y,41.0860775,-85.3156933
MLS Listing,,Single Family Residential,9611 Lima Rd,Fort Wayne,IN,46818,228900,3,2.0,Daus,1288,16466,1970,12,178,,Active,,,https://www.redfin.com/IN/Fort-Wayne/9611-Lima-Rd-46818/home/115433257,IRMLS,202528353,N,Y,41.1709923,-85.1663863
MLS Listing,,Single Family Residential,3202 Hoagland Ave,Fort Wayne,IN,46807,180000,3,1.5,Hallers,1426,2614,1925,12,126,,Active,,,https://www.redfin.com/IN/Fort-Wayne/3202-Hoagland-Ave-46807/home/114718531,IRMLS,202528351,N,Y,41.0558847,-85.1426674
MLS Listing,,Vacant Land,6806 N W County Line Rd,Columbia City,IN,46725,475000,,,Columbia City,,522720,,12,,,Active,,,https://www.redfin.com/IN/Columbia-City/6806-N-West-County-Line-Rd-46725/home/196508670,IRMLS,202528343,N,Y,41.1426107,-85.3372284
MLS Listing,,Single Family Residential,12004 Fazio Dr,Fort Wayne,IN,46818,539900,4,2.5,Palmira Lakes,2629,12197,2024,13,205,,Active,,,https://www.redfin.com/IN/Fort-Wayne/12004-Fazio-Dr-46818/home/185691041,IRMLS,202528337,N,Y,41.087437,-85.300886
MLS Listing,,Single Family Residential,2921 Overlook Dr,Fort Wayne,IN,46808,249900,3,2.0,West Wood Valley / Westwood Vall,2028,12197,1986,13,123,,Active,,,https://www.redfin.com/IN/Fort-Wayne/2921-Overlook-Dr-46808/home/115757932,IRMLS,202528330,N,Y,41.095997,-85.1816388
MLS Listing,,Single Family Residential,311 W Pontiac St,Fort Wayne,IN,46807,69900,5,1.5,Fox(s),1796,8276,1918,13,39,,Active,,,https://www.redfin.com/IN/Fort-Wayne/311-W-Pontiac-St-46807/home/114840582,IRMLS,202528328,N,Y,41.0604097,-85.140833
MLS Listing,,Single Family Residential,7836 Rothman Rd,Fort Wayne,IN,46835,339900,4,1.5,Sweeneys Acres,2278,41818,1957,13,149,,Active,,,https://www.redfin.com/IN/Fort-Wayne/7836-Rothman-Rd-46835/home/116128876,IRMLS,202528316,N,Y,41.1495895,-85.0432937
MLS Listing,,Single Family Residential,6228 Birchdale Dr,Fort Wayne,IN,46815,245000,4,1.5,Maplewood Gardens,1788,10454,1965,13,137,,Active,,,https://www.redfin.com/IN/Fort-Wayne/6228-Birchdale-Dr-46815/home/115190016,IRMLS,202528302,N,Y,41.1183983,-85.0617221
MLS Listing,,Single Family Residential,2701 Prairie Grove Dr,Fort Wayne,IN,46809,174900,2,1.0,Waynedale Gardens,1440,12632,1945,13,121,,Active,,,https://www.redfin.com/IN/Fort-Wayne/2701-Prairie-Grove-Dr-46809/home/115942175,IRMLS,202528291,N,Y,41.0253229,-85.1729465
MLS Listing,,Single Family Residential,302 Dunbar Ln,Fort Wayne,IN,46816,154995,3,1.0,Hill Crest / Hillcrest,1015,9148,1957,13,153,,Active,,,https://www.redfin.com/IN/Fort-Wayne/302-Dunbar-Ln-46816/home/116581961,IRMLS,202528257,N,Y,41.024846,-85.1327427
MLS Listing,,Single Family Residential,550 Charlotte Ave,Fort Wayne,IN,46805,179000,3,2.0,Stadium Place,1616,4356,1945,14,111,,Active,,,https://www.redfin.com/IN/Fort-Wayne/550-Charlotte-Ave-46805/home/116496433,IRMLS,202528237,N,Y,41.1001466,-85.1328269
MLS Listing,,Single Family Residential,6510 Old Trail Rd,Fort Wayne,IN,46809,164900,2,1.0,Waynedale Gardens,798,7841,1940,14,207,,Active,,,https://www.redfin.com/IN/Fort-Wayne/6510-Old-Trail-Rd-46809/home/114488866,IRMLS,202528192,N,Y,41.0229599,-85.1718937
MLS Listing,,Vacant Land,3622 & 3628 Logan Ave,Fort Wayne,IN,46803,50000,,,Fort Wayne,,10454,,14,,,Active,,,https://www.redfin.com/IN/Fort-Wayne/3622-Logan-Ave-46803/home/116012546,IRMLS,202528188,N,Y,41.06765,-85.091233
MLS Listing,,Single Family Residential,1735 Noble Kinsmen Pl,Fort Wayne,IN,46818,309900,3,2.5,Stratford Forest,1720,10019,2009,14,180,17,Active,August-3-2025 01:00 PM,August-3-2025 03:00 PM,https://www.redfin.com/IN/Fort-Wayne/1735-Noble-Kinsmen-Pl-46818/home/115708174,IRMLS,202528160,N,Y,41.0911157,-85.232382
MLS Listing,,Single Family Residential,4837 Dwight Dr,Fort Wayne,IN,46835,225000,4,2.0,Royal Oak(s),1790,14810,1956,14,126,,Active,,,https://www.redfin.com/IN/Fort-Wayne/4837-Dwight-Dr-46835/home/115712697,IRMLS,202528129,N,Y,41.1244502,-85.0759357
MLS Listing,,Single Family Residential,2877 Leon Cv,Fort Wayne,IN,46845,549900,3,2.5,Milagro,2499,13068,2019,14,220,57,Active,,,https://www.redfin.com/IN/Fort-Wayne/2877-Leon-Cv-46845/home/168269146,IRMLS,202528071,N,Y,41.2081016,-85.1067771
MLS Listing,,Single Family Residential,5912 North Bridge Rd,Fort Wayne,IN,46814,799990,4,3.0,Devils Hollow,5140,82546,1981,14,156,83,Active,August-3-2025 12:00 PM,August-3-2025 02:00 PM,https://www.redfin.com/IN/Fort-Wayne/5912-N-Bridge-Rd-46814/home/116196029,IRMLS,202528044,N,Y,41.0293275,-85.3353672
MLS Listing,,Single Family Residential,322 Hamilton Meadows Cv,Fort Wayne,IN,46814,255000,3,2.0,Hamilton Meadows,1342,6098,2011,14,190,25,Active,,,https://www.redfin.com/IN/Fort-Wayne/322-Hamilton-Meadows-Cv-46814/home/116342075,IRMLS,202528030,N,Y,41.0794735,-85.319084
MLS Listing,,Single Family Residential,307 Chisholm Pl,Fort Wayne,IN,46825,274900,3,2.5,Saddle Brook / Saddlebrook,1949,9148,2006,14,141,10,Active,August-3-2025 01:00 PM,August-3-2025 03:00 PM,https://www.redfin.com/IN/Fort-Wayne/307-Chisholm-Pl-46825/home/115270544,IRMLS,202526198,N,Y,41.157747,-85.1453398
MLS Listing,,Single Family Residential,3133 Delray Dr,Fort Wayne,IN,46815,299000,4,1.5,Glenwood Park,2188,13939,1967,15,137,5,Active,,,https://www.redfin.com/IN/Fort-Wayne/3133-Delray-Dr-46815/home/114946690,IRMLS,202528006,N,Y,41.1065373,-85.0771959
MLS Listing,,Single Family Residential,5372 Meadowbrook Dr,Fort Wayne,IN,46835,214900,3,1.5,Sunny Meadows,1380,17424,1955,15,156,,Active,,,https://www.redfin.com/IN/Fort-Wayne/5372-Meadowbrook-Dr-46835/home/115281325,IRMLS,202527971,N,Y,41.1288593,-85.0944965
MLS Listing,,Condo/Co-op,7230 Pomodoro Pkwy,Fort Wayne,IN,46835,269900,3,2.0,Rothman Villas,1312,6490,2020,15,206,108,Active,,,https://www.redfin.com/IN/Fort-Wayne/7230-Pomodoro-Pkwy-46835/home/168273812,IRMLS,202527925,N,Y,41.1482166,-85.0597586
MLS Listing,,Ranch,TBD Leesburg Rd,Fort Wayne,IN,46818,1200000,,,Fort Wayne,,413820,2018,15,,,Active,,,https://www.redfin.com/IN/Fort-Wayne/TBD-Leesburg-Rd-46808/home/190668590,IRMLS,202527908,N,Y,41.1406237860084,-85.3336724803772
MLS Listing,,Single Family Residential,979 Arthur Heights Dr,Fort Wayne,IN,46818,355000,4,2.5,Arthur Heights,2200,6970,2025,15,161,41,Active,,,https://www.redfin.com/IN/Fort-Wayne/979-Arthur-Heights-Dr-46818/home/184509097,IRMLS,202527907,N,Y,41.086933,-85.313604
MLS Listing,,Single Family Residential,1232 Stuckey Pointe Pass,Fort Wayne,IN,46818,351005,5,3.0,Livingston Lakes,2415,7710,2025,15,145,29,Active,,,https://www.redfin.com/IN/Fort-Wayne/1232-Stuckey-Pointe-Pass-46818/home/196017516,IRMLS,202527886,N,Y,41.086601,-85.293037
MLS Listing,,Single Family Residential,7394 Haven Blvd,Fort Wayne,IN,46804,359900,3,2.5,The Haven,2333,9148,2022,15,154,44,Active,,,https://www.redfin.com/IN/Fort-Wayne/7394-Haven-Blvd-46804/home/179908135,IRMLS,202527871,N,Y,41.08536,-85.241335
MLS Listing,,Vacant Land,TBD S 800 East-92,Fort Wayne,IN,46818,129900,,,Fort Wayne,,87120,,15,,,Active,,,https://www.redfin.com/IN/Fort-Wayne/TBD-East-92-46818/home/196476610,IRMLS,202527859,N,Y,41.1409738051371,-85.3374163095398
MLS Listing,,Single Family Residential,344 E Lexington Ct,Fort Wayne,IN,46806,90000,2,2.0,Disler Place,1196,3485,1923,15,75,,Active,,,https://www.redfin.com/IN/Fort-Wayne/344-Lexington-Ct-46806/home/179917169,IRMLS,202527857,N,Y,41.0469655,-85.1332863
MLS Listing,,Single Family Residential,2702 Westward Dr,Fort Wayne,IN,46809,184990,3,1.0,Waynedale,1432,23522,1920,15,129,,Active,,,https://www.redfin.com/IN/Fort-Wayne/2702-Westward-Dr-46809/home/116506520,IRMLS,202527850,N,Y,41.0138551,-85.1731895
MLS Listing,,Single Family Residential,6029 Salge Dr,Fort Wayne,IN,46835,227900,3,1.0,Centerhurst,1232,22216,1958,15,185,,Active,August-10-2025 01:00 PM,August-10-2025 03:00 PM,https://www.redfin.com/IN/Fort-Wayne/6029-Salge-Dr-46835/home/115098696,IRMLS,202527834,N,Y,41.1360816,-85.0695298
MLS Listing,,Single Family Residential,3221 Bowser Ave,Fort Wayne,IN,46806,89995,2,1.0,Fort Wayne,960,4792,1946,15,94,,Active,,,https://www.redfin.com/IN/Fort-Wayne/3221-Bowser-Ave-46806/home/116676149,IRMLS,202527833,N,Y,41.055235,-85.1199828
MLS Listing,,Single Family Residential,3707 Well Meadow Pl,Fort Wayne,IN,46815,350000,4,2.5,Walden,3165,12197,1991,15,111,,Active,,,https://www.redfin.com/IN/Fort-Wayne/3707-Well-Meadow-Pl-46815/home/115132132,IRMLS,202527831,N,Y,41.11165,-85.0677714
MLS Listing,,Single Family Residential,4421 Bowser Ave,Fort Wayne,IN,46806,199800,3,2.0,Mount Vernon Park,1408,5227,2025,15,142,,Active,August-3-2025 01:00 PM,August-3-2025 03:00 PM,https://www.redfin.com/IN/Fort-Wayne/4421-Bowser-Ave-46806/home/116402080,IRMLS,202527196,N,Y,41.0441506,-85.1188619
MLS Listing,,Single Family Residential,5511 Bell Tower Ln,Fort Wayne,IN,46815,474900,3,3.5,Village of Buckingham,4674,13939,1994,16,102,30,Active,,,https://www.redfin.com/IN/Fort-Wayne/5511-Bell-Tower-Ln-46815/home/115332455,IRMLS,202527793,N,Y,41.0995583,-85.0705175
MLS Listing,,Single Family Residential,12005 Swather Ct,Fort Wayne,IN,46818,369900,4,2.5,Majestic Pointe,1900,19166,2025,16,195,,Active,,,https://www.redfin.com/IN/Huntertown/12005-Swather-Ct-46818/home/196451137,IRMLS,202527773,N,Y,41.192234,-85.205671
MLS Listing,,Single Family Residential,11019 Millstone Dr,Fort Wayne,IN,46818,318000,4,2.5,Seven Oaks,1983,9932,2002,16,160,15,Active,,,https://www.redfin.com/IN/Fort-Wayne/11019-Millstone-Dr-46818/home/116337056,IRMLS,202527769,N,Y,41.1831817,-85.181678
MLS Listing,,Single Family Residential,4602 Woodlynn Ct,Fort Wayne,IN,46816,195700,3,2.0,No Subdivision,1330,10773,1993,16,147,,Active,,,https://www.redfin.com/IN/Fort-Wayne/4602-Woodlynn-Ct-46816/home/115567562,MIBOR as Distributed by MLS Grid,22050177,N,Y,41.0228175,-85.0793045
MLS Listing,,Single Family Residential,1124 Henlock Dr,Fort Wayne,IN,46818,324900,3,2.0,Sycamore Lakes,1814,10890,2010,16,179,38,Active,August-2-2025 01:00 PM,August-2-2025 03:00 PM,https://www.redfin.com/IN/Fort-Wayne/1124-Henlock-Dr-46818/home/115527279,IRMLS,202527643,N,Y,41.0873398,-85.2718026
MLS Listing,,Single Family Residential,3024 Nordholme Ave,Fort Wayne,IN,46805,248000,3,2.0,Bellaire,1441,13504,1950,16,172,,Active,,,https://www.redfin.com/IN/Fort-Wayne/3024-Nordholme-Ave-46805/home/114874891,IRMLS,202527628,N,Y,41.1042808,-85.0963071
MLS Listing,,Single Family Residential,1606 Spenser Cv,Fort Wayne,IN,46845,539900,4,3.0,Perry Lake Estates,2822,12197,2001,16,191,27,Active,,,https://www.redfin.com/IN/Fort-Wayne/1606-Spenser-Cv-46845/home/116067519,IRMLS,202527590,N,Y,41.2039255,-85.1215573
MLS Listing,,Single Family Residential,6251 Melan Cv,Fort Wayne,IN,46835,374900,5,3.5,Summer Wind,2792,9766,2018,17,134,25,Active,,,https://www.redfin.com/IN/Fort-Wayne/6251-Melan-Cv-46835/home/147900891,IRMLS,202527588,N,Y,41.1374984,-85.0476797
MLS Listing,,Single Family Residential,2129 Riedmiller Ave Ave,Fort Wayne,IN,46802,159999,3,1.5,L H Moores,1196,3049,1925,17,134,,Active,,,https://www.redfin.com/IN/Fort-Wayne/2129-Riedmiller-Ave-46802/home/115921060,IRMLS,202527576,N,Y,41.0652964,-85.1574714
MLS Listing,,Vacant Land,2403 S Anthony Blvd,Fort Wayne,IN,46803,30000,,,Stoops,,6534,,17,,,Active,,,https://www.redfin.com/IN/Fort-Wayne/2403-S-Anthony-Blvd-46803/home/115978320,IRMLS,202527572,N,Y,41.06418,-85.113721
MLS Listing,,Single Family Residential,9242 Wayne Trce,Fort Wayne,IN,46816,224995,3,2.0,Fort Wayne,1584,23958,1954,17,142,,Active,,,https://www.redfin.com/IN/Fort-Wayne/9242-Wayne-Trce-46816/home/114619766,IRMLS,202527569,N,Y,41.0018365,-85.0497314
MLS Listing,,Single Family Residential,3424 Kirkwood Dr,Fort Wayne,IN,46805,165500,3,1.5,Kirkwood Park,1970,9148,1947,17,84,,Active,,,https://www.redfin.com/IN/Fort-Wayne/3424-Kirkwood-Dr-46805/home/115480892,IRMLS,202527567,N,Y,41.108427,-85.1105279
MLS Listing,,Single Family Residential,1330 Foxglove Ln,Fort Wayne,IN,46808,,3,2.0,Fall Creek,1449,13068,1993,17,,7,Active,,,https://www.redfin.com/IN/Fort-Wayne/1330-Foxglove-Ln-46808/home/115946018,IRMLS,202527559,N,Y,41.0866934,-85.1870163
MLS Listing,,Single Family Residential,1531 Echo Ln,Fort Wayne,IN,46815,179900,3,1.0,Kern Valley Farm,1068,14375,1971,17,168,,Active,,,https://www.redfin.com/IN/Fort-Wayne/1531-Echo-Ln-46815/home/115618361,IRMLS,202527541,N,Y,41.0926525,-85.0470323
MLS Listing,,Single Family Residential,6968 Jerome Park Pl,Fort Wayne,IN,46835,349900,4,2.5,Belmont Woods,2346,9409,2025,17,149,40,Active,,,https://www.redfin.com/IN/St-Joseph-Township/6968-Jerome-Park-Pl-46835/home/195905587,IRMLS,202527536,N,Y,41.1610228,-85.0553784
MLS Listing,,Single Family Residential,13271 Silk Tree Trl,Fort Wayne,IN,46814,355000,4,3.0,Magnolia Meadows,1752,9583,2021,17,203,21,Active,,,https://www.redfin.com/IN/Fort-Wayne/13271-Silk-Tree-Trl-46814/home/180855581,IRMLS,202527527,N,Y,41.078716,-85.3151958
MLS Listing,,Single Family Residential,5651 Tranquilo Way,Fort Wayne,IN,46818,338130,4,2.5,Grasslands at Broad Acres,2346,8189,2025,17,144,46,Active,,,https://www.redfin.com/IN/Fort-Wayne/5651-Tranquilo-Way-46818/home/196326346,IRMLS,202527523,N,Y,41.194472,-85.215035
MLS Listing,,Single Family Residential,423 W 4th St,Fort Wayne,IN,46808,324900,3,1.5,Farnan(s),1593,4356,1890,17,204,,Active,,,https://www.redfin.com/IN/Fort-Wayne/423-W-4th-St-46808/home/116084385,IRMLS,202527494,N,Y,41.0875656,-85.1466529
MLS Listing,,Condo/Co-op,4232 Forest Creek Pkwy,Fort Wayne,IN,46815,245990,2,2.0,Brookside Lakes,1375,,1999,17,179,260,Active,,,https://www.redfin.com/IN/Fort-Wayne/4232-Forest-Creek-Pkwy-46815/home/115059944,IRMLS,202527492,N,Y,41.119938,-85.050758
MLS Listing,,Single Family Residential,4970 Halsley Ct,Fort Wayne,IN,46818,400000,5,3.0,Preserves of Carroll Creek West,3025,11761,2021,17,132,29,Active,,,https://www.redfin.com/IN/Fort-Wayne/4970-Halsley-Ct-46818/home/175204720,IRMLS,202527470,N,Y,41.196855,-85.207578
MLS Listing,,Single Family Residential,8730 Maysville Rd,Fort Wayne,IN,46815,241900,3,1.0,Fort Wayne,1445,40075,1968,17,167,,Active,,,https://www.redfin.com/IN/Fort-Wayne/8730-Maysville-RD-46815/home/196419726,IRMLS,202527469,N,Y,41.109769,-85.02856
MLS Listing,,Single Family Residential,542 Persimmon Cv,Fort Wayne,IN,46814,359900,3,2.0,Magnolia Meadows,1534,8712,2021,17,235,24,Active,August-2-2025 01:00 PM,August-2-2025 03:00 PM,https://www.redfin.com/IN/Fort-Wayne/542-Persimmon-Cv-46814/home/180855583,IRMLS,202527429,N,Y,41.078595,-85.314729
MLS Listing,,Single Family Residential,1224 Lake Ave,Fort Wayne,IN,46805,195000,3,1.0,Lakeside Park,1608,2614,1910,17,121,,Active,,,https://www.redfin.com/IN/Fort-Wayne/1224-Lake-Ave-46805/home/115128001,IRMLS,202527426,N,Y,41.0872398,-85.1232221
MLS Listing,,Single Family Residential,1905 Clifty Pkwy,Fort Wayne,IN,46808,264900,3,2.5,Hickory Pointe,1536,9239,2014,17,172,20,Active,August-2-2025 12:00 PM,August-2-2025 02:00 PM,https://www.redfin.com/IN/Fort-Wayne/1905-Clifty-Pkwy-46808/home/116529114,IRMLS,202527415,N,Y,41.091726,-85.2143438
MLS Listing,,Single Family Residential,4817 South Park Dr,Fort Wayne,IN,46806,67500,3,1.0,Bercot(s),768,6098,1945,17,88,,Active,,,https://www.redfin.com/IN/Fort-Wayne/4817-S-Park-Dr-46806/home/115910587,IRMLS,202527393,N,Y,41.0396844,-85.1243223
MLS Listing,,Single Family Residential,1419 Wood Ave,Fort Wayne,IN,46825,155000,3,1.0,Rousseaus,1232,14810,1949,18,126,,Active,,,https://www.redfin.com/IN/Fort-Wayne/1419-Wood-Ave-46825/home/115827093,IRMLS,202527387,N,Y,41.1511183,-85.1621428
MLS Listing,,Single Family Residential,4609 Blue Water Ct,Fort Wayne,IN,46804,230000,3,2.0,Aboite Lake Estates,1404,8276,1977,18,164,19,Active,,,https://www.redfin.com/IN/Fort-Wayne/4609-Blue-Water-Ct-46804/home/115340687,IRMLS,202527378,N,Y,41.0415016,-85.2715661
MLS Listing,,Single Family Residential,13257 Arusha Ct,Fort Wayne,IN,46818,329900,3,2.0,Arthur Heights,1512,6970,2022,18,218,41,Active,August-3-2025 01:00 PM,August-3-2025 03:00 PM,https://www.redfin.com/IN/Fort-Wayne/13257-Arusha-Ct-46818/home/184833383,IRMLS,202527361,N,Y,41.087887,-85.3155301
MLS Listing,,Single Family Residential,1620 Fairhill Rd,Fort Wayne,IN,46808,224000,3,1.0,North Highlands,1788,6534,1931,18,125,1,Active,,,https://www.redfin.com/IN/Fort-Wayne/1620-Fairhill-Rd-46808/home/116537695,IRMLS,202527356,N,Y,41.0895286,-85.1629518
MLS Listing,,Single Family Residential,4728 Raleigh Ct,Fort Wayne,IN,46835,299900,5,2.5,Arlington Park,2601,9583,1975,18,115,65,Active,,,https://www.redfin.com/IN/Fort-Wayne/4728-Raleigh-Ct-46835/home/114805544,IRMLS,202527315,N,Y,41.1263094,-85.0355768
MLS Listing,,Single Family Residential,5010 Lillie St,Fort Wayne,IN,46806,186000,4,2.0,Mount Vernon Park,1188,6970,1953,18,157,,Active,August-9-2025 02:00 PM,August-9-2025 04:00 PM,https://www.redfin.com/IN/Fort-Wayne/5010-Lillie-St-46806/home/115721437,IRMLS,202523839,N,Y,41.0378155,-85.1149301
MLS Listing,,Single Family Residential,4030 Indiana Ave,Fort Wayne,IN,46807,254900,3,1.5,Southwood Park,2016,5314,1920,18,126,5,Active,,,https://www.redfin.com/IN/Fort-Wayne/4030-Indiana-Ave-46807/home/114983475,IRMLS,202527104,N,Y,41.0477476,-85.1496603
MLS Listing,,Single Family Residential,9305 Wallen Ct,Fort Wayne,IN,46825,285000,3,2.5,Wallen Hill(s),2385,19602,1987,18,119,16,Active,August-3-2025 01:00 PM,August-3-2025 03:00 PM,https://www.redfin.com/IN/Fort-Wayne/9305-Wallen-Ct-46825/home/116682038,IRMLS,202527149,N,Y,41.1658091,-85.1340622
MLS Listing,,Single Family Residential,2127 Stonebriar Rd,Fort Wayne,IN,46814,479900,4,3.0,Bridgewater,3943,13939,1999,20,122,,Active,,,https://www.redfin.com/IN/Fort-Wayne/2127-Stonebriar-Rd-46814/home/115064306,IRMLS,202527151,N,Y,41.0638882,-85.3273374
MLS Listing,,Single Family Residential,711 N Camden Dr,Fort Wayne,IN,46825,199900,3,1.5,North Crest / Northcrest,1388,8276,1968,20,144,,Active,,,https://www.redfin.com/IN/Fort-Wayne/711-N-Camden-Dr-46825/home/115985660,IRMLS,202527150,N,Y,41.1296203,-85.1314458
MLS Listing,,Single Family Residential,2813 Indiana Ave,Fort Wayne,IN,46807,150000,2,1.0,Fort Wayne,935,10454,1926,20,160,,Active,,,https://www.redfin.com/IN/Fort-Wayne/2813-Indiana-Ave-46807/home/114671745,IRMLS,202527139,N,Y,41.0592292,-85.1494556
MLS Listing,,Vacant Land,1701 Bayer Ave,Fort Wayne,IN,46805,32000,,,Goeglein(s),,4356,,20,,,Active,,,https://www.redfin.com/IN/Fort-Wayne/1701-Bayer-Ave-46805/home/115924167,IRMLS,202527103,N,Y,41.0909653,-85.126965
MLS Listing,,Single Family Residential,14523 Firethorne Path,Fort Wayne,IN,46814,370000,4,3.0,Walnut Creek,2690,11326,1999,20,138,23,Active,,,https://www.redfin.com/IN/Fort-Wayne/14523-Firethorne-Path-46814/home/116664714,IRMLS,202526647,N,Y,41.0547628,-85.3285493
MLS Listing,,Condo/Co-op,3822 Yardley Ct,Fort Wayne,IN,46815,170000,2,1.5,Yardley Manor,1170,3485,1987,21,145,100,Active,,,https://www.redfin.com/IN/Fort-Wayne/3822-Yardley-Ct-46815/home/115809520,IRMLS,202525570,N,Y,41.1138986,-85.0613792
MLS Listing,,Single Family Residential,1208 Mount Fable Pl,Fort Wayne,IN,46845,379900,4,2.5,Quail Creek,2800,10890,2007,21,136,26,Active,,,https://www.redfin.com/IN/Fort-Wayne/1208-Mount-Fable-Pl-46845/home/116639292,IRMLS,202527074,N,Y,41.2049028,-85.1583485
MLS Listing,,Single Family Residential,2219 Morgan Creek Dr,Fort Wayne,IN,46808,329900,3,2.5,Morgan Creek,2501,6556,2012,21,132,,Active,August-3-2025 01:00 PM,August-3-2025 03:00 PM,https://www.redfin.com/IN/Fort-Wayne/2219-Morgan-Creek-Dr-46808/home/114940907,IRMLS,202527066,N,Y,41.0952761,-85.203915
MLS Listing,,Single Family Residential,9346 Fuji Cv,Fort Wayne,IN,46835,525000,3,2.5,Orchard Hill(s),2002,10411,2025,21,262,48,Active,,,https://www.redfin.com/IN/Fort-Wayne/9346-Fuji-Cv-46835/home/183760287,IRMLS,202527044,N,Y,41.1730575,-85.0244506
MLS Listing,,Multi-Family (2-4 Unit),602 Lavina St,Fort Wayne,IN,46802,319900,3,2.0,Bond(s),2084,1742,1959,21,154,,Active,,,https://www.redfin.com/IN/Fort-Wayne/602-Lavina-St-46802/home/114539536,IRMLS,202527038,N,Y,41.0729775,-85.1467008
MLS Listing,,Multi-Family (2-4 Unit),1236 Runnion Ave,Fort Wayne,IN,46808,315000,5,4.0,Rockhill Heirs,3198,6970,1915,21,98,,Active,,,https://www.redfin.com/IN/Fort-Wayne/1236-Runnion-Ave-46808/home/115236497,IRMLS,202526991,N,Y,41.0857236,-85.1657498
MLS Listing,,Single Family Residential,3630 Three Oaks Dr,Fort Wayne,IN,46809,249900,3,2.5,Ardmore Knolls,1560,9583,1992,21,160,,Active,,,https://www.redfin.com/IN/Fort-Wayne/3630-Three-Oaks-Dr-46809/home/115833222,IRMLS,202521027,N,Y,41.0374239,-85.1883338
MLS Listing,,Single Family Residential,331 Nussbaum Ave,Fort Wayne,IN,46805,124900,3,1.0,H J Rudisills,1190,7841,1941,21,105,,Active,,,https://www.redfin.com/IN/Fort-Wayne/331-Nussbaum-Ave-46805/home/116042891,IRMLS,202526981,N,Y,41.0922234,-85.1376507
MLS Listing,,Single Family Residential,443 Heyford Ct,Fort Wayne,IN,46818,283000,3,2.5,Cypress Pointe,1478,8912,2015,21,191,19,Active,,,https://www.redfin.com/IN/Fort-Wayne/443-Heyford-Ct-46818/home/117947912,IRMLS,202526958,N,Y,41.0784625,-85.3342352
MLS Listing,,Single Family Residential,13457 Fringe Tree Trl,Fort Wayne,IN,46814,379900,3,2.0,Sienna Reserve,1612,9583,2024,21,236,26,Active,,,https://www.redfin.com/IN/Fort-Wayne/13457-Fringe-Tree-Trl-46814/home/185691127,IRMLS,202526953,N,Y,41.078556,-85.315069
MLS Listing,,Condo/Co-op,2610 Covington Pointe Trl,Fort Wayne,IN,46804,275000,2,2.0,Covington Pointe,1226,8276,1996,21,224,285,Active,,,https://www.redfin.com/IN/Fort-Wayne/2610-Covington-Pointe-Trl-46804/home/116621584,IRMLS,202526942,N,Y,41.0601987,-85.2507867
MLS Listing,,Single Family Residential,2620 Ladue Cv,Fort Wayne,IN,46804,639900,4,3.5,Inverness Lakes,3873,29621,2004,21,165,54,Active,,,https://www.redfin.com/IN/Fort-Wayne/2620-Ladue-Cv-46804/home/115566835,IRMLS,202526916,N,Y,41.0603409,-85.2439462
MLS Listing,,Single Family Residential,11319 Johnson Rd,Fort Wayne,IN,46818,2450000,5,5.5,Fort Wayne,5151,1268903,1999,21,476,,Active,August-1-2025 04:00 PM,August-1-2025 06:00 PM,https://www.redfin.com/IN/Fort-Wayne/11319-Johnson-Rd-46818/home/196354401,IRMLS,202526908,N,Y,41.1865564,-85.24193
MLS Listing,,Single Family Residential,12407 Cassena Rd,Fort Wayne,IN,46814,549000,3,2.5,Mercato,2032,14810,2021,21,270,38,Active,,,https://www.redfin.com/IN/Fort-Wayne/12407-Cassena-Rd-46814/home/175210422,IRMLS,202526894,N,Y,41.0645344,-85.3049859
MLS Listing,,Single Family Residential,3827 Winter Raven Trl,Fort Wayne,IN,46818,249900,3,2.0,Ravens Cove,1408,7405,2011,21,177,,Active,,,https://www.redfin.com/IN/Fort-Wayne/3827-Winter-Raven-Trl-46818/home/116009968,IRMLS,202526880,N,Y,41.1494176,-85.1942904
MLS Listing,,Single Family Residential,714 Archer Ave,Fort Wayne,IN,46808,159995,3,1.5,Pfeiffer Place,1593,6534,1935,21,100,,Active,,,https://www.redfin.com/IN/Fort-Wayne/714-Archer-Ave-46808/home/115713624,IRMLS,202525580,N,Y,41.092711,-85.1514608
MLS Listing,,Single Family Residential,8626 Hempford Dr,Fort Wayne,IN,46819,269900,3,2.5,Winchester Ridge,1647,9148,2002,21,164,11,Active,,,https://www.redfin.com/IN/Fort-Wayne/8626-Hempford-Dr-46819/home/115723513,IRMLS,202526869,N,Y,41.0042383,-85.1467841
MLS Listing,,Condo/Co-op,5720 Bayside Dr,Fort Wayne,IN,46815,307900,2,3.0,No Subdivision,3132,,1984,21,98,225,Active,,,https://www.redfin.com/IN/Fort-Wayne/5720-Bayside-Dr-46815/home/116042008,MIBOR as Distributed by MLS Grid,22049285,N,Y,41.1038877,-85.0682731
MLS Listing,,Single Family Residential,4814 Palatine Dr,Fort Wayne,IN,46804,200000,3,2.0,Summit Place,1433,13504,1938,21,140,,Active,,,https://www.redfin.com/IN/Fort-Wayne/4814-Palatine-Dr-46804/home/116188717,IRMLS,202526849,N,Y,41.0656141,-85.2045489
MLS Listing,,Single Family Residential,1203 Park Ave,Fort Wayne,IN,46807,227900,4,2.5,J & M S Vesseys,2025,6098,1920,21,113,,Active,,,https://www.redfin.com/IN/Fort-Wayne/1203-Park-Ave-46807/home/116174987,IRMLS,202526842,N,Y,41.0591262,-85.153547
MLS Listing,,Condo/Co-op,8245 Caverango Blvd,Fort Wayne,IN,46815,454900,3,2.0,Paso Fino,1775,10019,2025,21,256,38,Active,August-2-2025 01:00 PM,August-2-2025 03:00 PM,https://www.redfin.com/IN/Fort-Wayne/8245-Caverango-BLVD-46815/home/196347328,IRMLS,202526833,N,Y,41.091946,-85.0341
MLS Listing,,Single Family Residential,8723 Newberry Dr,Fort Wayne,IN,46825,340000,3,2.5,Lincoln Village,2460,10454,1989,21,138,15,Active,,,https://www.redfin.com/IN/Fort-Wayne/8723-Newberry-Dr-46825/home/114613753,IRMLS,202526381,N,Y,41.1609739,-85.1311115
MLS Listing,,Single Family Residential,3314 Wayne Trce,Fort Wayne,IN,46806,130000,2,1.0,Fort Wayne,1820,16553,1925,22,71,,Active,,,https://www.redfin.com/IN/Fort-Wayne/3314-Wayne-Trce-46806/home/115010822,IRMLS,202526822,N,Y,41.0555833,-85.097137
MLS Listing,,Single Family Residential,379 Alderberry Ct,Fort Wayne,IN,46845,424900,4,2.5,Timber Ridge,2265,12415,2020,22,188,27,Active,,,https://www.redfin.com/IN/Fort-Wayne/379-Alderberry-Ct-46845/home/117960500,IRMLS,202526804,N,Y,41.2247474,-85.1383212
MLS Listing,,Single Family Residential,401 W Fairfax Ave,Fort Wayne,IN,46807,120000,2,1.0,Fairfield Terrace,848,7405,1956,22,142,,Active,,,https://www.redfin.com/IN/Fort-Wayne/401-W-Fairfax-Ave-46807/home/116158811,IRMLS,202526789,N,Y,41.0358859,-85.1417465
MLS Listing,,Single Family Residential,3901 Ravenscliff Pl,Fort Wayne,IN,46804,259999,3,1.5,Winterfield,1280,10454,1978,22,203,,Active,,,https://www.redfin.com/IN/Fort-Wayne/3901-Ravenscliff-Pl-46804/home/115603689,IRMLS,202526767,N,Y,41.0476616,-85.2632245
MLS Listing,,Single Family Residential,1244 Stuckey Pointe Pass,Fort Wayne,IN,46818,341555,4,2.5,Livingston Lakes,1953,8407,2025,22,175,29,Active,,,https://www.redfin.com/IN/Fort-Wayne/1244-Stuckey-Pointe-Pass-46818/home/196338187,IRMLS,202526761,N,Y,41.086736,-85.292883
MLS Listing,,Vacant Land,6070 Arvada Way,Fort Wayne,IN,46845,160000,,,Eagle Rock,,16553,,22,,,Active,,,https://www.redfin.com/IN/Fort-Wayne/6070-Arvada-Way-46845/home/191589690,IRMLS,202526752,N,Y,41.2071708,-85.0686753
MLS Listing,,Single Family Residential,10535 Brandywine Dr,Fort Wayne,IN,46845,399900,4,2.5,Pine Valley Country Club,2924,16988,1979,22,137,19,Active,,,https://www.redfin.com/IN/Fort-Wayne/10535-Brandywine-Dr-46845/home/115230283,IRMLS,202526726,N,Y,41.1806677,-85.121537
MLS Listing,,Single Family Residential,12004 Swather Ct,Fort Wayne,IN,46818,349900,3,2.0,Majestic Pointe,1682,13068,2025,22,208,,Active,,,https://www.redfin.com/IN/Fort-Wayne/12004-Swather-CT-46818/home/196334447,IRMLS,202526706,N,Y,41.192373,-85.205596
MLS Listing,,Single Family Residential,12515 Tula Trl,Fort Wayne,IN,46814,677400,6,3.5,Mercato,3853,13939,2020,22,176,50,Active,,,https://www.redfin.com/IN/Fort-Wayne/12515-Tula-Trl-46814/home/175210401,IRMLS,202526693,N,Y,41.0633874,-85.306167
MLS Listing,,Single Family Residential,1652 High St,Fort Wayne,IN,46808,118700,3,2.0,Rockhill,1897,6300,1920,22,63,,Active,,,https://www.redfin.com/IN/Fort-Wayne/1652-High-St-46808/home/116306433,MIBOR as Distributed by MLS Grid,22049903,N,Y,41.0851436,-85.1638038
MLS Listing,,Single Family Residential,2814 Autumn Leaf Ln,Fort Wayne,IN,46808,314900,3,2.5,West Wood Valley / Westwood Vall,2127,7841,1986,22,148,3,Active,,,https://www.redfin.com/IN/Fort-Wayne/2814-Autumn-Leaf-Ln-46808/home/115841749,IRMLS,202526668,N,Y,41.0965162,-85.1801005
MLS Listing,,Single Family Residential,3914 Maplecrest Rd,Fort Wayne,IN,46815,178000,3,2.0,Maplewood Park,1432,12632,1959,22,124,1,Active,,,https://www.redfin.com/IN/Fort-Wayne/3914-Maplecrest-Rd-46815/home/114840483,IRMLS,202526664,N,Y,41.1146122,-85.0608092
MLS Listing,,Single Family Residential,1634 White Fawn Dr,New Haven,IN,46774,514000,3,2.0,Enclaves of Landin Parke,2340,10454,2025,22,220,125,Active,,,https://www.redfin.com/IN/New-Haven/1634-White-Fawn-Dr-46774/home/191585701,IRMLS,202526626,N,Y,41.093739,-85.0290799
MLS Listing,,Vacant Land,13022 Tonkel Rd,Fort Wayne,IN,46825,,,,Fort Wayne,,256133,,23,,,Active,,,https://www.redfin.com/IN/Fort-Wayne/13022-Tonkel-Rd-46845/home/194600559,IRMLS,202526541,N,Y,41.2037378,-85.0751525
MLS Listing,,Single Family Residential,1025 Garden St,Fort Wayne,IN,46802,625000,3,3.5,Rock Hill(s) / Rockhill(s),3403,3223,1887,23,184,,Active,,,https://www.redfin.com/IN/Fort-Wayne/1025-Garden-St-46802/home/115741847,IRMLS,202526444,N,Y,41.0738093,-85.1563019
MLS Listing,,Single Family Residential,6982 Jerome Park Pl,Fort Wayne,IN,46835,324900,4,2.0,Belmont Woods,1771,9801,2025,23,183,40,Active,,,https://www.redfin.com/IN/St-Joseph-Township/6982-Jerome-Park-Pl-46835/home/195801556,IRMLS,202526426,N,Y,41.160987,-85.0552187
MLS Listing,,Condo/Co-op,1423 Shingle Oak Pointe,Fort Wayne,IN,46814,318500,3,3.0,Westchester Glens,2566,9583,2004,23,124,171,Active,August-2-2025 12:00 PM,August-2-2025 02:00 PM,https://www.redfin.com/IN/Fort-Wayne/1423-Shingle-Oak-Pointe-46814/home/116158638,IRMLS,202526424,N,Y,41.071211,-85.2753303
MLS Listing,,Single Family Residential,4612 Maple Terrace Pkwy,Fort Wayne,IN,46835,195000,3,1.5,Maplewood Terrace,1385,11326,1963,23,141,2,Active,,,https://www.redfin.com/IN/Fort-Wayne/4612-Maple-Terrace-Pkwy-46835/home/116201864,IRMLS,202526410,N,Y,41.1226949,-85.0559978
MLS Listing,,Single Family Residential,3716 Meter Dr,Fort Wayne,IN,46806,195000,3,1.0,Ridgeview Heights,1040,12371,1961,23,188,,Active,,,https://www.redfin.com/IN/Fort-Wayne/3716-Meter-Dr-46806/home/116382774,IRMLS,202526397,N,Y,41.0526969,-85.0437854
MLS Listing,,Condo/Co-op,6420 Langley Ct,Fort Wayne,IN,46815,364900,2,2.5,Georgetowne Place,2144,7841,1992,23,170,115,Active,August-3-2025 01:00 PM,August-3-2025 04:00 PM,https://www.redfin.com/IN/Fort-Wayne/6420-Langley-Ct-46815/home/115450315,IRMLS,202524473,N,Y,41.0890499,-85.0575054
MLS Listing,,Single Family Residential,4438 Wilmette St,Fort Wayne,IN,46806,159900,3,1.0,Lafayette Place,1170,4792,1943,24,137,2,Active,,,https://www.redfin.com/IN/Fort-Wayne/4438-Wilmette-St-46806/home/114951197,IRMLS,202526366,N,Y,41.0441498,-85.1335698
MLS Listing,,Single Family Residential,5690 Gadwall Pass,Fort Wayne,IN,46818,489900,3,2.5,Cobble Creek,2580,23958,2021,24,190,37,Active,August-3-2025 01:00 PM,August-3-2025 03:00 PM,https://www.redfin.com/IN/Fort-Wayne/5690-Gadwall-Pass-46818/home/175204915,IRMLS,202526355,N,Y,41.189082,-85.217302
MLS Listing,,Single Family Residential,4144 Meda Pass,Fort Wayne,IN,46809,200000,2,1.5,Indian Village,1668,10759,1950,24,120,,Active,,,https://www.redfin.com/IN/Fort-Wayne/4144-Meda-Pass-46809/home/115073639,IRMLS,202526353,N,Y,41.0459524,-85.174323
MLS Listing,,Condo/Co-op,1280 Pleasant Hill Pl,Fort Wayne,IN,46818,319900,4,2.0,Signal Ridge,1771,9017,2025,24,181,38,Active,,,https://www.redfin.com/IN/Fort-Wayne/1280-Pleasant-Hill-Pl-46818/home/191586024,IRMLS,202522226,N,Y,41.087414,-85.281366
MLS Listing,,Single Family Residential,10923 Oaklynn Reserve Blvd,Fort Wayne,IN,46835,399900,4,2.5,Oaklynn Reserve,1900,8712,2025,24,210,41,Active,August-3-2025 01:00 PM,August-3-2025 04:00 PM,https://www.redfin.com/IN/Milan-Township/10923-Oaklynn-Reserve-Blvd-46835/home/196289643,IRMLS,202526317,N,Y,41.157772,-85.005134
MLS Listing,,Single Family Residential,444 W Fairfax Ave,Fort Wayne,IN,46807,169500,4,1.5,Fairfield Terrace,1596,3485,1945,24,106,,Active,,,https://www.redfin.com/IN/Fort-Wayne/444-W-Fairfax-Ave-46807/home/115722026,IRMLS,202526292,N,Y,41.0361953,-85.1433152
MLS Listing,,Single Family Residential,6134 Salge Dr,Fort Wayne,IN,46835,189900,4,1.5,Centerhurst,1524,20038,1962,24,125,,Active,,,https://www.redfin.com/IN/Fort-Wayne/6134-Salge-Dr-46835/home/114497333,IRMLS,202526271,N,Y,41.1380516,-85.0697126
MLS Listing,,Multi-Family (2-4 Unit),2435 Hoagland Ave,Fort Wayne,IN,46807,214900,4,4.0,Williams Woodland Park,2664,3920,1910,24,81,,Active,,,https://www.redfin.com/IN/Fort-Wayne/2435-Hoagland-Ave-46807/home/114837035,IRMLS,202526232,N,Y,41.0623329,-85.1424671
MLS Listing,,Single Family Residential,2528 Eade Ave,Fort Wayne,IN,46805,174900,3,1.0,Mengersons,1724,7841,1930,24,101,,Active,,,https://www.redfin.com/IN/Fort-Wayne/2528-Eade-Ave-46805/home/115936854,IRMLS,202526228,N,Y,41.0991775,-85.133786
MLS Listing,,Single Family Residential,3217 Webster St,Fort Wayne,IN,46807,175500,3,1.0,Dreibelbiss,1500,4356,1920,24,117,,Active,,,https://www.redfin.com/IN/Fort-Wayne/3217-Webster-St-46807/home/115664954,IRMLS,202526217,N,Y,41.0556269,-85.1397934
MLS Listing,,Single Family Residential,3617 Plaza Dr,Fort Wayne,IN,46806,163000,4,1.5,South Walton Ave Acres,2183,10019,1959,24,75,,Active,,,https://www.redfin.com/IN/Fort-Wayne/3617-Plaza-Dr-46806/home/114974859,IRMLS,202526202,N,Y,41.0523782,-85.1090522
MLS Listing,,Single Family Residential,4326 Cordell Cv,Fort Wayne,IN,46845,559900,4,3.5,Hawthorne Park,4027,19166,2007,25,139,83,Active,,,https://www.redfin.com/IN/Fort-Wayne/4326-Cordell-Cv-46845/home/116456470,IRMLS,202526184,N,Y,41.2067776,-85.0909077
MLS Listing,,Single Family Residential,2922 Drexel Ave,Fort Wayne,IN,46806,139000,3,1.0,Bill Mauldin,936,5227,1960,25,149,,Active,,,https://www.redfin.com/IN/Fort-Wayne/2922-Drexel-Ave-46806/home/114645940,IRMLS,202526178,N,Y,41.0557413,-85.0992519
MLS Listing,,Single Family Residential,2103 Kentucky Ave,Fort Wayne,IN,46805,180000,3,2.0,Fort Wayne,1232,3920,1900,25,146,,Active,,,https://www.redfin.com/IN/Fort-Wayne/2103-Kentucky-Ave-46805/home/114669030,IRMLS,202523883,N,Y,41.0949227,-85.1252252
MLS Listing,,Single Family Residential,14831 Leesburg Rd,Fort Wayne,IN,46818,375000,2,2.0,Fort Wayne,1964,158994,1954,25,191,,Active,,,https://www.redfin.com/IN/Fort-Wayne/14831-Leesburg-Rd-46818/home/115663799,IRMLS,202526153,N,Y,41.1407734,-85.3347066
MLS Listing,,Vacant Land,2526 Birchwood Ave,Fort Wayne,IN,46803,15000,,,East Wood / Eastwood,,5227,,25,,,Active,,,https://www.redfin.com/IN/Fort-Wayne/2526-Birchwood-Ave-46803/home/115024372,IRMLS,202526140,N,Y,41.062579,-85.097188
MLS Listing,,Multi-Family (5+ Unit),436 W Williams St,Fort Wayne,IN,46802,295000,7,6.0,Fox(s),3653,5663,1915,25,81,,Active,,,https://www.redfin.com/IN/Fort-Wayne/436-W-Williams-St-46802/home/116246256,IRMLS,202524897,N,Y,41.0674924,-85.1441303
MLS Listing,,Single Family Residential,4525 Laghi Pass,Fort Wayne,IN,46818,354900,4,2.5,Shadowood Lakes,2142,7710,2025,25,166,42,Active,,,https://www.redfin.com/IN/Fort-Wayne/4525-Laghi-PASS-46818/home/196278495,IRMLS,202526097,N,Y,41.155957,-85.200792
MLS Listing,,Condo/Co-op,6719 W Canal Pointe Ln,Fort Wayne,IN,46804,419900,3,2.5,Hamlets of Woodland Ridge,3567,8276,1987,25,118,290,Active,August-3-2025 02:00 PM,August-3-2025 04:00 PM,https://www.redfin.com/IN/Fort-Wayne/6719-W-Canal-Pointe-Ln-46804/home/116020208,IRMLS,202526090,N,Y,41.021215,-85.2654764
MLS Listing,,Single Family Residential,2719 Belfast Dr,Fort Wayne,IN,46805,185000,3,1.0,Brent Wood / Brentwood,1120,7841,1959,25,165,,Active,,,https://www.redfin.com/IN/Fort-Wayne/2719-Belfast-Dr-46805/home/114595218,IRMLS,202526082,N,Y,41.1018559,-85.0933092
MLS Listing,,Single Family Residential,13244 Watling Path,Fort Wayne,IN,46818,474900,4,2.5,Silverstone Estates,2279,14113,2025,25,208,38,Active,,,https://www.redfin.com/IN/Fort-Wayne/13244-Watling-Path-46818/home/196278201,IRMLS,202526079,N,Y,41.204715,-85.2055139
MLS Listing,,Single Family Residential,13178 Watling Path,Fort Wayne,IN,46818,484900,3,2.5,Silverstone Estates,2050,13068,2025,25,237,38,Active,,,https://www.redfin.com/IN/Fort-Wayne/13178-Watling-Path-46818/home/196278015,IRMLS,202526076,N,Y,41.204057,-85.205478
MLS Listing,,Single Family Residential,6135 Chapel Pines Run,Fort Wayne,IN,46804,260000,3,2.0,Glens of Liberty Mills,1630,10890,1991,25,160,,Active,August-2-2025 01:00 PM,August-2-2025 03:00 PM,https://www.redfin.com/IN/Fort-Wayne/6135-Chapel-Pines-Run-46804/home/115276325,IRMLS,202524384,N,Y,41.0265009,-85.2749227
MLS Listing,,Single Family Residential,2212 Stonebriar Rd,Fort Wayne,IN,46814,518200,4,2.5,Bridgewater,3455,16117,1996,25,150,20,Active,,,https://www.redfin.com/IN/Fort-Wayne/2212-Stonebriar-Rd-46814/home/115341136,IRMLS,202526050,N,Y,41.063705,-85.3284225
MLS Listing,,Single Family Residential,714 W Wildwood Ave,Fort Wayne,IN,46807,234900,3,3.0,Nindes,2498,5663,1926,25,94,,Active,,,https://www.redfin.com/IN/Fort-Wayne/714-W-Wildwood-Ave-46807/home/115083595,IRMLS,202525019,N,Y,41.0570827,-85.1479162
MLS Listing,,Single Family Residential,10538 Fieldlight Blvd,Fort Wayne,IN,46835,299000,3,2.0,Lakes at Woodfield,1260,6534,2021,25,237,33,Active,,,https://www.redfin.com/IN/Fort-Wayne/10538-Fieldlight-Blvd-46835/home/179919470,IRMLS,202525744,N,Y,41.153647,-85.007981
MLS Listing,,Mobile/Manufactured Home,6811 Kensington Dr E,Fort Wayne,IN,46818,59900,3,2.0,No Subdivision,1848,,1999,26,32,,Active,,,https://www.redfin.com/IN/Fort-Wayne/6811-Kensington-Dr-E-46818/home/196128216,MIBOR as Distributed by MLS Grid,22045857,N,Y,41.1415094,-85.1979214
MLS Listing,,Single Family Residential,4631 Parkerdale Dr,Fort Wayne,IN,46835,239900,3,2.0,Parkerdale,1641,20038,1961,26,146,,Active,,,https://www.redfin.com/IN/Fort-Wayne/4631-Parkerdale-Dr-46835/home/114579189,IRMLS,202522188,N,Y,41.1458917,-85.0864264
MLS Listing,,Single Family Residential,12506 Ivanhoe Ln,Fort Wayne,IN,46814,300000,4,2.5,Amber Highlands,2026,7841,2004,26,148,17,Active,,,https://www.redfin.com/IN/Fort-Wayne/12506-Ivanhoe-Ln-46814/home/116176549,IRMLS,202525924,N,Y,41.0181361,-85.3041027
MLS Listing,,Single Family Residential,6804 Richfield Ct,Fort Wayne,IN,46816,259900,4,2.5,Crown Colony,2088,15246,1989,27,124,3,Active,,,https://www.redfin.com/IN/Fort-Wayne/6804-Richfield-Ct-46816/home/116590405,IRMLS,202523625,N,Y,41.0240184,-85.0775805
MLS Listing,,Single Family Residential,404 Troon Way,Fort Wayne,IN,46845,454900,4,2.5,Eagle Lake,3456,13504,1994,27,132,25,Active,,,https://www.redfin.com/IN/Fort-Wayne/404-Troon-Way-46845/home/116222608,IRMLS,202525889,N,Y,41.1853951,-85.1385308
MLS Listing,,Single Family Residential,9028 Hickory Knoll Blvd,Fort Wayne,IN,46825,300000,3,2.5,Hickory Hill(s),2085,9583,1993,28,144,13,Active,,,https://www.redfin.com/IN/Fort-Wayne/9028-Hickory-Knoll-Blvd-46825/home/115522965,IRMLS,202525949,N,Y,41.1645605,-85.1554995
MLS Listing,,Single Family Residential,1419 Codorna Cv,Fort Wayne,IN,46804,359900,3,2.0,Quail Commons,1537,6098,2023,28,234,83,Active,August-2-2025 01:00 PM,August-2-2025 03:00 PM,https://www.redfin.com/IN/Fort-Wayne/1419-Codorna-Cv-46804/home/175210473,IRMLS,202525938,N,Y,41.0720224,-85.255813
MLS Listing,,Single Family Residential,882 Bingham Pass,Fort Wayne,IN,46845,389900,3,2.0,Ridgewood at Copper Creek,1847,10890,2023,29,211,50,Active,,,https://www.redfin.com/IN/Fort-Wayne/882-Bingham-Pass-46845/home/179908212,IRMLS,202525913,N,Y,41.217261,-85.161761
MLS Listing,,Single Family Residential,2606 Lynn Ave,Fort Wayne,IN,46805,139900,2,1.0,Grasmere Heights,700,4792,1945,29,200,,Active,,,https://www.redfin.com/IN/Fort-Wayne/2606-Lynn-Ave-46805/home/114917063,IRMLS,202525891,N,Y,41.0979149,-85.1056238
MLS Listing,,Condo/Co-op,5937 Sawmill Woods Ct Ct,Fort Wayne,IN,46835,205000,2,1.5,Sawmill Woods,1692,,1984,29,121,210,Active,,,https://www.redfin.com/IN/Fort-Wayne/5937-Sawmill-Woods-Ct-46835/home/115102050,IRMLS,202525887,N,Y,41.1351939,-85.0875506
MLS Listing,,Single Family Residential,332 W Creighton Ave,Fort Wayne,IN,46807,167900,3,2.0,Fox(s),1440,3049,1900,29,117,,Active,,,https://www.redfin.com/IN/Fort-Wayne/332-W-Creighton-Ave-46807/home/114641455,IRMLS,202525884,N,Y,41.0644335,-85.1421078
MLS Listing,,Single Family Residential,3141 Broadway St,Fort Wayne,IN,46807,34900,3,1.5,W J & M S Veseys,1481,6534,1910,29,24,,Active,,,https://www.redfin.com/IN/Fort-Wayne/3141-Broadway-46807/home/116585193,IRMLS,202525872,N,Y,41.056373,-85.1543976
MLS Listing,,Single Family Residential,11940 Tapered Bank Run,Fort Wayne,IN,46818,449500,3,2.5,Bluffs of Carroll Creek,2002,9583,2025,29,225,33,Active,,,https://www.redfin.com/IN/Fort-Wayne/11940-Tapered-Bank-Run-46818/home/181856667,IRMLS,202525815,N,Y,41.1924487,-85.1855018
MLS Listing,,Single Family Residential,13725 Lurrey Pass,Fort Wayne,IN,46845,899000,6,4.0,Hawthorne Park Estates,5092,19166,2012,29,177,63,Active,,,https://www.redfin.com/IN/Fort-Wayne/13725-Lurrey-Pass-46845/home/116329408,IRMLS,202525812,N,Y,41.2101334,-85.0900161
MLS Listing,,Single Family Residential,4215 Arrow Dr,Fort Wayne,IN,46809,289900,3,2.0,Arrow,2264,13504,1959,29,128,,Active,,,https://www.redfin.com/IN/Fort-Wayne/4215-Arrow-Dr-46809/home/114873387,IRMLS,202525801,N,Y,41.0452209,-85.1702005
MLS Listing,,Single Family Residential,7101 Melody Ln,Fort Wayne,IN,46804,,3,2.5,Brierwood Hills,1710,24829,1979,29,,6,Active,August-5-2025 01:00 PM,August-5-2025 02:00 PM,https://www.redfin.com/IN/Fort-Wayne/7101-Melody-Ln-46804/home/116381617,IRMLS,202525800,N,Y,41.0560497,-85.2338951
