SALE TYPE,SOLD DATE,PROPERTY TYPE,ADDRESS,CITY,STATE OR PROVINCE,ZIP OR POSTAL CODE,PRICE,BEDS,BATHS,LOCATION,SQUARE FEET,LOT SIZE,YEAR BUILT,DAYS ON MARKET,$/SQUARE FEET,HOA/MONTH,STATUS,NEXT OPEN HOUSE START TIME,NEXT OPEN HOUSE END TIME,URL (SEE https://www.redfin.com/buy-a-home/comparative-market-analysis FOR INFO ON PRICING),SOURCE,MLS#,FAVORITE,INTERESTED,LATITUDE,LONGITUDE
"In accordance with local MLS rules, some MLS listings are not included in the download"
MLS Listing,,Single Family Residential,622 Sterling Dr,Cheyenne,WY,82009,740000,4,3.0,WESTERN HILLS N,3982,12632,2003,1,186,,Active,,,https://www.redfin.com/WY/Cheyenne/622-Sterling-Dr-82009/home/134928865,CBR,98029,N,Y,41.1927814,-104.8402861
MLS Listing,,Single Family Residential,848 Custer St,Cheyenne,WY,82009,529000,5,3.0,WESTERN HILLS,3947,13939,1965,1,134,,Active,,,https://www.redfin.com/WY/Cheyenne/848-Custer-St-82009/home/135057005,CBR,98028,N,Y,41.1762187,-104.8449299
MLS Listing,,Single Family Residential,5117 Lasso Dr,Cheyenne,WY,82009,756000,4,3.0,WHITNEY RANCH,3971,7841,2025,1,190,,Active,August-1-2025 05:00 PM,August-1-2025 07:00 PM,https://www.redfin.com/WY/Cheyenne/5117-Lasso-Dr-82009/home/181980462,CBR,98027,N,Y,41.38312,-104.878302
MLS Listing,,Single Family Residential,7207 Willshire Blvd,Cheyenne,WY,82009,390000,5,2.0,MONTEREY HTS,1876,10019,1963,1,208,,Active,,,https://www.redfin.com/WY/Cheyenne/7207-Willshire-Blvd-82009/home/134985070,CBR,98026,N,Y,41.183066,-104.8177147
MLS Listing,,Single Family Residential,2387 Silver Gate Way,Cheyenne,WY,82009,619000,3,2.0,YELLOWSTONE ESTATES,3326,215186,2021,1,186,,Active,August-2-2025 01:00 PM,August-2-2025 03:00 PM,https://www.redfin.com/WY/Cheyenne/2387-Silver-Gate-Way-82009/home/179126162,CBR,98024,N,Y,41.3325563,-104.8300753
MLS Listing,,Single Family Residential,2132 Goodnight Trl,Cheyenne,WY,82007,489000,5,3.0,SWEETGRASS,2280,8276,2020,1,214,,Active,August-3-2025 12:30 PM,August-3-2025 02:00 PM,https://www.redfin.com/WY/Cheyenne/2132-Goodnight-Trl-82007/home/172636600,CBR,98023,N,Y,41.0986957,-104.7858924
MLS Listing,,Single Family Residential,Tract 2 Glencoe Dr,Cheyenne,WY,82009,725000,3,2.0,MEADOWLARK RIDGE ESTATES,3616,200812,2025,1,200,,Active,,,https://www.redfin.com/WY/Cheyenne/Tract-2-Glencoe-Dr-82009/home/196774997,CBR,98022,N,Y,41.1787128431985,-104.656401773834
MLS Listing,,Single Family Residential,312 E Pershing Blvd,Cheyenne,WY,82001,364900,3,2.0,PERSHING HTS,2397,5227,1921,1,152,,Active,,,https://www.redfin.com/WY/Cheyenne/312-E-Pershing-Blvd-82001/home/134816308,CBR,98021,N,Y,41.1462116,-104.8191028
MLS Listing,,Single Family Residential,1408 Columbine Ct,Cheyenne,WY,82001,355000,5,2.0,GRANDVIEW ESTAT,2000,7841,1971,1,178,,Active,August-2-2025 10:00 AM,August-2-2025 12:00 PM,https://www.redfin.com/WY/Cheyenne/1408-Columbine-Ct-82001/home/134731219,CBR,98020,N,Y,41.1390355,-104.7526181
MLS Listing,,Single Family Residential,511 Montclair Dr,Cheyenne,WY,82009,389000,4,2.0,MONTEREY HTS,1783,6970,1975,1,218,,Active,August-2-2025 11:00 AM,August-2-2025 01:00 PM,https://www.redfin.com/WY/Cheyenne/511-Montclair-Dr-82009/home/134975352,CBR,98019,N,Y,41.1786956,-104.8211027
MLS Listing,,Single Family Residential,1101 Prairie Ave,Cheyenne,WY,82009,329000,3,2.0,NIMMO ADD,1920,6970,1959,1,171,,Active,,,https://www.redfin.com/WY/Cheyenne/1101-Prairie-Ave-82009/home/134945271,CBR,98017,N,Y,41.163845,-104.8109211
MLS Listing,,Single Family Residential,3410 Duff Ave,Cheyenne,WY,82001,339000,3,2.0,BLACKS REPLAT,1564,5663,1950,1,217,,Active,August-2-2025 01:00 PM,August-2-2025 02:30 PM,https://www.redfin.com/WY/Cheyenne/3410-Duff-Ave-82001/home/134843543,CBR,98016,N,Y,41.1474731,-104.807483
MLS Listing,,Single Family Residential,1212 Dodge Ct,Cheyenne,WY,82001,298300,2,1.0,PARK ADD,1608,4792,1917,1,186,,Active,August-2-2025 11:00 AM,August-2-2025 01:00 PM,https://www.redfin.com/WY/Cheyenne/1212-Dodge-Ct-82001/home/134998096,CBR,98013,N,Y,41.1406025,-104.8346122
MLS Listing,,Single Family Residential,8500 Beckle Rd,Cheyenne,WY,82009,605000,4,3.0,STONE RIDGE EST,3002,173369,2005,1,202,,Active,August-2-2025 10:00 AM,August-2-2025 12:00 PM,https://www.redfin.com/WY/Cheyenne/8500-Beckle-Rd-82009/home/134685395,CBR,98012,N,Y,41.1746369,-104.706694
MLS Listing,,Single Family Residential,1702 Newton Dr,Cheyenne,WY,82001,460000,3,3.0,EASTRIDGE,2608,11326,1957,1,176,,Active,August-2-2025 12:30 PM,August-2-2025 02:00 PM,https://www.redfin.com/WY/Cheyenne/1702-Newton-Dr-82001/home/134709876,CBR,98011,N,Y,41.1505296,-104.8006527
MLS Listing,,Single Family Residential,811 West Dale Blvd,Cheyenne,WY,82009,698000,4,4.0,WESTERN HILLS N,4054,16117,2005,1,172,,Active,,,https://www.redfin.com/WY/Cheyenne/811-W-Dale-Blvd-82009/home/135002763,CBR,98009,N,Y,41.1905039,-104.8445271
MLS Listing,,Single Family Residential,5001 Phoenix Dr,Cheyenne,WY,82001,435000,4,2.5,SUN VALLEY ADD,2148,9583,2003,1,203,,Active,,,https://www.redfin.com/WY/Cheyenne/5001-Phoenix-Dr-82001/home/134767135,CBR,98006,N,Y,41.1306909,-104.7492152
MLS Listing,,Single Family Residential,3317 Dey Ave,Cheyenne,WY,82001,405000,4,2.0,CAPITAL HTS ADD,1796,6970,1927,1,226,,Active,,,https://www.redfin.com/WY/Cheyenne/3317-Dey-Ave-82001/home/134841711,CBR,98007,N,Y,41.1466231,-104.8338706
MLS Listing,,Vacant Land,Tract 3 Four Mile Rd,Cheyenne,WY,82001,127000,,,FOUR MILE MEADOWS,,228690,,1,,,Active,,,https://www.redfin.com/WY/Cheyenne/3-E-Four-Mile-Rd-82009/home/187933472,CBR,98005,N,Y,41.1893793,-104.8282503
MLS Listing,,Vacant Land,Tract 2 Four Mile Rd,Cheyenne,WY,82001,127000,,,FOUR MILE MEADOWS,,228690,,1,,,Active,,,https://www.redfin.com/WY/Cheyenne/2-E-Four-Mile-Rd-82009/home/187933976,CBR,98004,N,Y,41.1899273,-104.828256
MLS Listing,,Vacant Land,Tract 1 Four Mile Rd,Cheyenne,WY,82001,127000,,,FOUR MILE MEADOWS,,228690,,1,,,Active,,,https://www.redfin.com/WY/Cheyenne/Tract-1-Four-Mile-Rd-82009/home/187934000,CBR,98003,N,Y,41.1877867731547,-104.688291033331
MLS Listing,,Single Family Residential,3603 Storey Blvd,Cheyenne,WY,82009,424999,4,2.0,DELL RANGE ADD,2496,18295,1980,2,170,,Active,,,https://www.redfin.com/WY/Cheyenne/3603-Storey-Blvd-82009/home/134819223,CBR,98000,N,Y,41.1741113,-104.7656995
MLS Listing,,Single Family Residential,2812 Bent Ave,Cheyenne,WY,82009,307000,3,1.0,CITY OF CHEYENNE,1742,,1920,2,176,,Active,,,https://www.redfin.com/WY/Cheyenne/2812-Bent-Ave-82001/home/134811180,CBR,97999,N,Y,41.1416904,-104.8284472
MLS Listing,,Vacant Land,Lot 1 & 2 W 5th St,Cheyenne,WY,82007,160000,,,ROBERTS PLACE,,13068,,2,,,Active,,,https://www.redfin.com/WY/Cheyenne/Lot-1-2-W-5th-St-82007/home/196700271,CBR,97998,N,Y,41.1210849345158,-104.815832753574
MLS Listing,,Townhouse,4706 E 13th St,Cheyenne,WY,82001,295000,3,2.0,GRANDVIEW PARK,1376,3049,1970,2,214,,Active,,,https://www.redfin.com/WY/Cheyenne/4706-E-13th-St-82001/home/134720061,CBR,97997,N,Y,41.1380539,-104.7537849
MLS Listing,,Mobile/Manufactured Home,400 Avenue C,Cheyenne,WY,82007,250000,3,2.0,TYLER HOMES,1184,19166,1979,2,211,,Active,,,https://www.redfin.com/WY/Cheyenne/400-Avenue-C-82007/home/134674839,CBR,97996,N,Y,41.1141564,-104.7903168
MLS Listing,,Single Family Residential,10004 E Milliron Rd,Cheyenne,WY,82009,599999,4,3.0,QUARTER CIRCLE,2880,191228,1994,2,208,,Active,August-3-2025 02:30 PM,August-3-2025 04:00 PM,https://www.redfin.com/WY/Cheyenne/10004-E-Milliron-Rd-82009/home/135055827,CBR,97995,N,Y,41.2102633,-104.9078579
MLS Listing,,Single Family Residential,6908 Laramie St,Cheyenne,WY,82001,499900,4,3.0,SADDLE RIDGE,2436,9148,2011,2,205,,Active,,,https://www.redfin.com/WY/Cheyenne/6908-Laramie-St-82001/home/135084367,CBR,97994,N,Y,41.1515458,-104.7253174
MLS Listing,,Mobile/Manufactured Home,TBD Spring Creek Rd,Cheyenne,WY,82009,524900,3,2.0,SPRING CREEK RA,1493,202118,2025,3,352,,Active,,,https://www.redfin.com/WY/Unknown/TBD-Spring-Creek-Rd-82009/home/187935447,CBR,97992,N,Y,41.253014,-105.09497
MLS Listing,,Townhouse,6031 Atlantic Dr,Cheyenne,WY,82001,299900,3,2.0,SUN VALLEY ADD,1028,3920,1999,3,292,,Active,,,https://www.redfin.com/WY/Cheyenne/6031-Atlantic-Dr-82001/home/135088157,CBR,97991,N,Y,41.1346368,-104.7391281
MLS Listing,,Single Family Residential,103 E 6th Ave,Cheyenne,WY,82001,285000,3,2.0,PERSHING HTS,1728,4792,1938,3,165,,Active,,,https://www.redfin.com/WY/Cheyenne/103-E-6th-Ave-82001/home/196685923,CBR,97986,N,Y,41.1511848,-104.8221767
MLS Listing,,Townhouse,6700 Paradise Pointe,Cheyenne,WY,82009,600000,4,3.0,"POINTE, THE",3336,8276,2010,3,180,,Active,August-2-2025 10:00 AM,August-2-2025 01:00 PM,https://www.redfin.com/WY/Cheyenne/6700-Paradise-Pointe-82009/home/134677411,CBR,97984,N,Y,41.1785688,-104.8129994
MLS Listing,,Single Family Residential,2640 Sagebrush Ave,Cheyenne,WY,82009,415000,3,2.0,BLUFFS THE,1840,9583,1986,3,226,,Active,,,https://www.redfin.com/WY/Cheyenne/2640-Sagebrush-Ave-82009/home/134684443,CBR,97985,N,Y,41.1689924,-104.7776728
MLS Listing,,Single Family Residential,7353 Huntz Dr,Cheyenne,WY,82009,795000,6,3.5,"POINTE, THE",4441,12197,2005,3,179,,Active,,,https://www.redfin.com/WY/Cheyenne/7353-Huntz-Dr-82009/home/134873981,CBR,97982,N,Y,41.1860261,-104.8128651
MLS Listing,,Single Family Residential,9225 James Cole Ct,Cheyenne,WY,82009,599900,4,3.5,PRAIRIE SKY ESTATES,2919,216493,2011,3,206,,Active,,,https://www.redfin.com/WY/Cheyenne/9225-James-Cole-Ct-82009/home/134809776,CBR,97981,N,Y,41.1842675,-104.6986007
MLS Listing,,Single Family Residential,4120 Sage Rd,Cheyenne,WY,82001,635000,4,3.0,SADDLE RIDGE,3254,10019,2022,3,195,,Active,,,https://www.redfin.com/WY/Cheyenne/4120-Sage-Rd-82001/home/172635312,CBR,97980,N,Y,41.1550925,-104.7198525
MLS Listing,,Single Family Residential,1102 Dusty Rd,Cheyenne,WY,82009,1099000,5,4.5,HAPPY JACK RANC,4138,871200,2019,3,266,,Active,,,https://www.redfin.com/WY/Cheyenne/1102-Dusty-Rd-82009/home/165512430,CBR,97978,N,Y,41.173474,-105.076711
MLS Listing,,Single Family Residential,6901 Mckenzie Loop,Cheyenne,WY,82009,550000,5,3.0,STONE RIDGE EST,2684,180338,2005,3,205,,Active,,,https://www.redfin.com/WY/Cheyenne/6901-McKenzie-Loop-82009/home/134878103,CBR,97979,N,Y,41.1822184,-104.7066149
MLS Listing,,Vacant Land,TBD Kepler Dr,Cheyenne,WY,82009,189000,,,FOUR MILE RANCH,,166399,,3,,,Active,,,https://www.redfin.com/WY/Cheyenne/TBD-Kepler-Dr-82009/home/196684121,CBR,97977,N,Y,41.2488645320817,-104.828942915344
MLS Listing,,Single Family Residential,4218 el Camino Dr,Cheyenne,WY,82001,395000,5,2.5,VALLEY VISTA,2024,7405,1984,3,195,,Active,August-2-2025 12:00 PM,August-2-2025 01:30 PM,https://www.redfin.com/WY/Cheyenne/4218-El-Camino-Dr-82001/home/134673973,CBR,97976,N,Y,41.1563615,-104.7442778
MLS Listing,,Single Family Residential,8007 Kepler Dr,Cheyenne,WY,82009,699000,5,3.5,FOUR MILE RANCH,3784,200376,1995,3,185,,Active,August-2-2025 12:30 PM,August-2-2025 01:30 PM,https://www.redfin.com/WY/Cheyenne/8007-Kepler-Dr-82009/home/134766611,CBR,97975,N,Y,41.1922909,-104.8048511
MLS Listing,,Single Family Residential,2510 Wind River Trl,Cheyenne,WY,82009,875000,5,3.0,MUSTANG RIDGE,4238,143312,2003,3,206,,Active,August-2-2025 10:00 AM,August-2-2025 11:30 AM,https://www.redfin.com/WY/Cheyenne/2510-Wind-River-Trl-82009/home/134921986,CBR,97974,N,Y,41.1863785,-104.7830205
MLS Listing,,Single Family Residential,139 Bear River Ave,Cheyenne,WY,82007,365000,3,2.0,HIGHLAND VILLAG,2576,6098,2003,3,142,,Active,,,https://www.redfin.com/WY/Cheyenne/139-Bear-River-Ave-82007/home/134851463,CBR,97973,N,Y,41.1180675,-104.7929128
MLS Listing,,Single Family Residential,3644 Sky Valley Rd,Cheyenne,WY,82009,899000,5,3.5,SKY VALLEY ESTATES,5684,348044,2025,3,158,,Active,,,https://www.redfin.com/WY/Cheyenne/3644-Sky-Valley-Rd-82009/home/191521282,CBR,97971,N,Y,41.226438,-104.589313
MLS Listing,,Townhouse,5715 Lakota Ln,Cheyenne,WY,82009,460000,3,3.5,"MEADOWS, THE",2858,2178,1994,3,161,,Active,,,https://www.redfin.com/WY/Cheyenne/5715-Lakota-Ln-82009/home/134683537,CBR,97970,N,Y,41.1717228,-104.8168144
MLS Listing,,Single Family Residential,7500 Legacy Pkwy,Cheyenne,WY,82009,682000,4,3.0,"POINTE, THE",3780,13504,2007,3,180,,Active,August-2-2025 10:00 AM,August-2-2025 11:00 AM,https://www.redfin.com/WY/Cheyenne/7500-Legacy-Pkwy-82009/home/134872507,CBR,97969,N,Y,41.187222,-104.8147301
MLS Listing,,Single Family Residential,945 Melton St,Cheyenne,WY,82009,510000,5,3.0,INDIAN HILLS,3866,8712,1960,3,132,,Active,August-2-2025 10:00 AM,August-2-2025 11:30 AM,https://www.redfin.com/WY/Cheyenne/945-Melton-St-82009/home/135049328,CBR,97968,N,Y,41.1674367,-104.8118896
MLS Listing,,Single Family Residential,11107 Stadel Rd,Cheyenne,WY,82009,779000,5,3.0,STADEL SUBDIVISION,3458,210830,2022,4,225,,Active,,,https://www.redfin.com/WY/Cheyenne/11107-Stadel-Rd-82009/home/181979685,CBR,97967,N,Y,41.1781582,-104.6755085
MLS Listing,,Single Family Residential,816 Oakhurst Dr,Cheyenne,WY,82009,555000,5,3.0,WESTERN HILLS,3291,10019,1986,4,169,,Active,,,https://www.redfin.com/WY/Cheyenne/816-Oakhurst-Dr-82009/home/134999100,CBR,97966,N,Y,41.1878732,-104.8447838
MLS Listing,,Single Family Residential,4800 Ranch House Way,Cheyenne,WY,82001,424900,3,3.0,CHEYENNE RANCH,2532,6970,2002,4,168,,Active,August-2-2025 12:00 PM,August-2-2025 01:30 PM,https://www.redfin.com/WY/Cheyenne/4800-Ranch-House-Way-82001/home/134784306,CBR,97965,N,Y,41.1426855,-104.7526636
MLS Listing,,Single Family Residential,1528 Tko Ranch Rd,Cheyenne,WY,82009,795000,5,3.0,TKO Ranch,3202,189050,2020,4,248,,Active,,,https://www.redfin.com/WY/Cheyenne/1528-Tko-Ranch-Rd-82009/home/172636713,CBR,97964,N,Y,41.2209781,-104.566644
MLS Listing,,Vacant Land,TBD Bade Rd,Cheyenne,WY,82009,175000,,,Cheyenne,,762300,,4,,,Active,,,https://www.redfin.com/WY/Unknown/TBD-Bade-Rd-82009/home/188685835,CBR,97963,N,Y,41.2488,-104.8289
MLS Listing,,Single Family Residential,4904 Topaz Dr,Cheyenne,WY,82009,515000,4,4.5,CROWN,2700,6098,2010,5,191,,Active,August-2-2025 10:00 AM,August-2-2025 11:30 AM,https://www.redfin.com/WY/Cheyenne/4904-Topaz-Dr-82009/home/134786828,CBR,97958,N,Y,41.162324,-104.7514794
MLS Listing,,Single Family Residential,5130 Roundtop Dr,Cheyenne,WY,82009,450000,4,3.0,CENTURY WEST,2112,9583,1979,6,213,,Active,,,https://www.redfin.com/WY/Cheyenne/5130-Roundtop-Dr-82009/home/134965496,CBR,97956,N,Y,41.1653993,-104.7835639
MLS Listing,,Single Family Residential,2553 Wildhorse Trl,Cheyenne,WY,82009,899000,5,3.5,MUSTANG RIDGE,3984,65340,1995,7,226,,Active,August-2-2025 12:00 PM,August-2-2025 01:30 PM,https://www.redfin.com/WY/Cheyenne/2553-Wildhorse-Trl-82009/home/134853869,CBR,97954,N,Y,41.1760609,-104.780928
MLS Listing,,Single Family Residential,2128 Goodnight Trl,Cheyenne,WY,82007,489900,5,3.0,SWEETGRASS,2332,7841,2021,7,210,,Active,,,https://www.redfin.com/WY/Cheyenne/2128-Goodnight-Trl-82007/home/172636599,CBR,97952,N,Y,41.0987595,-104.785681
MLS Listing,,Condo/Co-op,109 E 17th St #303,Cheyenne,WY,82001,220000,1,1.0,GREENWAY CONDOMINIUMS,1021,,1924,7,215,,Active,,,https://www.redfin.com/WY/Cheyenne/109-E-17th-St-82001/unit-303/home/196614178,CBR,97947,N,Y,41.1339505,-104.8143179
MLS Listing,,Single Family Residential,1869 Cherry Ct,Cheyenne,WY,82001,300000,4,2.0,MOUNTVIEW PARK,1452,6098,1950,7,207,,Active,,,https://www.redfin.com/WY/Cheyenne/1869-Cherry-Ct-82001/home/135050933,CBR,97948,N,Y,41.1442182,-104.7855432
MLS Listing,,Single Family Residential,254 Rocky Rd,Cheyenne,WY,82009,685000,2,2.0,PINE GROVE ESTA,1209,260924,1979,7,567,,Active,,,https://www.redfin.com/WY/Cheyenne/254-Rocky-Rd-82009/home/135027121,CBR,97945,N,Y,41.1497199,-105.2395254
MLS Listing,,Single Family Residential,3333 Duff Ave,Cheyenne,WY,82001,295000,3,2.0,BLACKS REPLAT,1536,,1949,7,192,,Active,August-2-2025 01:00 PM,August-2-2025 03:00 PM,https://www.redfin.com/WY/Cheyenne/3333-Duff-Ave-82001/home/134686876,CBR,97942,N,Y,41.1470545,-104.8069545
MLS Listing,,Single Family Residential,1111 Verlan Way,Cheyenne,WY,82009,665000,5,3.0,THE PRESERVE AT HUMPHREY FARMS,2710,310583,2013,8,245,,Active,August-2-2025 10:30 AM,August-2-2025 12:00 PM,https://www.redfin.com/WY/Cheyenne/1111-Verlan-Way-82009/home/134993121,CBR,97941,N,Y,41.1630318,-104.6278172
MLS Listing,,Single Family Residential,1813 Newton Dr,Cheyenne,WY,82001,350000,4,2.0,EASTRIDGE,1776,7841,1955,8,197,,Active,August-2-2025 10:30 AM,August-2-2025 12:00 PM,https://www.redfin.com/WY/Cheyenne/1813-Newton-Dr-82001/home/134957300,CBR,97940,N,Y,41.1483026,-104.7976426
MLS Listing,,Single Family Residential,5139 Syracuse Rd,Cheyenne,WY,82009,310000,3,2.0,INDIAN HILLS,2124,7841,1959,8,146,,Active,August-2-2025 11:00 AM,August-2-2025 12:30 PM,https://www.redfin.com/WY/Cheyenne/5139-Syracuse-Rd-82009/home/135042510,CBR,97939,N,Y,41.166135,-104.8131096
MLS Listing,,Single Family Residential,3078 Homestead Ave,Cheyenne,WY,82001,287500,3,1.0,HOMESTEAD ADD,1217,6098,1960,8,236,,Active,,,https://www.redfin.com/WY/Cheyenne/3078-Homestead-Ave-82001/home/135021396,CBR,97938,N,Y,41.1309105,-104.772992
MLS Listing,,Vacant Land,Tract 3 Road 217,Cheyenne,WY,82009,240000,,,KOUGL RANCH,,208652,,8,,,Active,,,https://www.redfin.com/WY/Cheyenne/Tract-3-Road-217-Unknown/home/196574311,CBR,97934,N,Y,41.247896544164,-104.831560751343
MLS Listing,,Single Family Residential,248 F Quarter Circle Loop,Cheyenne,WY,82007,630000,6,3.0,COWBOY RANCH SOUTH,2766,385506,2017,8,228,,Active,,,https://www.redfin.com/WY/Cheyenne/248-F-Quarter-Circle-Loop-82007/home/146366156,CBR,97932,N,Y,41.0344358,-104.7675561
MLS Listing,,Single Family Residential,5604 Opal Dr,Cheyenne,WY,82009,729000,5,3.0,WHITNEY RANCH,3944,7841,2021,9,185,,Active,,,https://www.redfin.com/WY/Cheyenne/5604-Opal-Dr-82009/home/168770107,CBR,97931,N,Y,41.1623423,-104.7417057
MLS Listing,,Townhouse,722 Mylar Park Dr,Cheyenne,WY,82009,405000,3,3.0,DRY CREEK NORTH,2392,5227,1986,9,169,,Active,,,https://www.redfin.com/WY/Cheyenne/722-Mylar-Park-Dr-82009/home/134766357,CBR,97930,N,Y,41.1670639,-104.8161774
MLS Listing,,Vacant Land,Tract 291 Boundary Rd,Cheyenne,WY,82009,135000,,,HAPPY VALLEY,,270072,,9,,,Active,,,https://www.redfin.com/WY/Unknown/Tract-291-Boundary-Rd-82009/home/192023546,CBR,97929,N,Y,41.1321478690344,-105.040358477783
MLS Listing,,Single Family Residential,7610 Santa Marie Dr,Cheyenne,WY,82009,575000,4,2.0,MONTEREY RANCHE,2312,78408,1976,9,249,,Active,,,https://www.redfin.com/WY/Cheyenne/7610-Santa-Marie-Dr-82009/home/134897394,CBR,97927,N,Y,41.1888885,-104.8222743
MLS Listing,,Single Family Residential,17415 Anna Loop,Cheyenne,WY,82009,615000,6,3.0,CARDINAL ESTATES,2912,245678,2007,9,211,,Active,August-3-2025 10:00 AM,August-3-2025 11:30 AM,https://www.redfin.com/WY/Cheyenne/17415-Anna-Loop-82009/home/135090244,CBR,97926,N,Y,41.1660405,-104.6571761
MLS Listing,,Townhouse,6708 Peace Pointe,Cheyenne,WY,82009,550000,4,3.0,"POINTE, THE",3124,6970,2014,10,176,,Active,,,https://www.redfin.com/WY/Cheyenne/6708-Peace-Pointe-82009/home/135160389,CBR,97921,N,Y,41.179002,-104.812472
MLS Listing,,Single Family Residential,1982 Chugwater Dr,Cheyenne,WY,82009,450000,3,2.0,FEDERROSA RANCH,1500,286625,1997,10,300,,Active,,,https://www.redfin.com/WY/Cheyenne/1982-Chugwater-Dr-82009/home/134900391,CBR,97919,N,Y,41.2899326,-104.9108314
MLS Listing,,Single Family Residential,11308 Raymond Rd,Cheyenne,WY,82009,749900,5,3.0,WESTEDT MEADOWS,3492,213880,2021,10,215,,Active,,,https://www.redfin.com/WY/Cheyenne/11308-Raymond-Rd-82009/home/172636791,CBR,97918,N,Y,41.1676552,-104.6727851
MLS Listing,,Single Family Residential,1348 Jack Ln,Cheyenne,WY,82009,537900,5,3.0,"POINTE, THE",3476,6098,2020,10,155,,Active,,,https://www.redfin.com/WY/Cheyenne/1348-Jack-Ln-82009/home/168769752,CBR,97915,N,Y,41.1866842,-104.802462
MLS Listing,,Single Family Residential,721 Arapaho St,Cheyenne,WY,82009,399000,5,2.0,INDIAN HILLS,2494,9148,1961,11,160,,Active,August-2-2025 12:30 PM,August-2-2025 02:00 PM,https://www.redfin.com/WY/Cheyenne/721-Arapaho-St-82009/home/134710379,CBR,97912,N,Y,41.1701415,-104.8175717
MLS Listing,,Single Family Residential,6829 Hitching Post Ln,Cheyenne,WY,82001,488000,3,2.0,SADDLE RIDGE,2897,7841,2011,11,168,,Active,,,https://www.redfin.com/WY/Cheyenne/6829-Hitching-Post-Ln-82001/home/134797899,CBR,97911,N,Y,41.1502419,-104.7265932
MLS Listing,,Condo/Co-op,636 Western Hills Blvd Unit B,Cheyenne,WY,82009,260000,2,1.0,CHATEAU DES COL,1102,23087,1972,11,236,,Active,,,https://www.redfin.com/WY/Cheyenne/636-Western-Hills-Blvd-82009/unit-B/home/135072679,CBR,97910,N,Y,41.175253,-104.8400518
MLS Listing,,Single Family Residential,8382 Arrow Wood Ln,Cheyenne,WY,82009,695000,5,4.0,INDIAN PAINTBRU,4201,200812,2003,11,165,,Active,August-3-2025 11:00 AM,August-3-2025 12:30 PM,https://www.redfin.com/WY/Cheyenne/8382-Arrow-Wood-Ln-82009/home/134872961,CBR,97909,N,Y,41.1735892,-104.7059338
MLS Listing,,Single Family Residential,1204 E 6th St,Cheyenne,WY,82007,225000,2,1.0,CITY OF CHEYENNE,659,5663,1943,12,341,,Active,,,https://www.redfin.com/WY/Cheyenne/1204-E-6th-St-82007/home/134761380,CBR,97903,N,Y,41.129178,-104.7958521
MLS Listing,,Vacant Land,TBD Road 112,Cheyenne,WY,82009,1256840,,,Cheyenne,,13686988,,13,,,Active,,,https://www.redfin.com/WY/Cheyenne/TBD-Road-112-Unknown/home/196506625,CBR,97902,N,Y,41.2340850214693,-105.060814520264
MLS Listing,,Vacant Land,TBD Horse Creek Rd,Cheyenne,WY,82009,1255400,,,Cheyenne,,13671306,,13,,,Active,,,https://www.redfin.com/WY/Cheyenne/TBD-Horse-Creek-Rd-82009/home/187940833,CBR,97901,N,Y,41.242862775817,-105.047596594238
MLS Listing,,Vacant Land,TBD Road 217,Cheyenne,WY,82009,1120000,,,Cheyenne,,12196800,,13,,,Active,,,https://www.redfin.com/WY/Cheyenne/TBD-Road-217-Unknown/home/187935712,CBR,97900,N,Y,41.24791747,-105.04893747
MLS Listing,,Single Family Residential,2015 Appaloosa Dr,Cheyenne,WY,82001,430000,5,3.0,CHEYENNE RANCH,2576,6534,2002,14,167,,Active,August-2-2025 01:00 PM,August-2-2025 02:30 PM,https://www.redfin.com/WY/Cheyenne/2015-Appaloosa-Dr-82001/home/134808166,CBR,97895,N,Y,41.1440986,-104.7520979
MLS Listing,,Single Family Residential,4077 Saddleback Ln,Cheyenne,WY,82009,648900,3,3.0,SADDLE RIDGE,3472,5663,2025,14,187,,Active,August-2-2025 10:30 AM,August-2-2025 12:00 PM,https://www.redfin.com/WY/Cheyenne/4077-Saddleback-Ln-82001/home/195195066,CBR,97890,N,Y,41.1529755,-104.7164378
MLS Listing,,Single Family Residential,5816 Parkside Dr,Cheyenne,WY,82001,445000,4,2.5,SUNRISE ESTATES,2480,6970,2003,14,179,,Active,,,https://www.redfin.com/WY/Cheyenne/5816-Parkside-Dr-82001/home/135004009,CBR,97887,N,Y,41.1407403,-104.7435667
MLS Listing,,Vacant Land,LOT 84 Wagon Trail Dr,Cheyenne,WY,82009,175000,,,PINE GROVE ESTA,,23087,,14,,,Active,,,https://www.redfin.com/WY/Unknown/LOT-84-Wagon-Trail-Dr-82009/home/195876001,CBR,97888,N,Y,41.1490230981612,-105.237913274123
MLS Listing,,Single Family Residential,3946 E 6th St,Cheyenne,WY,82001,340000,4,2.0,SUN VALLEY ADD,2016,7405,1960,14,169,,Active,August-3-2025 12:00 PM,August-3-2025 03:00 PM,https://www.redfin.com/WY/Cheyenne/3946-E-6th-St-82001/home/134769519,CBR,97886,N,Y,41.1316251,-104.7616891
MLS Listing,,Single Family Residential,5612 Opal Dr,Cheyenne,WY,82009,755000,7,4.0,WHITNEY RANCH,4013,7841,2021,14,188,,Active,,,https://www.redfin.com/WY/Cheyenne/5612-Opal-Dr-82009/home/168770105,CBR,97885,N,Y,41.162338,-104.7412244
MLS Listing,,Single Family Residential,5020 E 8th St,Cheyenne,WY,82001,369500,4,2.0,SUN VALLEY ADD,1606,8276,1972,14,230,,Active,,,https://www.redfin.com/WY/Cheyenne/5020-E-8th-St-82001/home/134868545,CBR,97884,N,Y,41.1339289,-104.7494263
MLS Listing,,Single Family Residential,4501 Flaming Gorge Ave,Cheyenne,WY,82001,320000,5,2.0,EAST LAKEVIEW,1728,6970,1974,14,185,,Active,,,https://www.redfin.com/WY/Cheyenne/4501-Flaming-Gorge-Ave-82001/home/134961842,CBR,97640,N,Y,41.1589613,-104.7581634
MLS Listing,,Single Family Residential,4056 Saddleback Ln,Cheyenne,WY,82001,539900,2,2.0,SADDLE RIDGE,2816,5227,2024,15,192,,Active,August-3-2025 10:00 AM,August-3-2025 12:00 PM,https://www.redfin.com/WY/Cheyenne/4056-Saddleback-Ln-82001/home/193204751,CBR,97882,N,Y,41.1539446,-104.716612
MLS Listing,,Single Family Residential,1241 Rabbit Brush Trl,Cheyenne,WY,82007,510000,3,2.0,SWEETGRASS,2680,10454,2021,15,190,,Active,,,https://www.redfin.com/WY/Cheyenne/1241-Rabbit-Brush-Trl-82007/home/172636637,CBR,97878,N,Y,41.0978532,-104.7841532
MLS Listing,,Single Family Residential,1731 E Pershing Blvd,Cheyenne,WY,82001,325000,3,2.0,LOGAN HEIGHTS,1578,4792,1940,15,206,,Active,,,https://www.redfin.com/WY/Cheyenne/1731-E-Pershing-Blvd-82001/home/134745795,CBR,97877,N,Y,41.1456728,-104.7987251
MLS Listing,,Single Family Residential,5620 Blue Blf,Cheyenne,WY,82009,495000,4,2.5,BLUFFS THE,3109,9148,1978,15,159,,Active,,,https://www.redfin.com/WY/Cheyenne/5620-Blue-Blf-82009/home/134902458,CBR,97876,N,Y,41.1702299,-104.776352
MLS Listing,,Single Family Residential,4825 E 12th St,Cheyenne,WY,82001,337500,3,2.0,SUN VALLEY ADD,1680,8276,1964,15,201,,Active,,,https://www.redfin.com/WY/Cheyenne/4825-E-12th-St-82001/home/134861694,CBR,97872,N,Y,41.1359813,-104.7516619
MLS Listing,,Single Family Residential,116 W 2nd Ave,Cheyenne,WY,82001,550000,3,2.5,MOORE HAVEN HTS,3159,5663,1936,16,174,,Active,,,https://www.redfin.com/WY/Cheyenne/116-W-2nd-Ave-82001/home/134820584,CBR,97870,N,Y,41.1480679,-104.8234635
MLS Listing,,Single Family Residential,265 F Quarter Circle Loop,Cheyenne,WY,82007,575000,1,2.0,COWBOY RANCH SOUTH,1296,385506,2018,16,444,,Active,,,https://www.redfin.com/WY/Cheyenne/265-F-Quarter-Circle-Loop-82007/home/165527500,CBR,97869,N,Y,41.0372105,-104.7656785
MLS Listing,,Vacant Land,Tract 16 Old Faithful Way,Cheyenne,WY,82009,175000,,,YELLOWSTONE ESTATES,,426452,,16,,,Active,,,https://www.redfin.com/WY/Unknown/Tract-16-Old-Faithful-Way-82009/home/196447040,CBR,97867,N,Y,41.3297537148275,-104.843319555664
MLS Listing,,Vacant Land,Tract 17 Old Faithful Way,Cheyenne,WY,82009,185000,,,YELLOWSTONE ESTATES,,497020,,16,,,Active,,,https://www.redfin.com/WY/Unknown/Tract-17-Old-Faithful-Way-82009/home/196447039,CBR,97868,N,Y,41.3299148448571,-104.844134947205
MLS Listing,,Single Family Residential,5501 Frederick Dr,Cheyenne,WY,82009,459000,5,3.0,SPRING VALLEY A,2804,6970,1959,16,164,,Active,August-3-2025 10:30 AM,August-3-2025 12:00 PM,https://www.redfin.com/WY/Cheyenne/5501-Frederick-Dr-82009/home/134927343,CBR,97866,N,Y,41.169529,-104.8213219
MLS Listing,,Single Family Residential,1408 Sunny Hl,Cheyenne,WY,82001,415000,4,3.0,SUNRISE ESTATES,2155,6534,2005,16,193,,Active,,,https://www.redfin.com/WY/Cheyenne/1408-Sunny-Hill-Dr-82001/home/134796523,CBR,97865,N,Y,41.1387484,-104.747982
MLS Listing,,Single Family Residential,8804 Misty Mountain Rd,Cheyenne,WY,82009,860000,3,2.0,ROUNDTOP RANCH EST,4212,220849,2025,16,204,,Active,,,https://www.redfin.com/WY/Cheyenne/8804-Misty-Mountain-Rd-82009/home/196443770,CBR,97863,N,Y,41.200354,-104.8784823
MLS Listing,,Single Family Residential,361 Chalmette Ct,Cheyenne,WY,82009,425000,6,3.0,VILLA PARK,2454,6534,1965,16,173,,Active,,,https://www.redfin.com/WY/Cheyenne/361-Chalmette-Ct-82009/home/134702625,CBR,97862,N,Y,41.1768185,-104.8233783
MLS Listing,,Single Family Residential,6510 E Riding Club Rd,Cheyenne,WY,82009,790000,4,3.5,FOX RUN,3790,218236,2012,16,208,,Active,,,https://www.redfin.com/WY/Cheyenne/6510-E-Riding-Club-Rd-82009/home/135090345,CBR,97861,N,Y,41.2037985,-104.729591
MLS Listing,,Multi-Family (2-4 Unit),115 W 7th ST St,Cheyenne,WY,82007,380000,4,3.0,SOUTH CHEYENNE,2572,4792,1930,17,148,,Active,,,https://www.redfin.com/WY/Cheyenne/115-W-7th-St-82007/home/134761534,CBR,97860,N,Y,41.1247203,-104.8095775
MLS Listing,,Single Family Residential,8170 Ridge Rd,Cheyenne,WY,82009,1095000,6,4.0,PARADISE VALLEY,4396,202990,2011,17,249,,Active,August-2-2025 10:30 AM,August-2-2025 12:00 PM,https://www.redfin.com/WY/Cheyenne/8170-Ridge-Rd-82009/home/135069551,CBR,97859,N,Y,41.193324,-104.7692999
MLS Listing,,Vacant Land,Tract 103 Charles Jake Ct,Cheyenne,WY,82009,167900,,,THE RESERVE AT HORSE CREEK,,221285,,17,,,Active,,,https://www.redfin.com/WY/Unknown/Tract-103-Charles-Jake-Ct-82009/home/196427123,CBR,97856,N,Y,41.2229820557393,-104.908035894775
MLS Listing,,Vacant Land,Tract 104 Charles Jake Ct,Cheyenne,WY,82009,167900,,,THE RESERVE AT HORSE CREEK,,236966,,17,,,Active,,,https://www.redfin.com/WY/Unknown/Tract-104-Charles-Jake-Ct-82009/home/196427121,CBR,97857,N,Y,41.2231111708263,-104.907349249268
MLS Listing,,Vacant Land,Tract 101 Charles Jake Ct,Cheyenne,WY,82009,167900,,,THE RESERVE AT HORSE CREEK,,216058,,17,,,Active,,,https://www.redfin.com/WY/Unknown/Tract-101-Charles-Jake-Ct-82009/home/196427055,CBR,97854,N,Y,41.227016781718,-104.911640783691
MLS Listing,,Vacant Land,Tract 102 Charles Jake Ct,Cheyenne,WY,82009,167900,,,THE RESERVE AT HORSE CREEK,,216058,,17,,,Active,,,https://www.redfin.com/WY/Unknown/Tract-102-Charles-Jake-Ct-82009/home/196427054,CBR,97855,N,Y,41.224402307676,-104.90949501648
MLS Listing,,Vacant Land,Tract 100 Charles Jake Ct,Cheyenne,WY,82009,167900,,,THE RESERVE AT HORSE CREEK,,215622,,17,,,Active,,,https://www.redfin.com/WY/Unknown/Tract-100-Charles-Jake-Ct-82009/home/196426993,CBR,97853,N,Y,41.2253545047696,-104.913014074707
MLS Listing,,Vacant Land,Tract 82 Charles Jake Ct,Cheyenne,WY,82009,167900,,,THE RESERVE AT HORSE CREEK,,216058,,17,,,Active,,,https://www.redfin.com/WY/Unknown/Tract-82-Charles-Jake-Ct-82009/home/196426973,CBR,97849,N,Y,41.2251608386873,-104.911812445068
MLS Listing,,Vacant Land,Tract 83 Charles Jake Ct,Cheyenne,WY,82009,167900,,,THE RESERVE AT HORSE CREEK,,216058,,17,,,Active,,,https://www.redfin.com/WY/Unknown/Tract-83-Charles-Jake-Ct-82009/home/196426972,CBR,97850,N,Y,41.2252899494725,-104.912928244019
MLS Listing,,Vacant Land,Tract 99 Charles Jake Ct,Cheyenne,WY,82009,167900,,,THE RESERVE AT HORSE CREEK,,215622,,17,,,Active,,,https://www.redfin.com/WY/Unknown/Tract-99-Charles-Jake-Ct-82009/home/196426971,CBR,97852,N,Y,41.2232887036548,-104.91425861969
MLS Listing,,Vacant Land,Tract 84 Charles Jake Ct,Cheyenne,WY,82009,167900,,,THE RESERVE AT HORSE CREEK,,216058,,17,,,Active,,,https://www.redfin.com/WY/Unknown/Tract-84-Charles-Jake-Ct-82009/home/196426970,CBR,97851,N,Y,41.2254351988012,-104.914280077362
MLS Listing,,Vacant Land,Tract 81 Charles Jake Ct,Cheyenne,WY,82009,167900,,,THE RESERVE AT HORSE CREEK,,216058,,17,,,Active,,,https://www.redfin.com/WY/Unknown/Tract-81-Charles-Jake-Ct-82009/home/196426929,CBR,97848,N,Y,41.2255804478072,-104.910889765167
MLS Listing,,Vacant Land,Tract 79 Charles Jake Ct,Cheyenne,WY,82009,167900,,,THE RESERVE AT HORSE CREEK,,284011,,17,,,Active,,,https://www.redfin.com/WY/Unknown/Tract-79-Charles-Jake-Ct-82009/home/196426928,CBR,97846,N,Y,41.2252092552617,-104.908143183136
MLS Listing,,Vacant Land,Tract 80 Charles Jake Ct,Cheyenne,WY,82009,167900,,,THE RESERVE AT HORSE CREEK,,216058,,17,,,Active,,,https://www.redfin.com/WY/Unknown/Tract-80-Charles-Jake-Ct-82009/home/196426927,CBR,97847,N,Y,41.2251446998212,-104.909623762512
MLS Listing,,Single Family Residential,5508 Carmel Dr,Cheyenne,WY,82009,599900,3,2.0,WHITNEY RANCH,3691,8712,2020,17,163,,Active,,,https://www.redfin.com/WY/Cheyenne/5508-Carmel-Dr-82009/home/168770060,CBR,97845,N,Y,41.1633023,-104.7426475
MLS Listing,,Single Family Residential,819 Maxwell Ave,Cheyenne,WY,82007,350000,3,1.0,CITY OF CHEYENNE,1025,8712,1920,17,341,,Active,,,https://www.redfin.com/WY/Cheyenne/819-Maxwell-Ave-82007/home/196425671,CBR,97844,N,Y,41.1288233,-104.8041679
MLS Listing,,Mobile/Manufactured Home,212 Pleasant Vly,Cheyenne,WY,82007,115000,3,2.0,SOUTH FORK MHP,1140,,2024,17,101,,Active,,,https://www.redfin.com/WY/Cheyenne/212-Pleasant-Valley-Trl-82007/home/196420243,CBR,97842,N,Y,41.0794932,-104.8029332
MLS Listing,,Single Family Residential,1720 Maroon Dr,Cheyenne,WY,82001,450000,5,2.5,SUNRISE ESTATES,2436,6098,2004,17,185,,Active,,,https://www.redfin.com/WY/Cheyenne/1720-Maroon-Dr-82001/home/134829375,CBR,97840,N,Y,41.1408723,-104.7464237
MLS Listing,,Single Family Residential,2112 Blue Norther Ln,Cheyenne,WY,82007,514900,3,2.0,SWEETGRASS,2770,6534,2026,17,186,,Active,,,https://www.redfin.com/WY/Cheyenne/2112-Blue-Norther-Ln-82007/home/196418798,CBR,97838,N,Y,41.0978935,-104.7805638
MLS Listing,,Single Family Residential,1504 W Allison Rd,Cheyenne,WY,82007,339900,3,2.0,RANCHO ESTATES,1688,6098,1973,17,201,,Active,August-2-2025 01:00 PM,August-2-2025 02:30 PM,https://www.redfin.com/WY/Cheyenne/1504-W-Allison-Rd-82007/home/134941916,CBR,97837,N,Y,41.1100603,-104.8250617
MLS Listing,,Single Family Residential,1119 S Arp Ave,Cheyenne,WY,82007,368000,3,2.0,ARP ADD,1702,5663,1962,18,216,,Active,,,https://www.redfin.com/WY/Cheyenne/1119-S-Arp-Ave-82007/home/134886989,CBR,97836,N,Y,41.1119659,-104.8278059
MLS Listing,,Single Family Residential,618 Mcgovern Ave,Cheyenne,WY,82001,310000,4,2.0,SUN VALLEY ADD,1840,9583,1962,18,168,,Active,,,https://www.redfin.com/WY/Cheyenne/618-McGovern-Ave-82001/home/135061197,CBR,97835,N,Y,41.1320926,-104.753561
MLS Listing,,Single Family Residential,210 Ponderosa Trl,Cheyenne,WY,82009,645000,5,3.0,PONDEROSA HILLS,3234,52708,1977,18,199,,Active,,,https://www.redfin.com/WY/Cheyenne/210-Ponderosa-Trl-82009/home/134780712,CBR,97834,N,Y,41.1924163,-104.8301776
MLS Listing,,Single Family Residential,3935 Mccomb Ave,Cheyenne,WY,82001,485000,3,1.5,CAPITAL HTS ADD,2880,10019,1955,18,168,,Active,,,https://www.redfin.com/WY/Cheyenne/3935-McComb-Ave-82001/home/134970482,CBR,97197,N,Y,41.1526627,-104.8365599
MLS Listing,,Single Family Residential,819 W 1st Ave,Cheyenne,WY,82001,349000,3,2.0,HOLDREGE ADD,1742,6534,1942,18,200,,Active,,,https://www.redfin.com/WY/Cheyenne/819-W-1st-Ave-82001/home/134822254,CBR,97832,N,Y,41.1468146,-104.8310131
MLS Listing,,Single Family Residential,1463 Earhart Dr,Cheyenne,WY,82009,950000,3,2.0,MEADOWLARK AIRPARK,4686,228690,2025,18,203,,Active,,,https://www.redfin.com/WY/Cheyenne/1463-Earhart-Dr-82009/home/196408035,CBR,97831,N,Y,41.2116552,-104.5880978
MLS Listing,,Mobile/Manufactured Home,612 High Side Trl,Cheyenne,WY,82007,89000,3,2.0,SOUTH FORK MHP,1216,,2003,18,73,,Active,,,https://www.redfin.com/WY/Cheyenne/612-High-Side-Trl-82007/home/196407338,CBR,97830,N,Y,41.0777634,-104.8078208
MLS Listing,,Single Family Residential,812 Maryland Ct,Cheyenne,WY,82009,420000,4,2.0,MONTEREY HTS,1728,7841,1963,18,243,,Active,,,https://www.redfin.com/WY/Cheyenne/812-Maryland-Ct-82009/home/134975284,CBR,97829,N,Y,41.1828306,-104.8173841
MLS Listing,,Single Family Residential,7536 Jessica Dr,Cheyenne,WY,82009,874900,6,4.0,WESTERN HILLS,4456,11761,2023,18,196,,Active,,,https://www.redfin.com/WY/Cheyenne/7536-Jessica-Dr-82009/home/165554686,CBR,97828,N,Y,41.189739,-104.844596
MLS Listing,,Single Family Residential,5907 Townsend Pl,Cheyenne,WY,82009,700000,4,4.5,COTTAGES NORTH,2950,23522,1929,18,237,,Active,,,https://www.redfin.com/WY/Cheyenne/5907-Townsend-Pl-82009/home/134666977,CBR,97827,N,Y,41.1734077,-104.8230494
MLS Listing,,Single Family Residential,3628 Amherst Rd,Cheyenne,WY,82001,375000,3,1.5,EASTRIDGE,1752,6970,1953,18,214,,Active,August-3-2025 02:30 PM,August-3-2025 04:00 PM,https://www.redfin.com/WY/Cheyenne/3628-Amherst-Rd-82001/home/134971156,CBR,97825,N,Y,41.150407,-104.804152
MLS Listing,,Townhouse,5014 Crews Ct,Cheyenne,WY,82001,328000,3,2.5,DILDINE VILLAS,1428,3920,2010,19,230,,Active,,,https://www.redfin.com/WY/Cheyenne/5014-Crews-Ct-82001/home/134993329,CBR,97823,N,Y,41.15405,-104.7486706
MLS Listing,,Townhouse,2337 Foothills Rd,Cheyenne,WY,82009,575000,4,3.0,BLUFFS THE,2614,6534,2017,21,220,,Active,,,https://www.redfin.com/WY/Cheyenne/2337-Foothills-Rd-82009/home/146366410,CBR,97817,N,Y,41.170181,-104.784431
MLS Listing,,Vacant Land,Lot 6 W Ole Maverick Rd,Cheyenne,WY,82009,246000,,,IRONHORSE SUBDIVISION,,154638,,21,,,Active,,,https://www.redfin.com/WY/Cheyenne/6-W-Ole-Maverick-Rd-82009/home/196370987,CBR,97811,N,Y,41.1984931,-104.8283191
MLS Listing,,Vacant Land,Lot 16 W Riding Club Rd,Cheyenne,WY,82009,259000,,,IRONHORSE SUBDIVISION,,155074,,21,,,Active,,,https://www.redfin.com/WY/Cheyenne/16-W-Riding-Club-Rd-82009/home/196370986,CBR,97815,N,Y,41.2038416,-104.828393
MLS Listing,,Vacant Land,Lot 7 W Ole Maverick Rd,Cheyenne,WY,82009,246000,,,IRONHORSE SUBDIVISION,,154638,,21,,,Active,,,https://www.redfin.com/WY/Cheyenne/7-W-Ole-Maverick-Rd-82009/home/196370985,CBR,97816,N,Y,41.1984931,-104.8283191
MLS Listing,,Vacant Land,Lot 12 Hynds Blvd,Cheyenne,WY,82009,249000,,,IRONHORSE SUBDIVISION,,186437,,21,,,Active,,,https://www.redfin.com/WY/Cheyenne/Lot-12-Hynds-Blvd-Unknown/home/196370984,CBR,97812,N,Y,41.2488,-104.8289
MLS Listing,,Vacant Land,Lot 15 W Riding Club Rd,Cheyenne,WY,82009,259000,,,IRONHORSE SUBDIVISION,,165964,,21,,,Active,,,https://www.redfin.com/WY/Cheyenne/15-W-Riding-Club-Rd-82009/home/196370983,CBR,97814,N,Y,41.2038416,-104.8283902
MLS Listing,,Vacant Land,Lot 8 Hynds Blvd,Cheyenne,WY,82009,246000,,,IRONHORSE SUBDIVISION,,136343,,21,,,Active,,,https://www.redfin.com/WY/Cheyenne/Lot-8-Hynds-Blvd-Unknown/home/196370982,CBR,97813,N,Y,41.2488,-104.8289
MLS Listing,,Single Family Residential,128 Medicine Bow,Cheyenne,WY,82007,395000,3,3.0,HIGHLAND VILLAG,2467,7405,1987,21,160,,Active,,,https://www.redfin.com/WY/Cheyenne/128-Medicine-Bow-Ave-82007/home/134744946,CBR,97810,N,Y,41.1177632,-104.7925462
MLS Listing,,Single Family Residential,1697 Nita Ct,Cheyenne,WY,82009,775000,3,3.0,LITTLE BEAR ESTATES,3418,182516,2025,21,227,,Active,August-2-2025 10:30 AM,August-2-2025 12:00 PM,https://www.redfin.com/WY/Cheyenne/1697-Nita-Ct-82009/home/181978328,CBR,97809,N,Y,41.246175,-104.84121
MLS Listing,,Ranch,TBD Klipstein Rd,Cheyenne,WY,82009,300000,,,Cheyenne,,1306800,,21,,,Active,,,https://www.redfin.com/WY/Unknown/TBD-Klipstein-Rd-82009/home/187933262,CBR,97807,N,Y,41.2488,-104.8289
MLS Listing,,Single Family Residential,11105 Jk Trl,Cheyenne,WY,82009,717500,3,2.0,BELL PASTURE,3436,230868,2025,21,209,,Active,,,https://www.redfin.com/WY/Cheyenne/11105-Jk-TRL-Unknown/home/196370500,CBR,97806,N,Y,41.2203,-104.851447
MLS Listing,,Townhouse,3909 Gunsmoke Rd,Cheyenne,WY,82001,369900,3,3.5,SADDLE RIDGE,2038,4356,2010,21,182,,Active,August-3-2025 10:30 AM,August-3-2025 12:00 PM,https://www.redfin.com/WY/Cheyenne/3909-Gunsmoke-Rd-82001/home/134833843,CBR,97804,N,Y,41.1543386,-104.7231085
MLS Listing,,Single Family Residential,6866 Saykally Rd,Cheyenne,WY,82009,600000,5,3.0,BISON RUN III,3042,190793,2003,21,197,,Active,,,https://www.redfin.com/WY/Cheyenne/6866-Say-Kally-Rd-82009/home/134996239,CBR,97800,N,Y,41.1856112,-104.7262135
MLS Listing,,Single Family Residential,1185 W Leisher Rd,Cheyenne,WY,82007,320000,5,2.0,ARP ADD,2080,6098,1961,21,154,,Active,August-2-2025 10:00 AM,August-2-2025 11:00 AM,https://www.redfin.com/WY/Cheyenne/1185-W-Leisher-Rd-82007/home/134728482,CBR,97799,N,Y,41.115986,-104.8185811
MLS Listing,,Single Family Residential,9176 Kooper Trl,Cheyenne,WY,82009,715000,5,3.0,PRAIRIE SKY ESTATES,3425,172498,2009,21,209,,Active,,,https://www.redfin.com/WY/Cheyenne/9176-Kooper-Trl-82009/home/134795586,CBR,97798,N,Y,41.1878946,-104.6991224
MLS Listing,,Single Family Residential,11803 Glencoe Dr,Cheyenne,WY,82009,675000,4,2.5,ARCHER ESTATES,3456,347173,1981,21,195,,Active,,,https://www.redfin.com/WY/Cheyenne/11803-Glencoe-Dr-82009/home/135036562,CBR,97797,N,Y,41.1786994,-104.6670267
MLS Listing,,Single Family Residential,1316 Jessi Dr,Cheyenne,WY,82009,625000,5,3.0,"POINTE, THE",3011,6970,2018,21,208,,Active,,,https://www.redfin.com/WY/Cheyenne/1316-Jessi-Dr-82009/home/165536068,CBR,97796,N,Y,41.1862238,-104.8047661
MLS Listing,,Single Family Residential,1336 Jessi Dr,Cheyenne,WY,82009,630000,4,3.0,"POINTE, THE",3474,8276,2016,22,181,,Active,August-2-2025 01:00 PM,August-2-2025 02:30 PM,https://www.redfin.com/WY/Cheyenne/1336-Jessi-Dr-82009/home/143040362,CBR,97721,N,Y,41.1870078,-104.8043441
MLS Listing,,Single Family Residential,2200 Ledoux Dr,Cheyenne,WY,82007,635000,3,2.5,SWEETGRASS,4202,19602,2023,22,151,,Active,August-2-2025 12:00 PM,August-2-2025 02:00 PM,https://www.redfin.com/WY/Cheyenne/2200-Ledoux-Dr-82007/home/181980103,CBR,97793,N,Y,41.0974318,-104.7796638
MLS Listing,,Single Family Residential,393 Bocage Dr,Cheyenne,WY,82009,319999,4,2.0,VILLA PARK,1968,6534,1968,22,163,,Active,,,https://www.redfin.com/WY/Cheyenne/393-Bocage-Dr-82009/home/134856666,CBR,97792,N,Y,41.177239,-104.8244779
MLS Listing,,Single Family Residential,2006 E 16th St,Cheyenne,WY,82001,265000,2,2.0,ALTA VISTA ADD,1104,4792,1929,22,240,,Active,August-2-2025 10:30 AM,August-2-2025 12:00 PM,https://www.redfin.com/WY/Cheyenne/2006-E-16th-St-82001/home/134840477,CBR,97791,N,Y,41.140152,-104.7936352
MLS Listing,,Single Family Residential,4301 Pathfinder Ave,Cheyenne,WY,82001,399000,2,1.5,EAST LAKEVIEW,1898,,1978,22,210,,Active,August-2-2025 10:00 AM,August-2-2025 11:30 AM,https://www.redfin.com/WY/Cheyenne/4301-Pathfinder-Ave-82001/home/134667065,CBR,97785,N,Y,41.1566081,-104.7504988
MLS Listing,,Vacant Land,Tract 225 Ortiz Rd,Cheyenne,WY,82009,96800,,,HAPPY VALLEY,,279655,,22,,,Active,,,https://www.redfin.com/WY/Unknown/Tract-225-Ortiz-Rd-82009/home/196333189,CBR,97784,N,Y,41.115426,-104.817543
MLS Listing,,Vacant Land,Tract 349 Bering Rd,Cheyenne,WY,82009,109800,,,HAPPY VALLEY,,328442,,22,,,Active,,,https://www.redfin.com/WY/Unknown/Tract-349-Bering-Rd-82009/home/190249757,CBR,97783,N,Y,41.1216903516864,-105.049207141876
MLS Listing,,Vacant Land,Tract 290 Boundary Rd,Cheyenne,WY,82009,87800,,,HAPPY VALLEY,,270072,,22,,,Active,,,https://www.redfin.com/WY/Unknown/Tract-290-Boundary-Rd-82009/home/196332988,CBR,97782,N,Y,41.132910676621,-105.040129324341
MLS Listing,,Multi-Family (2-4 Unit),3016 Ames CT Ct,Cheyenne,WY,82001,317000,3,2.0,PARK ADD,1760,3049,1929,22,180,,Active,,,https://www.redfin.com/WY/Cheyenne/3016-Ames-Ct-82001/home/134782793,CBR,97780,N,Y,41.1420943,-104.8337116
MLS Listing,,Single Family Residential,3519 Sowell St,Cheyenne,WY,82009,550000,5,3.0,THOMAS HEIGHTS,2858,6970,2017,22,192,,Active,August-2-2025 01:00 PM,August-2-2025 02:30 PM,https://www.redfin.com/WY/Cheyenne/3519-Sowell-St-82009/home/146366512,CBR,97778,N,Y,41.1714323,-104.7666526
MLS Listing,,Single Family Residential,2212 Goodnight Trl,Cheyenne,WY,82009,500000,3,2.0,SWEETGRASS,2666,8276,2022,22,188,,Active,,,https://www.redfin.com/WY/Cheyenne/2212-Goodnight-Trl-82007/home/172636604,CBR,97777,N,Y,41.098174,-104.7863482
MLS Listing,,Single Family Residential,12723 Chalk Bluff Rd,Cheyenne,WY,82007,1295000,3,3.5,CHALK BLUFF ESTATES,3956,2161883,2022,23,327,,Active,,,https://www.redfin.com/WY/Cheyenne/12723-Chalk-Bluff-Rd-82007/home/186151482,CBR,97773,N,Y,41.04359,-104.657621
MLS Listing,,Single Family Residential,5120 Syracuse Rd,Cheyenne,WY,82009,490000,4,4.0,INDIAN HILLS,2614,8276,1959,23,187,,Active,,,https://www.redfin.com/WY/Cheyenne/5120-Syracuse-Rd-82009/home/135016138,CBR,97767,N,Y,41.1651828,-104.813689
MLS Listing,,Single Family Residential,1718 Newton Dr,Cheyenne,WY,82001,385000,4,2.0,EASTRIDGE,2072,10019,1955,23,186,,Active,,,https://www.redfin.com/WY/Cheyenne/1718-Newton-Dr-82001/home/134831305,CBR,97765,N,Y,41.1503955,-104.800335
MLS Listing,,Single Family Residential,3315 Hynds Blvd,Cheyenne,WY,82001,340000,3,3.0,CAPITAL HTS ADD,1694,6970,1943,24,201,,Active,August-3-2025 12:00 PM,August-3-2025 01:30 PM,https://www.redfin.com/WY/Cheyenne/3315-Hynds-Blvd-82001/home/134909147,CBR,97759,N,Y,41.146913,-104.8380097
MLS Listing,,Mobile/Manufactured Home,2116 Pine Ave,Cheyenne,WY,82007,295000,4,2.0,COUNTRY WEST,1344,5663,1986,24,219,,Active,,,https://www.redfin.com/WY/Cheyenne/2116-Pine-Ave-82007/home/135033215,CBR,97758,N,Y,41.098189,-104.8051606
MLS Listing,,Single Family Residential,2974 Kelley Dr,Cheyenne,WY,82001,355000,4,2.0,MOUNTVIEW PARK,2256,8276,1954,24,157,,Active,August-2-2025 12:00 PM,August-2-2025 01:30 PM,https://www.redfin.com/WY/Cheyenne/2974-Kelley-Dr-82001/home/134851449,CBR,97757,N,Y,41.1412504,-104.7780854
MLS Listing,,Single Family Residential,7612 Danni Marie Cir,Cheyenne,WY,82009,595000,5,3.0,"POINTE, THE",3336,10890,2010,24,178,,Active,,,https://www.redfin.com/WY/Cheyenne/7612-Danni-Marie-Cir-82009/home/134785965,CBR,97754,N,Y,41.1886772,-104.8109356
MLS Listing,,Single Family Residential,429 W 5th Ave,Cheyenne,WY,82001,535000,5,3.0,MOORE HAVEN HTS,2774,5663,1941,24,193,,Active,August-1-2025 04:30 PM,August-1-2025 06:00 PM,https://www.redfin.com/WY/Cheyenne/429-W-5th-Ave-82001/home/135012290,CBR,97753,N,Y,41.1503128,-104.8278828
MLS Listing,,Single Family Residential,321 Gardenia Dr,Cheyenne,WY,82009,474999,5,3.0,MONTEREY HTS,3283,8712,1978,24,145,,Active,,,https://www.redfin.com/WY/Cheyenne/321-Gardenia-Dr-82009/home/134882471,CBR,97752,N,Y,41.1818069,-104.8235054
MLS Listing,,Single Family Residential,3420 Campfire Trl,Cheyenne,WY,82001,535000,5,3.0,SADDLE RIDGE,2861,7405,2013,25,187,,Active,,,https://www.redfin.com/WY/Cheyenne/3420-Campfire-Trl-82001/home/134885292,CBR,97751,N,Y,41.1492501,-104.7320173
MLS Listing,,Single Family Residential,3033 Crazy Horse Rd,Cheyenne,WY,82001,639000,3,2.0,WYOMING RANCHET,2072,385942,1973,25,308,,Active,,,https://www.redfin.com/WY/Cheyenne/3033-Crazy-Horse-Rd-82009/home/134923411,CBR,97750,N,Y,41.2324805,-104.7725265
MLS Listing,,Single Family Residential,828 Sun Valley Dr,Cheyenne,WY,82001,330000,3,1.5,SUN VALLEY ADD,2112,7841,1963,25,156,,Active,August-3-2025 12:00 PM,August-3-2025 01:45 PM,https://www.redfin.com/WY/Cheyenne/828-Sun-Valley-Dr-82001/home/134980078,CBR,97745,N,Y,41.1339497,-104.7526315
MLS Listing,,Single Family Residential,2012 Snyder Ave,Cheyenne,WY,82001,328000,2,2.0,CITY OF CHEYENNE,996,4356,1911,25,329,,Active,August-2-2025 10:00 AM,August-2-2025 12:00 PM,https://www.redfin.com/WY/Cheyenne/2012-Snyder-Ave-82001/home/134844711,CBR,97744,N,Y,41.1337938,-104.8260094
MLS Listing,,Single Family Residential,3561 Boston Rd,Cheyenne,WY,82001,399900,4,2.0,EASTRIDGE,1746,7841,1956,25,229,,Active,August-3-2025 03:00 PM,August-3-2025 04:30 PM,https://www.redfin.com/WY/Cheyenne/3561-Boston-Rd-82001/home/134865821,CBR,97739,N,Y,41.1502315,-104.8023533
MLS Listing,,Single Family Residential,714 E Ole Maverick Rd,Cheyenne,WY,82009,999000,5,4.5,ROUNDUP HEIGHTS,7090,150282,1969,25,141,,Active,,,https://www.redfin.com/WY/Cheyenne/714-E-Ole-Maverick-Rd-82009/home/134689002,CBR,97734,N,Y,41.1991222,-104.8194324
MLS Listing,,Single Family Residential,915 Morgan Ranch Rd,Cheyenne,WY,82007,740000,4,3.0,HR RANCH,4002,244372,2007,25,185,,Active,August-2-2025 11:30 AM,August-2-2025 01:30 PM,https://www.redfin.com/WY/Cheyenne/915-Morgan-Ranch-Rd-82007/home/134828221,CBR,97735,N,Y,41.132497,-104.6341003
MLS Listing,,Mobile/Manufactured Home,300 E Prosser Rd #26,Cheyenne,WY,82007,40000,3,2.0,CIMMARON VILLAG,1080,,2000,25,37,,Active,,,https://www.redfin.com/WY/Cheyenne/300-E-Prosser-Rd-82007/unit-26/home/196277902,CBR,97733,N,Y,41.1067026,-104.7943642
MLS Listing,,Single Family Residential,3505 Whirlaway Rd,Cheyenne,WY,82009,599900,5,3.0,TRIPLE CROWN,2446,409464,2003,26,245,,Active,,,https://www.redfin.com/WY/Cheyenne/3505-Whirlaway-Rd-82009/home/135005568,CBR,97732,N,Y,41.1767824,-104.616314
MLS Listing,,Single Family Residential,3608 Dey Ave,Cheyenne,WY,82001,433700,5,2.5,CAPITAL HTS ADD,2184,6098,1956,27,199,,Active,,,https://www.redfin.com/WY/Cheyenne/3608-Dey-Ave-82001/home/134821188,CBR,97730,N,Y,41.1491777,-104.8343796
MLS Listing,,Single Family Residential,2009 Ames Ave,Cheyenne,WY,82001,225000,1,1.0,ORIGINAL TOWN,418,7841,1917,29,538,,Active,,,https://www.redfin.com/WY/Cheyenne/2009-Ames-Ave-82001/home/134839202,CBR,97720,N,Y,41.1329991,-104.8278016
MLS Listing,,Single Family Residential,6538 Moreland Ave,Cheyenne,WY,82009,460000,4,2.0,WESTERN HILLS,2348,,1972,29,196,,Active,August-2-2025 11:00 AM,August-2-2025 12:30 PM,https://www.redfin.com/WY/Cheyenne/6538-Moreland-Ave-82009/home/134902713,CBR,97718,N,Y,41.181383,-104.8398425
MLS Listing,,Single Family Residential,5710 Mica Blf,Cheyenne,WY,82009,719900,3,2.0,BLUFFS THE,3400,8712,2025,29,212,,Active,August-2-2025 10:30 AM,August-2-2025 12:30 PM,https://www.redfin.com/WY/Cheyenne/5710-Mica-Blf-82009/home/195228892,CBR,97715,N,Y,41.1712952,-104.7836517
MLS Listing,,Vacant Land,Tract 114 Bucking Horse Blvd,Cheyenne,WY,82009,225000,,,DIAMOND B RANCH,,1730639,,29,,,Active,,,https://www.redfin.com/WY/Cheyenne/Tract-114-Bucking-Horse-Blvd-82009/home/187933124,CBR,97713,N,Y,41.4419494539212,-104.532357765003
MLS Listing,,Single Family Residential,1862 Golden Lark Trl,Cheyenne,WY,82009,745000,3,3.0,MEADOWLARK RIDGE ESTATES,3610,228690,2024,29,206,,Active,August-2-2025 11:00 AM,August-2-2025 12:30 PM,https://www.redfin.com/WY/Cheyenne/1862-Golden-Lark-TRL-Unknown/home/192939933,CBR,97711,N,Y,41.223734,-104.932383
MLS Listing,,Single Family Residential,1546 Horse Creek Rd,Cheyenne,WY,82009,1250000,5,3.5,FOX MEADOW,3812,1736302,2008,29,328,,Active,,,https://www.redfin.com/WY/Cheyenne/1546-Horse-Creek-Rd-82009/home/134776745,CBR,97705,N,Y,41.2241816,-104.9910772
MLS Listing,,Single Family Residential,2833 W College Dr,Cheyenne,WY,82007,409000,4,2.5,SOUTHCREST HTS,3468,22216,1959,29,118,,Active,August-3-2025 10:00 AM,August-3-2025 12:00 PM,https://www.redfin.com/WY/Cheyenne/2833-W-College-Dr-82007/home/134959299,CBR,97704,N,Y,41.0986462,-104.8424916
MLS Listing,,Townhouse,1440 Trent Ct,Cheyenne,WY,82009,309900,2,2.0,COUNTRY CLUB NO,1716,1307,1977,30,181,,Active,,,https://www.redfin.com/WY/Cheyenne/1440-Trent-Ct-82009/home/134723395,CBR,97703,N,Y,41.1695418,-104.8365605
MLS Listing,,Townhouse,1501 Trent Ct,Cheyenne,WY,82009,335000,3,2.5,ATRIUM TOWNHMES,2080,2178,1989,30,161,,Active,,,https://www.redfin.com/WY/Cheyenne/1501-Trent-Ct-82009/home/134800659,CBR,97698,N,Y,41.1692811,-104.8383441
MLS Listing,,Single Family Residential,2269 Carina Ct,Cheyenne,WY,82009,1000000,6,3.5,BEAR PAW RANCH,3962,341510,2014,30,252,,Active,,,https://www.redfin.com/WY/Cheyenne/2269-Carina-Ct-82009/home/135124787,CBR,97695,N,Y,41.2688795,-104.8524472
MLS Listing,,Single Family Residential,7603 Rich Strike Rd,Cheyenne,WY,82009,822555,3,2.0,THE RESERVE AT HORSE CREEK,3664,223463,2025,30,224,,Active,,,https://www.redfin.com/WY/Cheyenne/7603-Rich-Strike-Ct-82009/home/186149662,CBR,97694,N,Y,41.2199659,-104.9193769
MLS Listing,,Single Family Residential,2265 Hugh Glass Trl,Cheyenne,WY,82009,1599000,6,6.0,BEAR PAW RANCH,5529,359370,2007,30,289,,Active,,,https://www.redfin.com/WY/Cheyenne/2265-Hugh-Glass-Trl-82009/home/135028748,CBR,97693,N,Y,41.2642453,-104.8551582
MLS Listing,,Vacant Land,Tract 4 Rainbow Rdg,Cheyenne,WY,82009,125000,,,LODGEPOLE ESTAT,,178596,,30,,,Active,,,https://www.redfin.com/WY/Unknown/Tract-4-Rainbow-Rdg-82009/home/196253886,CBR,97688,N,Y,41.2488,-104.8289
MLS Listing,,Single Family Residential,617 W 24th St,Cheyenne,WY,82001,249900,2,1.0,CITY OF CHEYENNE,910,5663,1919,30,275,,Active,August-2-2025 11:00 AM,August-2-2025 01:00 PM,https://www.redfin.com/WY/Cheyenne/617-W-24th-St-82001/home/134697347,CBR,97686,N,Y,41.1377222,-104.8250509
MLS Listing,,Single Family Residential,707 S Table Mtn Loop,Cheyenne,WY,82009,800000,4,3.0,TABLE MOUNTAIN,3758,490921,2012,31,213,,Active,,,https://www.redfin.com/WY/Cheyenne/707-S-Table-Mountain-Loop-82009/home/134705581,CBR,97684,N,Y,41.2228601,-105.1537089
MLS Listing,,Single Family Residential,648 Vista Ln,Cheyenne,WY,82009,450000,3,2.0,MANEWAL ADD,2604,12632,1959,31,173,,Active,August-2-2025 10:00 AM,August-2-2025 11:30 AM,https://www.redfin.com/WY/Cheyenne/648-Vista-Ln-82009/home/134778482,CBR,97682,N,Y,41.1723777,-104.8420565
MLS Listing,,Vacant Land,Lot 37 Misty Mountain Rd,Cheyenne,WY,82009,175000,,,ROUNDTOP RANCH,,194278,,32,,,Active,,,https://www.redfin.com/WY/Unknown/Lot-37-Misty-Mountain-Rd-82009/home/187935235,CBR,97674,N,Y,41.16178532,-104.78427219
MLS Listing,,Single Family Residential,2219 E 11th St,Cheyenne,WY,82001,230000,2,2.0,LAKE MINNEHAHA,1094,6534,1942,32,210,,Active,,,https://www.redfin.com/WY/Cheyenne/2219-E-11th-St-82001/home/135066955,CBR,97671,N,Y,41.1353894,-104.7905422
MLS Listing,,Single Family Residential,753 N Table Mtn Loop,Cheyenne,WY,82009,749000,4,3.0,TABLE MOUNTAIN,3318,507910,2024,32,226,,Active,August-2-2025 02:30 PM,August-2-2025 04:00 PM,https://www.redfin.com/WY/Cheyenne/753-N-Table-Mountain-Loop-82009/home/165554100,CBR,97668,N,Y,41.2295668,-105.1442022
MLS Listing,,Single Family Residential,12611 Glencoe Dr,Cheyenne,WY,82009,785000,5,4.0,ARCHER ESTATES,3814,228690,2002,32,206,,Active,August-2-2025 11:00 AM,August-2-2025 12:30 PM,https://www.redfin.com/WY/Cheyenne/12611-Glencoe-Dr-82009/home/134966944,CBR,97664,N,Y,41.1796956,-104.6573373
MLS Listing,,Townhouse,234 Miller Ln Unit A,Cheyenne,WY,82009,330000,1,1.0,MILLER ADD,750,1742,2023,32,440,,Active,,,https://www.redfin.com/WY/Cheyenne/234-Miller-Ln-82009/unit-A/home/181978557,CBR,97661,N,Y,41.172543,-104.8245787
MLS Listing,,Mobile/Manufactured Home,220 Pleasant Vly,Cheyenne,WY,82007,60000,2,1.0,SOUTH FORK MHP,980,,2004,33,61,,Active,,,https://www.redfin.com/WY/Cheyenne/220-Pleasant-Valley-Trl-82007/home/196217172,CBR,97659,N,Y,41.0794742,-104.8033285
MLS Listing,,Single Family Residential,1023 Cottontail Dr,Cheyenne,WY,82009,325000,1,1.0,PINE GROVE ESTA,766,145490,1963,35,424,,Active,August-2-2025 10:00 AM,August-2-2025 12:00 PM,https://www.redfin.com/WY/Cheyenne/1023-Cotton-Tail-Dr-82009/home/134772718,CBR,97655,N,Y,41.1495559,-105.23462
MLS Listing,,Single Family Residential,2593 Mccrae Rd,Cheyenne,WY,82009,1385000,6,4.0,LONE STAR ESTATES,4650,257440,2025,35,298,,Active,,,https://www.redfin.com/WY/Cheyenne/2593-McCrae-Rd-82009/home/196209936,CBR,97654,N,Y,41.2446046,-104.7898077
MLS Listing,,Single Family Residential,840 Stevens Dr,Cheyenne,WY,82001,325000,3,1.0,EASTWOOD ADD,960,8276,1961,35,339,,Active,,,https://www.redfin.com/WY/Cheyenne/840-Stevens-Dr-82001/home/134682658,CBR,97651,N,Y,41.1326929,-104.7706596
MLS Listing,,Single Family Residential,317 Avenue C,Cheyenne,WY,82007,499000,4,3.0,PROSSER TRACTS,4204,61420,1971,35,119,,Active,,,https://www.redfin.com/WY/Cheyenne/317-Avenue-C-82007/home/134824060,CBR,97647,N,Y,41.1140259,-104.7895524
MLS Listing,,Single Family Residential,104 E 26th St,Cheyenne,WY,82001,425000,3,2.0,CITY OF CHEYENNE,2400,5663,1920,35,177,,Active,,,https://www.redfin.com/WY/Cheyenne/104-E-26th-St-82001/home/134989146,CBR,97644,N,Y,41.1423748,-104.8197665
MLS Listing,,Single Family Residential,620 W 25th St,Cheyenne,WY,82001,225000,2,1.0,ORIGINAL TOWN,480,2178,1916,35,469,,Active,August-2-2025 01:00 PM,August-2-2025 03:00 PM,https://www.redfin.com/WY/Cheyenne/620-W-25th-St-82001/home/134812436,CBR,97477,N,Y,41.138918,-104.8259563
MLS Listing,,Single Family Residential,717 W 27th St,Cheyenne,WY,82001,215000,2,1.0,CITY OF CHEYENNE,1376,5663,1923,35,156,,Active,,,https://www.redfin.com/WY/Cheyenne/717-W-27th-St-82001/home/134761130,CBR,97643,N,Y,41.1399544,-104.8277806
MLS Listing,,Single Family Residential,3301 Douglas St,Cheyenne,WY,82009,429900,3,2.0,ALLIANCE ADD,3072,6098,2007,35,140,,Active,,,https://www.redfin.com/WY/Cheyenne/3301-Douglas-St-82009/home/134797378,CBR,97642,N,Y,41.1670849,-104.7694276
MLS Listing,,Single Family Residential,612 E Wrangler Rd,Cheyenne,WY,82009,695000,4,2.5,ROUNDUP HEIGHTS,2568,51836,1977,35,271,,Active,August-2-2025 02:00 PM,August-2-2025 03:30 PM,https://www.redfin.com/WY/Cheyenne/612-E-Wrangler-Rd-82009/home/134704479,CBR,97641,N,Y,41.1968011,-104.8201052
MLS Listing,,Vacant Land,Tract 7 Haven Ct,Cheyenne,WY,82009,300000,,,NORTH HAVEN,,196020,,36,,,Active,,,https://www.redfin.com/WY/Ranchettes/Tract-7-Haven-Ct-82009/home/196198644,CBR,97628,N,Y,41.2152346840157,-104.843319555664
MLS Listing,,Vacant Land,Tract 11 Haven Ct,Cheyenne,WY,82009,310000,,,NORTH HAVEN,,220414,,36,,,Active,,,https://www.redfin.com/WY/Ranchettes/Tract-11-Haven-Ct-82009/home/196198643,CBR,97627,N,Y,41.2160740269426,-104.841474195862
MLS Listing,,Single Family Residential,2015 Bradley Ave,Cheyenne,WY,82001,299999,3,2.0,CITY OF CHEYENNE,1632,3920,1929,36,184,,Active,,,https://www.redfin.com/WY/Cheyenne/2015-Bradley-Ave-82001/home/134840655,CBR,97630,N,Y,41.1414609,-104.8054292
MLS Listing,,Vacant Land,248 Rocky Rd,Cheyenne,WY,82009,190000,,,PINE GROVE ESTA,,109336,,36,,,Active,,,https://www.redfin.com/WY/Cheyenne/248-Rocky-Rd-82009/home/134993988,CBR,97626,N,Y,41.1483863,-105.2398489
MLS Listing,,Single Family Residential,2245 Rainbow Rdg,Cheyenne,WY,82009,750000,4,3.0,LODGEPOLE ESTAT,2646,352400,1992,36,283,,Active,,,https://www.redfin.com/WY/Cheyenne/2245-Rainbow-Rdg-82009/home/135049806,CBR,97625,N,Y,41.32641,-104.833155
MLS Listing,,Single Family Residential,6403 Blue Roan Rd,Cheyenne,WY,82007,635000,3,2.0,BISON CROSSING,3345,116305,2021,37,190,,Active,August-2-2025 10:00 AM,August-2-2025 11:00 PM,https://www.redfin.com/WY/Cheyenne/6403-Blue-Roan-Rd-82007/home/179122786,CBR,97621,N,Y,41.0612214,-104.7998574
MLS Listing,,Single Family Residential,5618 Dayton Dr,Cheyenne,WY,82009,520000,3,2.0,THOMAS HEIGHTS,2999,6970,2019,37,173,,Active,August-3-2025 10:00 AM,August-3-2025 12:00 PM,https://www.redfin.com/WY/Cheyenne/5618-Dayton-Dr-82009/home/165543292,CBR,97620,N,Y,41.1707669,-104.7678762
MLS Listing,,Mobile/Manufactured Home,814 Covered Wagon Dr,Cheyenne,WY,82007,162500,2,1.0,TRAILS END MH V,784,6970,1984,37,207,,Active,August-2-2025 11:00 AM,August-2-2025 12:30 PM,https://www.redfin.com/WY/Cheyenne/814-Covered-Wagon-Dr-82007/home/134684653,CBR,97619,N,Y,41.1217933,-104.7958974
MLS Listing,,Single Family Residential,3068 Reed Ave,Cheyenne,WY,82001,449999,6,2.0,HOLDREGE ADD,2470,5227,1951,37,182,,Active,,,https://www.redfin.com/WY/Cheyenne/3068-Reed-Ave-82001/home/134887637,CBR,97617,N,Y,41.1440449,-104.8303526
MLS Listing,,Townhouse,1615 Alyssaelaine Dr,Cheyenne,WY,82007,445000,3,2.5,HARMONY VALLEY,2718,5227,2022,37,164,,Active,August-2-2025 11:00 AM,August-2-2025 12:30 PM,https://www.redfin.com/WY/Cheyenne/1615-Alyssaelaine-Dr-82007/home/179124965,CBR,97613,N,Y,41.103893,-104.822266
MLS Listing,,Single Family Residential,309 Sioux Dr,Cheyenne,WY,82009,555000,4,3.5,NORTH CHEYENNE,2978,12632,1987,37,186,,Active,August-2-2025 10:30 AM,August-2-2025 12:00 PM,https://www.redfin.com/WY/Cheyenne/309-Sioux-Dr-82009/home/134673209,CBR,97612,N,Y,41.1792528,-104.8327163
MLS Listing,,Single Family Residential,4563 Willow Brook Ln,Cheyenne,WY,82009,821000,5,2.5,Cheyenne,3820,379408,2024,37,215,,Active,,,https://www.redfin.com/WY/Cheyenne/4563-Willow-Dr-82001/home/196186368,CBR,97611,N,Y,41.2488,-104.8289
MLS Listing,,Single Family Residential,4712 Griffith Ave,Cheyenne,WY,82009,565000,3,2.5,DELL RANGE ADD,2388,44431,1966,37,237,,Active,August-2-2025 03:00 PM,August-2-2025 04:30 PM,https://www.redfin.com/WY/Cheyenne/4712-Griffith-Ave-82009/home/134848904,CBR,97610,N,Y,41.1614246,-104.7591356
MLS Listing,,Single Family Residential,TBD Buckshot Blvd,Cheyenne,WY,82009,520000,3,2.0,DIAMOND B RANCH,1656,878605,2025,37,314,,Active,,,https://www.redfin.com/WY/Cheyenne/TBD-Buckshot-Blvd-82009/home/196184833,CBR,97607,N,Y,41.4297950432317,-104.590170839538
MLS Listing,,Single Family Residential,3650 Sky Train Dr,Cheyenne,WY,82009,599900,3,2.0,MEADOWLARK AIRPARK,3314,251777,2024,37,181,,Active,,,https://www.redfin.com/WY/Cheyenne/3650-Sky-Train-Dr-82009/home/181978465,CBR,97606,N,Y,41.2154422,-104.5870657
MLS Listing,,Vacant Land,1858 Mountain Shdw Ln,Cheyenne,WY,82009,159999,,,MOUNTAIN SHADOW,,523156,,38,,,Active,,,https://www.redfin.com/WY/Cheyenne/1858-Mountain-Shadow-Ln-82009/home/196181092,CBR,97605,N,Y,41.2728855,-105.1112847
MLS Listing,,Single Family Residential,3117 Holland Ct,Cheyenne,WY,82001,457000,3,2.5,CREST RIDGE,2314,7841,1998,38,197,,Active,,,https://www.redfin.com/WY/Cheyenne/3117-Holland-Ct-82009/home/134739268,CBR,97604,N,Y,41.1731587,-104.7719574
MLS Listing,,Mobile/Manufactured Home,1113 Indiana Rd,Cheyenne,WY,82009,524900,3,2.0,HAPPY VALLEY,2856,276606,2018,38,184,,Active,August-2-2025 12:30 PM,August-2-2025 02:00 PM,https://www.redfin.com/WY/Cheyenne/1113-Indiana-Rd-82009/home/146368162,CBR,97595,N,Y,41.1514088,-105.0752646
MLS Listing,,Single Family Residential,2531 Levi Rd,Cheyenne,WY,82009,525000,4,3.0,CREST RIDGE,2641,6098,2001,39,199,,Active,,,https://www.redfin.com/WY/Cheyenne/2531-Levi-Rd-82009/home/134920299,CBR,97565,N,Y,41.1718328,-104.778833
MLS Listing,,Single Family Residential,2070 Mammoth Rd,Cheyenne,WY,82009,675000,3,2.0,YELLOWSTONE NOR,3594,188179,2025,39,188,,Active,,,https://www.redfin.com/WY/Cheyenne/2070-Mammoth-Rd-82009/home/196167767,CBR,97589,N,Y,41.3050571,-104.8436739
MLS Listing,,Single Family Residential,310 Hynds Ave,Cheyenne,WY,82007,275000,2,1.0,INTERIOR HEIGHT,759,6098,1955,39,362,,Active,August-2-2025 12:00 PM,August-2-2025 01:30 PM,https://www.redfin.com/WY/Cheyenne/310-Hynds-Ave-82007/home/134731803,CBR,97583,N,Y,41.1190784,-104.8275807
MLS Listing,,Single Family Residential,3429 E 12th St,Cheyenne,WY,82001,337500,3,2.0,SUN VALLEY ADD,1728,9148,1959,39,195,,Active,,,https://www.redfin.com/WY/Cheyenne/3429-E-12th-St-82001/home/134861577,CBR,97572,N,Y,41.1362861,-104.7666705
MLS Listing,,Single Family Residential,850 Ranger Dr,Cheyenne,WY,82009,485000,4,2.0,WESTERN HILLS,2664,17424,1959,39,182,,Active,,,https://www.redfin.com/WY/Cheyenne/850-Ranger-Dr-82009/home/134677007,CBR,97571,N,Y,41.1807583,-104.8460434
MLS Listing,,Single Family Residential,1714 Dunn Ave,Cheyenne,WY,82001,284500,3,1.5,CITY OF CHEYENNE,1368,4356,1939,40,208,,Active,,,https://www.redfin.com/WY/Cheyenne/1714-Dunn-Ave-82001/home/135024026,CBR,97570,N,Y,41.1398931,-104.800817
MLS Listing,,Single Family Residential,304 W 3rd Ave,Cheyenne,WY,82001,445000,4,2.0,MOORE HAVEN HTS,2130,5663,1932,40,209,,Active,,,https://www.redfin.com/WY/Cheyenne/304-W-3rd-Ave-82001/home/134739605,CBR,97569,N,Y,41.1489577,-104.8257158
MLS Listing,,Single Family Residential,1218 Wendy Ln,Cheyenne,WY,82009,539900,3,2.0,"POINTE, THE",3520,7841,2013,41,153,,Active,,,https://www.redfin.com/WY/Cheyenne/1218-Wendy-Ln-82009/home/134828614,CBR,97567,N,Y,41.1888404,-104.8085581
MLS Listing,,Single Family Residential,618 Brittany Dr,Cheyenne,WY,82009,775000,4,4.0,WESTERN HILLS,3510,10454,2003,41,221,,Active,August-2-2025 12:00 PM,August-2-2025 01:30 PM,https://www.redfin.com/WY/Cheyenne/618-Brittany-Dr-82009/home/134997357,CBR,97566,N,Y,41.1896413,-104.841165
MLS Listing,,Single Family Residential,5331 Sullivan St,Cheyenne,WY,82001,700000,3,2.0,WHITNEY RANCH,3691,,2024,42,190,,Active,,,https://www.redfin.com/WY/Cheyenne/5331-Sullivan-St-82009/home/196150592,CBR,97560,N,Y,41.1639189,-104.7456178
MLS Listing,,Single Family Residential,704 W Four Mile Rd,Cheyenne,WY,82009,929000,4,3.0,MEADOWVIEW ESTA,3749,113692,1977,42,248,,Active,August-2-2025 11:00 AM,August-2-2025 12:00 PM,https://www.redfin.com/WY/Cheyenne/704-W-Four-Mile-Rd-82009/home/134771357,CBR,97559,N,Y,41.1905865,-104.8357963
MLS Listing,,Single Family Residential,407 Dayshia Ln,Cheyenne,WY,82007,575000,5,3.0,BISON CROSSING,3106,138956,2004,42,185,,Active,August-3-2025 12:30 PM,August-3-2025 02:00 PM,https://www.redfin.com/WY/Cheyenne/407-Dayshia-Ln-82007/home/134996277,CBR,97551,N,Y,41.0658096,-104.8043063
MLS Listing,,Single Family Residential,609 Ridgeland St,Cheyenne,WY,82009,335000,3,2.0,WESTERN HILLS,1298,7841,1972,43,258,,Active,,,https://www.redfin.com/WY/Cheyenne/609-Ridgeland-St-82009/home/134783960,CBR,97548,N,Y,41.1800112,-104.839256
MLS Listing,,Single Family Residential,809 E 5th St,Cheyenne,WY,82007,195000,1,1.0,CITY OF CHEYENNE,800,4792,1944,43,244,,Active,,,https://www.redfin.com/WY/Cheyenne/809-E-5th-St-82007/home/134675200,CBR,97546,N,Y,41.1263027,-104.7994874
MLS Listing,,Single Family Residential,3010 Crazy Horse Rd,Cheyenne,WY,82009,838500,3,2.0,JORDAN PASTURE SUBDIVISION,4418,344124,2025,43,190,,Active,,,https://www.redfin.com/WY/Cheyenne/3010-Crazy-Horse-Rd-82009/home/172634236,CBR,97538,N,Y,41.233706,-104.774044
MLS Listing,,Vacant Land,Tract 2 Road 215,Cheyenne,WY,82009,149000,,,SCHLUMPF ESTATES,,566280,,43,,,Active,,,https://www.redfin.com/WY/Cheyenne/Tract-2-Road-215-82009/home/187942303,CBR,97537,N,Y,41.21873978,-105.02412365
MLS Listing,,Single Family Residential,1218 Monroe Ave,Cheyenne,WY,82001,375000,5,2.0,GOOD REALTY TRA,2444,9583,1961,43,153,,Active,,,https://www.redfin.com/WY/Cheyenne/1218-Monroe-Ave-82001/home/134677223,CBR,97535,N,Y,41.1371428,-104.7593426
MLS Listing,,Single Family Residential,4046 Arrowhead Trl,Cheyenne,WY,82001,572470,5,3.0,SADDLE RIDGE,3116,6098,2025,43,184,,Active,,,https://www.redfin.com/WY/Cheyenne/4046-Arrowhead-Trl-82001/home/196135215,CBR,97534,N,Y,41.1531451,-104.7160744
MLS Listing,,Single Family Residential,1002 Haven Ct,Cheyenne,WY,82009,2900000,7,7.0,NORTH HAVEN,9465,195584,2024,44,306,,Active,,,https://www.redfin.com/WY/Cheyenne/1002-Haven-Ct-82009/home/186149421,CBR,97526,N,Y,41.215511,-104.839411
MLS Listing,,Single Family Residential,5327 Sullivan St,Cheyenne,WY,82009,700000,3,2.0,WHITNEY RANCH,3829,,2025,44,183,,Active,,,https://www.redfin.com/WY/Cheyenne/5327-Sullivan-St-82009/home/196129275,CBR,97523,N,Y,41.1639189,-104.7456178
MLS Listing,,Single Family Residential,8704 Cowpoke Rd,Cheyenne,WY,82009,869900,5,4.5,COWBOY COUNTRY,3634,93654,1979,44,239,,Active,,,https://www.redfin.com/WY/Cheyenne/8704-Cowpoke-Rd-82009/home/134991899,CBR,97522,N,Y,41.1985126,-104.8132616
MLS Listing,,Single Family Residential,4012 Farthing Rd,Cheyenne,WY,82001,888500,6,3.0,SADDLE RIDGE,3717,11761,2022,44,239,,Active,,,https://www.redfin.com/WY/Cheyenne/4012-Farthing-Rd-82001/home/179125469,CBR,97521,N,Y,41.1530296,-104.7202726
MLS Listing,,Single Family Residential,6424 Blue Roan Rd,Cheyenne,WY,82007,785000,3,2.0,BISON CROSSING,3460,192100,2022,44,227,,Active,,,https://www.redfin.com/WY/Cheyenne/6424-Blue-Roan-Rd-82007/home/179122788,CBR,97519,N,Y,41.0603647,-104.8005633
MLS Listing,,Single Family Residential,515 W 24th St,Cheyenne,WY,82001,310000,3,2.0,CITY OF CHEYENNE,1680,4356,1919,45,185,,Active,,,https://www.redfin.com/WY/Cheyenne/515-W-24th-St-82001/home/134726690,CBR,97516,N,Y,41.1381275,-104.8239063
MLS Listing,,Single Family Residential,5040 Greybull Ave,Cheyenne,WY,82009,384900,5,2.0,BUFFALO RIDGE,2352,8712,1959,45,164,,Active,,,https://www.redfin.com/WY/Cheyenne/5040-Greybull-Ave-82009/home/134818684,CBR,97514,N,Y,41.1656409,-104.7746668
MLS Listing,,Single Family Residential,3531 Gunsmoke Rd,Cheyenne,WY,82001,595000,5,4.0,SADDLE RIDGE,3388,10019,2011,45,176,,Active,,,https://www.redfin.com/WY/Cheyenne/3531-Gunsmoke-Rd-82001/home/134833734,CBR,97513,N,Y,41.1508383,-104.7231786
MLS Listing,,Vacant Land,Lot 19 Old Faithful Way,Cheyenne,WY,82009,135000,,,YELLOWSTONE ESTATES,,228690,,45,,,Active,,,https://www.redfin.com/WY/Unknown/Lot-19-Old-Faithful-Way-82009/home/187933644,CBR,97512,N,Y,41.13879298,-104.77504693
MLS Listing,,Vacant Land,Lot 18 Old Faithful Way,Cheyenne,WY,82009,155000,,,YELLOWSTONE ESTATES,,413384,,45,,,Active,,,https://www.redfin.com/WY/Unknown/Lot-18-Old-Faithful-Way-82009/home/187933935,CBR,97511,N,Y,41.13879298,-104.77504693
MLS Listing,,Mobile/Manufactured Home,2023 Mary Elizabeth Ln,Cheyenne,WY,82007,275000,3,2.0,LOVINGS PARK,1216,10890,2025,45,226,,Active,,,https://www.redfin.com/WY/Cheyenne/2023-Mary-Elizabeth-Ln-82007/home/135333845,CBR,97508,N,Y,41.0991681,-104.79764
MLS Listing,,Single Family Residential,743 Ranger Dr,Cheyenne,WY,82009,505000,6,3.0,WESTERN HILLS,3120,8712,1976,45,162,,Active,,,https://www.redfin.com/WY/Cheyenne/743-Ranger-Dr-82009/home/134970180,CBR,97503,N,Y,41.1823404,-104.8423081
MLS Listing,,Single Family Residential,4205 Sage Rd,Cheyenne,WY,82001,569000,3,2.0,SADDLE RIDGE,2741,8276,2022,46,208,,Active,August-2-2025 02:30 PM,August-2-2025 04:00 PM,https://www.redfin.com/WY/Cheyenne/4205-Sage-Rd-82001/home/172635322,CBR,97500,N,Y,41.1560532,-104.7192835
MLS Listing,,Single Family Residential,2411 E 12th St,Cheyenne,WY,82001,289000,3,2.0,LAKE MINNEHAHA,1080,6534,1940,46,268,,Active,,,https://www.redfin.com/WY/Cheyenne/2411-E-12th-St-82001/home/134814932,CBR,97498,N,Y,41.1364235,-104.7882972
MLS Listing,,Single Family Residential,1911 Seymour Ave,Cheyenne,WY,82001,239000,2,1.0,CITY OF CHEYENNE,865,3049,1917,46,276,,Active,,,https://www.redfin.com/WY/Cheyenne/1911-Seymour-Ave-82001/home/134923633,CBR,97496,N,Y,41.1387658,-104.8092117
MLS Listing,,Single Family Residential,2303 Goodnight Trl,Cheyenne,WY,82007,529900,4,2.0,SWEETGRASS,3284,10454,2021,46,161,,Active,,,https://www.redfin.com/WY/Cheyenne/2303-Rabbit-Brush-Trl-82007/home/172636641,CBR,97490,N,Y,41.097045,-104.785047
MLS Listing,,Townhouse,1532 Richard Martin Dr,Cheyenne,WY,82007,365000,3,2.5,HARMONY VALLEY,2359,3920,2023,46,155,,Active,August-2-2025 10:00 AM,August-2-2025 12:00 PM,https://www.redfin.com/WY/Cheyenne/1532-Richard-Martin-Dr-82007/home/179124881,CBR,97487,N,Y,41.1033941,-104.8229236
MLS Listing,,Single Family Residential,305 E 28th St,Cheyenne,WY,82001,279900,2,1.0,CITY OF CHEYENNE,1444,3049,1928,47,194,,Active,August-3-2025 12:30 PM,August-3-2025 02:00 PM,https://www.redfin.com/WY/Cheyenne/305-E-28th-St-82001/home/134886198,CBR,97392,N,Y,41.1446418,-104.818337
MLS Listing,,Single Family Residential,606 Cherry St,Cheyenne,WY,82007,585000,5,3.0,COUNTRY HOMES,3478,14375,2025,49,168,,Active,August-3-2025 10:00 AM,August-3-2025 01:00 PM,https://www.redfin.com/WY/Cheyenne/606-Cherry-St-82007/home/196086197,CBR,97481,N,Y,41.1015506,-104.8060764
MLS Listing,,Single Family Residential,7935 Golden Bell Trl,Cheyenne,WY,82001,504409,2,2.0,SADDLE RIDGE,2412,4792,2025,49,209,,Active,,,https://www.redfin.com/WY/Cheyenne/7935-Golden-Bell-Trl-82001/home/196083077,CBR,97479,N,Y,41.152939,-104.714482
MLS Listing,,Condo/Co-op,3118 Dillon Ave #2,Cheyenne,WY,82001,225000,2,1.0,CAPITOL HTS CON,960,32234,1949,49,234,,Active,,,https://www.redfin.com/WY/Cheyenne/3118-Dillon-Ave-82001/unit-2/home/134890144,CBR,97478,N,Y,41.1451076,-104.8331039
MLS Listing,,Mobile/Manufactured Home,300 E Prosser Rd #14,Cheyenne,WY,82007,85000,3,2.0,CIMMARON VILLAG,1188,,2002,49,72,,Active,,,https://www.redfin.com/WY/Cheyenne/300-E-Prosser-Rd-82007/unit-14/home/195970908,CBR,97320,N,Y,41.1067026,-104.7943642
MLS Listing,,Single Family Residential,615 W 7th St,Cheyenne,WY,82007,249000,2,1.0,ROBERTS PLACE,1156,13068,1937,49,215,,Active,,,https://www.redfin.com/WY/Cheyenne/615-W-7th-St-82007/home/134741394,CBR,97472,N,Y,41.1228777,-104.816438
MLS Listing,,Single Family Residential,607 Stanfield Ave,Cheyenne,WY,82007,219000,3,1.0,STANFIELD ADD,960,3920,1961,49,228,,Active,,,https://www.redfin.com/WY/Cheyenne/607-Stanfield-Ave-82007/home/134868124,CBR,97471,N,Y,41.1227019,-104.813837
MLS Listing,,Single Family Residential,857 Cleveland Ave,Cheyenne,WY,82001,335000,5,2.0,SUN VALLEY ADD,2450,8712,1962,49,137,,Active,,,https://www.redfin.com/WY/Cheyenne/857-Cleveland-Ave-82001/home/134742624,CBR,97350,N,Y,41.1339498,-104.7560402
MLS Listing,,Single Family Residential,204 W Pershing Blvd,Cheyenne,WY,82001,475000,3,1.5,MOORE HAVEN HTS,2456,5663,1927,49,193,,Active,August-2-2025 10:00 AM,August-2-2025 11:30 AM,https://www.redfin.com/WY/Cheyenne/204-W-Pershing-Blvd-82001/home/134856872,CBR,97164,N,Y,41.1462711,-104.824388
MLS Listing,,Single Family Residential,6001 Springfield Dr,Cheyenne,WY,82007,560000,4,3.0,BISON CROSSING,2668,108900,2004,49,210,,Active,,,https://www.redfin.com/WY/Cheyenne/6001-Springfield-Dr-82007/home/135086742,CBR,97466,N,Y,41.0635073,-104.8006722
MLS Listing,,Single Family Residential,2632 Henderson Dr,Cheyenne,WY,82001,355000,3,2.0,MT VIEW PRK CON,1425,6970,1955,50,249,,Active,,,https://www.redfin.com/WY/Cheyenne/2632-Henderson-Dr-82001/home/134968775,CBR,97464,N,Y,41.1442908,-104.7836067
MLS Listing,,Single Family Residential,3348 Hales Ranch Rd,Cheyenne,WY,82007,785000,4,4.0,LARAMIE COUNTY,4262,391604,2006,50,184,,Active,,,https://www.redfin.com/WY/Cheyenne/3348-Hales-Ranch-Rd-82007/home/134996032,WMLS,20252976,N,Y,41.1346824,-104.6471467
MLS Listing,,Single Family Residential,3806 Village View Ln,Cheyenne,WY,82009,360000,4,3.0,GATEWAY VILLAGE,2598,3920,2005,50,139,,Active,,,https://www.redfin.com/WY/Cheyenne/3806-Village-View-Ln-82009/home/134706196,CBR,97461,N,Y,41.1633956,-104.7627093
MLS Listing,,Single Family Residential,2763 Deming Blvd,Cheyenne,WY,82001,373000,3,1.5,MOUNTVIEW PARK,1779,8712,1952,50,210,,Active,August-2-2025 01:00 PM,August-2-2025 02:30 PM,https://www.redfin.com/WY/Cheyenne/2763-Deming-Blvd-82001/home/134980694,CBR,97460,N,Y,41.1448148,-104.7801615
MLS Listing,,Single Family Residential,3888 Road 207,Cheyenne,WY,82003,1850000,6,4.5,CAMPSTOOL ADD,4823,3484800,2006,50,384,,Active,,,https://www.redfin.com/WY/Cheyenne/3888-Road-207-82007/home/135085624,CBR,97457,N,Y,41.102974,-104.544566
MLS Listing,,Single Family Residential,407 Desmet Dr,Cheyenne,WY,82007,369500,3,2.0,HARMONY POINT,2726,6970,2006,50,136,,Active,,,https://www.redfin.com/WY/Cheyenne/407-Desmet-Dr-82007/home/135028606,CBR,97453,N,Y,41.1126861,-104.8158396
MLS Listing,,Single Family Residential,2900 Three Dots Trl,Cheyenne,WY,82009,814500,4,2.0,BELL PASTURE,4372,219978,2025,51,186,,Active,,,https://www.redfin.com/WY/Cheyenne/2900-Three-Dots-Trl-82009/home/196052905,CBR,97445,N,Y,41.2252023,-104.8620215
MLS Listing,,Single Family Residential,3316 Snyder Ave,Cheyenne,WY,82001,315000,3,2.0,CAPITOL HTS CON,1612,6970,1940,51,195,,Active,,,https://www.redfin.com/WY/Cheyenne/3316-Snyder-Ave-82001/home/134692654,CBR,97347,N,Y,41.14679,-104.831714
MLS Listing,,Mobile/Manufactured Home,751 S Avenue C #3,Cheyenne,WY,82007,45000,2,1.0,PROSSER TRACTS,672,,1973,51,67,,Active,,,https://www.redfin.com/WY/Cheyenne/751-Avenue-C-82007/unit-3/home/195849078,CBR,97166,N,Y,41.1097865,-104.7892505
MLS Listing,,Multi-Family (2-4 Unit),202 E 3rd Ave,Cheyenne,WY,82001,408000,5,2.0,PERSHING HTS,2486,5663,1923,51,164,,Active,,,https://www.redfin.com/WY/Cheyenne/202-E-3rd-Ave-82001/home/134922188,CBR,97433,N,Y,41.1489364,-104.8209085
MLS Listing,,Single Family Residential,2005 Pine Ave,Cheyenne,WY,82007,409000,3,2.0,COUNTRY HOMES,2623,6970,2017,52,156,,Active,,,https://www.redfin.com/WY/Cheyenne/2005-Pine-Ave-82007/home/146366651,CBR,97421,N,Y,41.0996254,-104.8045894
MLS Listing,,Single Family Residential,1047 West Plains Rd,Cheyenne,WY,82009,619000,3,2.0,SPRING CREEK RA,2960,290981,2025,53,209,,Active,,,https://www.redfin.com/WY/Cheyenne/1047-W-Plains-Rd-82009/home/196028391,CBR,97417,N,Y,41.258445,-105.0898179
MLS Listing,,Single Family Residential,721 Melton St,Cheyenne,WY,82009,370000,4,2.0,INDIAN HILLS,1850,8712,1965,54,200,,Active,,,https://www.redfin.com/WY/Cheyenne/721-Melton-St-82009/home/134749884,CBR,97403,N,Y,41.1674987,-104.8176202
MLS Listing,,Mobile/Manufactured Home,4322 South Pass Trl,Cheyenne,WY,82007,115000,3,2.0,SOUTH FORK MHP,1216,,2024,55,95,,Active,,,https://www.redfin.com/WY/Cheyenne/4322-S-Pass-Trl-82007/home/195998986,CBR,97375,N,Y,41.077437,-104.8031251
MLS Listing,,Single Family Residential,2916 Reed Ave,Cheyenne,WY,82001,375000,3,2.0,SWAYGER ADD,2024,5663,1926,56,185,,Active,,,https://www.redfin.com/WY/Cheyenne/2916-Reed-Ave-82001/home/134766154,CBR,97399,N,Y,41.1422643,-104.8302369
MLS Listing,,Single Family Residential,1100 Brundage Rd,Cheyenne,WY,82009,765000,6,3.0,HAPPY JACK RANC,4368,609840,1984,56,175,,Active,,,https://www.redfin.com/WY/Cheyenne/1100-Brundage-Rd-82009/home/134870940,CBR,97396,N,Y,41.165113,-105.0772685
MLS Listing,,Single Family Residential,508 E 5th St,Cheyenne,WY,82001,229000,3,1.0,SOUTH CHEYENNE,1250,4356,1927,56,183,,Active,,,https://www.redfin.com/WY/Cheyenne/508-E-5th-St-82007/home/134761557,CBR,97395,N,Y,41.1254765,-104.8031362
MLS Listing,,Single Family Residential,6909 Bomar Dr,Cheyenne,WY,82009,375000,5,2.0,MONTEREY HTS,2016,6970,1969,56,186,,Active,August-2-2025 11:00 AM,August-2-2025 01:00 PM,https://www.redfin.com/WY/Cheyenne/6909-Bomar-Dr-82009/home/134732239,CBR,97394,N,Y,41.1807202,-104.8225049
MLS Listing,,Single Family Residential,2618 Chevy Rd,Cheyenne,WY,82009,950000,4,3.5,NORTH COUNTRY,4890,493099,2004,56,194,,Active,,,https://www.redfin.com/WY/Cheyenne/2618-Chevy-Rd-82009/home/135053635,CBR,97391,N,Y,41.2538825,-104.7847843
MLS Listing,,Single Family Residential,2200 Arrowleaf Dr,Cheyenne,WY,82007,645000,5,3.0,SWEETGRASS,4054,9583,2020,57,159,,Active,,,https://www.redfin.com/WY/Cheyenne/2200-Arrowleaf-Dr-82007/home/172636633,CBR,97382,N,Y,41.0977715,-104.7829374
MLS Listing,,Vacant Land,Tract 25 Scenic Ridge Dr,Cheyenne,WY,82009,142000,,,ROCKING STAR RANCH,,365033,,57,,,Active,,,https://www.redfin.com/WY/Unknown/Tract-25-Scenic-Ridge-Dr-82009/home/195998707,CBR,97374,N,Y,41.242512505018,-105.005579990525
MLS Listing,,Single Family Residential,7108 Volar Dr,Cheyenne,WY,82009,441000,5,3.0,MONTEREY HTS,3026,8276,1979,57,146,,Active,August-2-2025 10:00 AM,August-2-2025 12:00 PM,https://www.redfin.com/WY/Cheyenne/7108-Volar-Dr-82009/home/134733023,CBR,97372,N,Y,41.1824504,-104.825116
MLS Listing,,Single Family Residential,5500 Liberty St,Cheyenne,WY,82001,389000,4,2.0,VALLEY VISTA,1889,6534,1985,57,206,,Active,,,https://www.redfin.com/WY/Cheyenne/5500-Liberty-St-82001/home/134759562,CBR,97368,N,Y,41.1576349,-104.7432603
MLS Listing,,Multi-Family (2-4 Unit),1933 Get Lucky Trl Trl,Cheyenne,WY,82007,915000,12,8.0,SWEETGRASS,4184,13504,2025,58,219,,Active,,,https://www.redfin.com/WY/Cheyenne/1933-Get-Lucky-Trl-82007/home/195990811,CBR,97360,N,Y,41.0984159,-104.7816439
MLS Listing,,Multi-Family (2-4 Unit),1950 Get Lucky Trl Trl,Cheyenne,WY,82007,920000,12,8.0,SWEETGRASS,4184,13068,2025,58,220,,Active,,,https://www.redfin.com/WY/Cheyenne/1950-Get-Lucky-Trl-82007/home/195990810,CBR,97357,N,Y,41.0984159,-104.7816439
MLS Listing,,Multi-Family (2-4 Unit),1949 Get Lucky Trl Trl,Cheyenne,WY,82007,920000,12,8.0,SWEETGRASS,4184,13504,2026,58,220,,Active,,,https://www.redfin.com/WY/Cheyenne/1949-Get-Lucky-Trl-82007/home/195990808,CBR,97361,N,Y,41.0984159,-104.7816439
MLS Listing,,Single Family Residential,3934 Saddleback Ln,Cheyenne,WY,82001,529900,3,2.0,SADDLE RIDGE,3391,5663,2025,58,156,,Active,,,https://www.redfin.com/WY/Cheyenne/3934-Saddleback-Ln-82001/home/193516794,CBR,97355,N,Y,41.1539446,-104.716612
MLS Listing,,Vacant Land,Range Line Rd,Cheyenne,WY,82009,180000,,,HAPPY VALLEY,,856390,,58,,,Active,,,https://www.redfin.com/WY/Cheyenne/Range-Line-Rd-82009/home/165516999,CBR,97354,N,Y,41.136422,-105.056126
MLS Listing,,Single Family Residential,1348 Jessi Dr,Cheyenne,WY,82009,725000,4,2.5,"POINTE, THE",4445,,2015,58,163,,Active,August-2-2025 12:30 PM,August-2-2025 02:00 PM,https://www.redfin.com/WY/Cheyenne/1348-Jessi-Dr-82009/home/135154765,CBR,97344,N,Y,41.1876168,-104.8042881
MLS Listing,,Single Family Residential,5208 Danielle Ct,Cheyenne,WY,82009,465000,4,3.0,SUMMIT HILLS,2742,8276,2003,59,170,,Active,,,https://www.redfin.com/WY/Cheyenne/5208-Danielle-Ct-82009/home/135081391,CBR,97337,N,Y,41.1658595,-104.7678869
MLS Listing,,Vacant Land,TRACT 29 Barnwood Blvd,Cheyenne,WY,82009,110000,,,DIAMOND B RANCH,,1750241,,59,,,Active,,,https://www.redfin.com/WY/Cheyenne/TRACT-29-Barnwood-Blvd-82009/home/195977230,CBR,97333,N,Y,41.4368815937825,-104.580573006944
MLS Listing,,Single Family Residential,2201 Blue Norther Ln,Cheyenne,WY,82007,409900,3,2.0,SWEETGRASS,2400,9583,2022,60,171,,Active,,,https://www.redfin.com/WY/Cheyenne/2201-Blue-Norther-Ln-82007/home/181980088,CBR,97317,N,Y,41.0967714,-104.7810181
MLS Listing,,Single Family Residential,3308 Thomas Rd,Cheyenne,WY,82009,460000,3,2.0,SUN RISE HILLS NORTH,2628,6970,2025,60,175,,Active,August-2-2025 12:30 PM,August-2-2025 02:00 PM,https://www.redfin.com/WY/Cheyenne/3308-Thomas-Rd-82009/home/195970671,CBR,97316,N,Y,41.1709687,-104.7703708
MLS Listing,,Single Family Residential,8720 Cowpoke Rd,Cheyenne,WY,82009,680000,4,3.0,COWBOY COUNTRY,3848,89298,1979,61,177,,Active,,,https://www.redfin.com/WY/Cheyenne/8720-Cowpoke-Rd-82009/home/134933888,CBR,97312,N,Y,41.198763,-104.8117592
MLS Listing,,Vacant Land,tbt Road 110,Cheyenne,WY,82009,110000,,,MOUNTAIN SHADOW,,255262,,61,,,Active,,,https://www.redfin.com/WY/Unknown/tbt-Road-110-82009/home/195967303,CBR,97310,N,Y,41.2488,-104.8289
MLS Listing,,Vacant Land,Lot 340 Carribean Rd,Cheyenne,WY,82009,160000,,,HAPPY VALLEY,,425581,,62,,,Active,,,https://www.redfin.com/WY/Unknown/Lot-340-Carribean-Rd-82009/home/195964553,CBR,97306,N,Y,41.1279165486867,-105.046437879944
MLS Listing,,Townhouse,Lot 12 Raleigh Dr,Cheyenne,WY,82001,349900,3,2.5,CENTENNIAL HERI,2096,3485,2025,63,167,,Active,,,https://www.redfin.com/WY/Cheyenne/Lot-12-Raleigh-Dr-82001/home/195958755,CBR,97299,N,Y,41.1291404759474,-104.752097133064
MLS Listing,,Townhouse,Lot 11 Raleigh Dr,Cheyenne,WY,82001,349900,3,2.5,CENTENNIAL HERI,2096,2178,2025,63,167,,Active,,,https://www.redfin.com/WY/Cheyenne/Lot-11-Raleigh-Dr-82001/home/195958754,CBR,97300,N,Y,41.1291510665823,-104.751991620832
MLS Listing,,Multi-Family (2-4 Unit),212 E 25th St,Cheyenne,WY,82001,474000,3,2.0,CITY OF CHEYENNE,2832,5663,1901,63,167,,Active,,,https://www.redfin.com/WY/Cheyenne/212-E-25th-St-82001/home/134948691,CBR,97297,N,Y,41.1419862,-104.8177665
MLS Listing,,Single Family Residential,7916 Wilderness Trl,Cheyenne,WY,82001,488800,2,2.0,SADDLE RIDGE,2412,4792,2025,63,203,,Active,,,https://www.redfin.com/WY/Cheyenne/7916-Wilderness-Trl-82001/home/194617893,CBR,97298,N,Y,41.1522297,-104.7236174
MLS Listing,,Multi-Family (2-4 Unit),1837 Crook Ave Ave,Cheyenne,WY,82001,499000,5,3.0,MOUNTVIEW PARK,2430,4792,1947,63,205,,Active,,,https://www.redfin.com/WY/Cheyenne/1837-Crook-Ave-82001/home/134753668,CBR,97294,N,Y,41.1432565,-104.7886975
MLS Listing,,Condo/Co-op,624 Western Hills Blvd,Cheyenne,WY,82009,250000,2,1.0,CHATEAU DES COL,1102,,1972,64,227,,Active,,,https://www.redfin.com/WY/Cheyenne/624-Western-Hills-Blvd-82009/home/196016326,CBR,97286,N,Y,41.1752534,-104.8397178
MLS Listing,,Townhouse,6516 Faith Dr,Cheyenne,WY,82009,419000,3,3.5,"POINTE, THE",2048,871,2017,64,205,,Active,,,https://www.redfin.com/WY/Cheyenne/6516-Faith-Dr-82009/home/146366461,CBR,97160,N,Y,41.1796333,-104.8087658
MLS Listing,,Townhouse,6101 Deer Ave,Cheyenne,WY,82009,425000,3,3.0,NORTHWEST,3922,29185,1980,64,108,,Active,,,https://www.redfin.com/WY/Cheyenne/6101-Deer-Ave-82009/home/134852279,CBR,97218,N,Y,41.1755511,-104.8397805
MLS Listing,,Single Family Residential,5801 Mica Blf,Cheyenne,WY,82009,769900,5,3.0,BLUFFS THE,3670,8712,2022,65,210,,Active,August-2-2025 10:30 AM,August-2-2025 12:30 PM,https://www.redfin.com/WY/Cheyenne/5801-Mica-Blf-82009/home/165535684,CBR,97276,N,Y,41.1718141,-104.783055
MLS Listing,,Single Family Residential,2352 Old Faithful Way,Cheyenne,WY,82009,884000,5,3.0,YELLOWSTONE ESTATES,3884,228690,2021,66,228,,Active,,,https://www.redfin.com/WY/Cheyenne/2352-Old-Faithful-Way-82009/home/179126178,CBR,97266,N,Y,41.3308006,-104.8359544
MLS Listing,,Single Family Residential,1751 E Pershing Blvd,Cheyenne,WY,82001,265000,4,2.0,LOGAN HEIGHTS,1520,4792,1940,66,174,,Active,,,https://www.redfin.com/WY/Cheyenne/1751-E-Pershing-Blvd-82001/home/134910813,CBR,97263,N,Y,41.1456453,-104.7975138
MLS Listing,,Single Family Residential,2615 Capitol Ave,Cheyenne,WY,82001,499900,5,3.0,CITY OF CHEYENNE,3826,3920,1922,66,131,,Active,,,https://www.redfin.com/WY/Cheyenne/2615-Capitol-Ave-82001/home/134989158,CBR,97254,N,Y,41.142212,-104.821229
MLS Listing,,Townhouse,5324 Akes Dr,Cheyenne,WY,82009,439999,2,2.5,WALDEN ADD,3054,5227,1987,67,144,,Active,,,https://www.redfin.com/WY/Cheyenne/5324-Akes-Dr-82009/home/134745092,CBR,97118,N,Y,41.1685145,-104.8335499
MLS Listing,,Mobile/Manufactured Home,402 E Prosser Rd #11,Cheyenne,WY,82007,134900,3,2.0,WILD HORSE PARK SUBDIVISION,1184,,2025,70,114,,Active,,,https://www.redfin.com/WY/Cheyenne/402-E-Prosser-Rd-82007/unit-11/home/195904084,CBR,97244,N,Y,41.1061914,-104.7971646
MLS Listing,,Single Family Residential,501 E 9th St,Cheyenne,WY,82007,270000,2,1.0,CITY OF CHEYENNE,1664,5663,1916,70,162,,Active,,,https://www.redfin.com/WY/Cheyenne/501-E-9th-St-82007/home/134841093,CBR,97049,N,Y,41.1285134,-104.8053554
MLS Listing,,Vacant Land,Tr 10 Tomahawk Rd,Cheyenne,WY,82009,250000,,,ARROWHEAD EST,,260053,,70,,,Active,,,https://www.redfin.com/WY/Unknown/Tr-10-Tomahawk-Rd-82009/home/195899966,CBR,97235,N,Y,41.1904207803822,-105.172265669251
MLS Listing,,Single Family Residential,3529 Concord Rd,Cheyenne,WY,82001,375000,4,3.0,EASTRIDGE,2940,8276,1957,70,128,,Active,August-2-2025 11:00 AM,August-2-2025 12:30 PM,https://www.redfin.com/WY/Cheyenne/3529-Concord-Rd-82001/home/134697355,CBR,97231,N,Y,41.1494502,-104.8009996
MLS Listing,,Single Family Residential,1210 Concerto Ln,Cheyenne,WY,82007,463000,4,3.5,HARMONY MEADOWS,1969,8276,2007,70,235,,Active,,,https://www.redfin.com/WY/Cheyenne/1210-Concerto-Ln-82007/home/134808507,CBR,97230,N,Y,41.1066162,-104.8134103
MLS Listing,,Townhouse,1808 Richard Martin Dr,Cheyenne,WY,82007,369900,3,2.5,HARMONY VALLEY,1568,2614,2025,70,236,,Active,,,https://www.redfin.com/WY/Cheyenne/1808-Richard-Martin-Dr-82009/home/195110825,CBR,96452,N,Y,41.1031918,-104.8268143
MLS Listing,,Vacant Land,TBD Lot 40 Panorama Dr,Cheyenne,WY,82009,88000,,,VIEW POINT NORT,,6970,,70,,,Active,,,https://www.redfin.com/WY/Cheyenne/TBD-Lot-40-Panorama-Dr-82009/home/195896500,CBR,97228,N,Y,41.1652824733954,-104.753937622452
MLS Listing,,Vacant Land,TBD Lot 44 Panorama Dr,Cheyenne,WY,82009,138000,,,VIEW POINT NORT,,8276,,70,,,Active,,,https://www.redfin.com/WY/Cheyenne/TBD-Lot-44-Panorama-Dr-82009/home/195896499,CBR,97229,N,Y,41.1652097820035,-104.753808876419
MLS Listing,,Vacant Land,TBD Lot 39 Panorama Dr,Cheyenne,WY,82009,88000,,,VIEW POINT NORT,,6098,,70,,,Active,,,https://www.redfin.com/WY/Cheyenne/TBD-Lot-39-Panorama-Dr-82009/home/195896378,CBR,97227,N,Y,41.1652582429404,-104.753712316895
MLS Listing,,Vacant Land,TBD Lot 38 Panorama Dr,Cheyenne,WY,82009,88000,,,VIEW POINT NORT,,6098,,70,,,Active,,,https://www.redfin.com/WY/Cheyenne/TBD-Lot-38-Panorama-Dr-82009/home/195896377,CBR,97226,N,Y,41.16525016612,-104.753637215042
MLS Listing,,Vacant Land,TBD Lot 35 Panorama Dr,Cheyenne,WY,82009,88000,,,VIEW POINT NORT,,6098,,70,,,Active,,,https://www.redfin.com/WY/Cheyenne/TBD-Lot-35-Panorama-Dr-82009/home/195896308,CBR,97223,N,Y,41.1653955487338,-104.752832552338
MLS Listing,,Vacant Land,TBD Lot 36 Panorama Dr,Cheyenne,WY,82009,88000,,,VIEW POINT NORT,,7841,,70,,,Active,,,https://www.redfin.com/WY/Cheyenne/TBD-Lot-36-Panorama-Dr-82009/home/195896307,CBR,97224,N,Y,41.1653228574673,-104.752746721649
MLS Listing,,Vacant Land,TBD Lot 37 Panorama Dr,Cheyenne,WY,82009,88000,,,VIEW POINT NORT,,6534,,70,,,Active,,,https://www.redfin.com/WY/Cheyenne/TBD-Lot-37-Panorama-Dr-82009/home/195896306,CBR,97225,N,Y,41.1653228574673,-104.752746721649
MLS Listing,,Vacant Land,TBD Lot 34 Panorama Dr,Cheyenne,WY,82009,88000,,,VIEW POINT NORT,,6970,,70,,,Active,,,https://www.redfin.com/WY/Cheyenne/TBD-Lot-34-Panorama-Dr-82009/home/195896305,CBR,97222,N,Y,41.1653874719303,-104.752735992813
MLS Listing,,Single Family Residential,3021 Thomes Ave,Cheyenne,WY,82001,411000,3,2.0,HELLMAN HEIGHTS,2256,5663,1930,71,182,,Active,,,https://www.redfin.com/WY/Cheyenne/3021-Thomes-Ave-82001/home/134710332,CBR,97213,N,Y,41.1447322,-104.8269898
MLS Listing,,Single Family Residential,TBD Chilkoot Pass,Cheyenne,WY,82009,725000,3,2.0,MEADOWLARK RIDGE ESTATES,3410,228690,2025,71,213,,Active,,,https://www.redfin.com/WY/Cheyenne/TBD-Chilkoot-PASS-Unknown/home/195876446,CBR,97207,N,Y,41.2267097222937,-104.931747774768
MLS Listing,,Single Family Residential,TBD Golden Lark Trl,Cheyenne,WY,82009,725000,3,2.0,MEADOWLARK RIDGE ESTATES,3458,228690,2025,71,210,,Active,,,https://www.redfin.com/WY/Cheyenne/TBD-Golden-Lark-TRL-Unknown/home/195876384,CBR,97206,N,Y,41.2240178784843,-104.933448961952
MLS Listing,,Vacant Land,TBD E Four Mile Rd,Cheyenne,WY,82009,200000,,,HERITAGE HILLS,,220849,,71,,,Active,,,https://www.redfin.com/WY/Cheyenne/TBD-E-Four-Mile-Rd-82009/home/187934407,CBR,97202,N,Y,41.18880065,-104.7227647
MLS Listing,,Single Family Residential,600 Manor Ln,Cheyenne,WY,82009,580000,6,3.0,MANEWAL ADD,3892,16117,1964,72,149,,Active,,,https://www.redfin.com/WY/Cheyenne/600-Manor-Ln-82009/home/135060530,CBR,97198,N,Y,41.1732524,-104.8398861
MLS Listing,,Mobile/Manufactured Home,1243 Affirmed Rd,Cheyenne,WY,82009,584900,3,2.0,TRIPLE CROWN,4216,335412,2002,72,139,,Active,August-3-2025 01:00 PM,August-3-2025 02:30 PM,https://www.redfin.com/WY/Cheyenne/1243-Affirmed-Rd-82009/home/134869955,CBR,97192,N,Y,41.1799777,-104.600973
MLS Listing,,Single Family Residential,8012 Bobcat Rd,Cheyenne,WY,82009,574499,5,3.0,COMMUTER ESTATE,3581,195149,1975,72,160,,Active,,,https://www.redfin.com/WY/Cheyenne/8012-Bobcat-Rd-82009/home/134881081,CBR,96925,N,Y,41.1923137,-104.7756313
MLS Listing,,Vacant Land,TRACT 14 Old Faithful Way,Cheyenne,WY,82009,190000,,,YELLOWSTONE ESTATES,,361984,,73,,,Active,,,https://www.redfin.com/WY/Unknown/TRACT-14-Old-Faithful-Way-82009/home/187933560,CBR,97183,N,Y,41.3293943375498,-104.841409343665
MLS Listing,,Single Family Residential,6812 Line Ct,Cheyenne,WY,82007,715000,3,3.0,BISON CROSSING,3070,150718,2009,73,233,,Active,,,https://www.redfin.com/WY/Cheyenne/6812-Line-Ct-82007/home/134796059,CBR,97181,N,Y,41.0553577,-104.824869
